#------------------------------------------------------------------------------
#
#   Created by  : [OpenWorks] Log Export Utility (LEXP)
#   Created on  : 2016-05-23 11:52:25
#   Project     : CANT971
#   User        : R5K
#   Interpreter : PEP
#
#------------------------------------------------------------------------------
~VERSION INFORMATION
VERS. 2.0 : CWLS Log ASCII Standard - version 2.0
WRAP.  NO : One line per depth step
~WELL INFORMATION
#MNEMONIC   .UNIT                                           VALUE :DESCRIPTION
#------------------------------------------------------------------------------
STRT        .M                                           940.1293 :START DEPTH
STOP        .M                                          2672.0029 :STOP DEPTH
STEP        .M                                             0.1524 :STEP
NULL        .                                           -999.2500 :NULL VALUE
COMP        .                                   PEMEX EXPL & PROD :COMPANY
WELL        .                                               2071D :WELL
FLD         .                                           CANTARELL :FIELD
LOC         .                                             UNKNOWN :LOCATION
CNTY        .                                      CD. DEL CARMEN :COUNTY
STAT        .                                            CAMPECHE :STATE
CTRY        .                                              MEXICO :COUNTRY
SRVC        .                                             UNKNOWN :SERVICE COMPANY
DATE        .                                             UNKNOWN :LOG DATE
UWI         .                                          3060000679 :UNIQUE WELL ID
XCOORD      .                                       601713.940000 :SURFACE X
YCOORD      .                                      2142372.000000 :SURFACE Y
LAT         .                                           19.374038 :LATITUDE
LON         .                                          -92.031462 :LONGITUDE
ELEV        .M                                            30.0000 :SURFACE ELEV
ELEV_TYPEF  .b/elec                                            KB :ELEV TYPE
~CURVE INFORMATION
#MNEMONIC.UNIT        API CODE       : CURVE DESCRIPTION
#------------------------------------------------------------------------------
DEPTH    .M                          : Measured Depth
CALI     .in          UNKNOWN        : CALI:UNKNOWN:rC:NONE:v0 (auto-composite)
DRHO     .g/cm3       UNKNOWN        : DRHO:UNKNOWN:rC:NONE:v0 (auto-composite)
DT       .us/ft       UNKNOWN        : DT:DT:rC:NONE:v0 (auto-composite)
GR       .API         UNKNOWN        : GR:UNKNOWN:rC:NONE:v0 (auto-composite)
ILD      .ohmm        UNKNOWN        : ILD:UNKNOWN:rC:NONE:v0 (auto-composite)
ILM      .ohmm        UNKNOWN        : ILM:UNKNOWN:rC:NONE:v0 (auto-composite)
LLD      .ohmm        UNKNOWN        : LLD:UNKNOWN:rC:NONE:v0 (auto-composite)
LLS      .ohmm        UNKNOWN        : LLS:UNKNOWN:rC:NONE:v0 (auto-composite)
MSFL     .ohmm        UNKNOWN        : MSFL:UNKNOWN:rC:NONE:v0 (auto-composite)
NPHI     .v/v_decimal UNKNOWN        : NPHI:UNKNOWN:rC:NONE:v0 (auto-composite)
PEF      .b/elec      UNKNOWN        : PEF:UNKNOWN:rC:NONE:v0 (auto-composite)
RHOB     .g/cm3       UNKNOWN        : RHOB:UNKNOWN:rC:NONE:v0 (auto-composite)
~A     DEPTH         CALI         DRHO           DT           GR          ILD          ILM          LLD          LLS         MSFL         NPHI          PEF         RHOB
# ...
   2454.3757      10.8061       0.0325      49.1180      39.5589    -999.2500    -999.2500     374.1883     161.2292       0.6681       0.0776       3.2570       2.6890
   2454.5281      10.8410       0.0300      47.7600      38.2480    -999.2500    -999.2500     389.2730     165.9920       0.7400       0.0718       3.2720       2.6840
   2454.6804      10.8495       0.0405      50.0712      43.7332    -999.2500    -999.2500     365.1183     151.9133       0.7770       0.0686       3.2815       2.7130
   2454.8330      10.8580       0.0510      52.3790      49.2190    -999.2500    -999.2500     340.9610     137.8330       0.8140       0.0654       3.2910       2.7420
   2454.9854      10.8665       0.0425      50.1340      49.2190    -999.2500    -999.2500     340.9610     137.8330       0.8365       0.0673       3.2216       2.7290
   2455.1377      10.8750       0.0340      47.8920    -999.2500    -999.2500    -999.2500    -999.2500    -999.2500       0.8590       0.0692       3.1520       2.7160
   2455.2900      10.8905       0.0315      48.5339    -999.2500    -999.2500    -999.2500    -999.2500    -999.2500       0.8059       0.0661       3.1415       2.7085
   2455.4426      10.9060       0.0290      49.1750    -999.2500    -999.2500    -999.2500    -999.2500    -999.2500       0.7530       0.0630       3.1310       2.7010
   2455.5950      10.8644       0.0330      51.3512    -999.2500    -999.2500    -999.2500    -999.2500    -999.2500       0.9516       0.0643       3.1546       2.7150
   2455.7473      10.8230       0.0370      53.5250    -999.2500    -999.2500    -999.2500    -999.2500    -999.2500       1.1490       0.0655       3.1780       2.7290
   2455.8997      10.8010       0.0455      52.4530    -999.2500    -999.2500    -999.2500    -999.2500    -999.2500       1.0003       0.0648       3.2221       2.7445
   2456.0522      10.7790       0.0540      51.3820    -999.2500    -999.2500    -999.2500    -999.2500    -999.2500       0.8520       0.0641       3.2660       2.7600
   2456.2046      10.7830       0.0465      54.4568    -999.2500    -999.2500    -999.2500    -999.2500    -999.2500       0.7570       0.0687       3.2685       2.7265
   2456.3569      10.7870       0.0390      57.5290    -999.2500    -999.2500    -999.2500    -999.2500    -999.2500       0.6620       0.0733       3.2710       2.6930
   2456.5093      10.7630       0.0360      54.5954    -999.2500    -999.2500    -999.2500    -999.2500    -999.2500       0.6011       0.0711       3.2805       2.6865
   2456.6616      10.7390       0.0330      51.6640    -999.2500    -999.2500    -999.2500    -999.2500    -999.2500       0.5400       0.0688       3.2900       2.6800
   2456.8142      10.7270       0.0295      58.1975    -999.2500    -999.2500    -999.2500    -999.2500    -999.2500       0.4935       0.0627       3.2730       2.6905
   2456.9666      10.7150       0.0260      64.7270    -999.2500    -999.2500    -999.2500    -999.2500    -999.2500       0.4470       0.0567       3.2560       2.7010
   2457.1189      10.7511       0.0240      66.6105    -999.2500    -999.2500    -999.2500    -999.2500    -999.2500       0.5433       0.0501       3.2349       2.7160
   2457.2712      10.7870       0.0220      68.4930    -999.2500    -999.2500    -999.2500    -999.2500    -999.2500       0.6390       0.0436       3.2140       2.7310
   2457.4238      10.7750       0.0270      61.5192    -999.2500    -999.2500    -999.2500    -999.2500    -999.2500       0.6285       0.0468       3.1784       2.7410
   2457.5762      10.7630       0.0320      54.5480    -999.2500    -999.2500    -999.2500    -999.2500    -999.2500       0.6180       0.0499       3.1430       2.7510
   2457.7285      10.7950       0.0315      57.4418    -999.2500    -999.2500    -999.2500    -999.2500    -999.2500       0.6375       0.0587       3.1710       2.7325
   2457.8809      10.8270       0.0310      60.3350    -999.2500    -999.2500    -999.2500    -999.2500    -999.2500       0.6570       0.0675       3.1990       2.7140
   2458.0334      10.7621       0.0435      61.1140    -999.2500    -999.2500    -999.2500    -999.2500    -999.2500       0.6066       0.0650       3.2349       2.7100
   2458.1858      10.6970       0.0560      61.8930    -999.2500    -999.2500    -999.2500    -999.2500    -999.2500       0.5560       0.0626       3.2710       2.7060
   2458.3381      10.6585       0.0590      58.0675    -999.2500    -999.2500    -999.2500    -999.2500    -999.2500       0.6185       0.0616       3.3000       2.7180
   2458.4905      10.6200       0.0620      54.2420    -999.2500    -999.2500    -999.2500    -999.2500    -999.2500       0.6810       0.0605       3.3290       2.7300
   2458.6428      10.7158       0.0585      56.7703    -999.2500    -999.2500    -999.2500    -999.2500    -999.2500       0.6354       0.0597       3.2613       2.7345
   2458.7954      10.8110       0.0550      59.2950    -999.2500    -999.2500    -999.2500    -999.2500    -999.2500       0.5900       0.0589       3.1940       2.7390
   2458.9478      10.7154       0.0775      63.2742    -999.2500    -999.2500    -999.2500    -999.2500    -999.2500       0.6291       0.0660       3.2015       2.7170
   2459.1001      10.6200       0.1000      67.2480    -999.2500    -999.2500    -999.2500    -999.2500    -999.2500       0.6680       0.0730       3.2090       2.6950
   2459.2524      10.5370       0.0935      60.4624    -999.2500    -999.2500    -999.2500    -999.2500    -999.2500       0.6475       0.0669       3.2210       2.6885
   2459.4050      10.4540       0.0870      53.6850    -999.2500    -999.2500    -999.2500    -999.2500    -999.2500       0.6270       0.0608       3.2330       2.6820
   2459.5574      10.5019       0.0950      55.3009    -999.2500    -999.2500    -999.2500    -999.2500    -999.2500       0.6135       0.0513       3.2515       2.7404
   2459.7097      10.5500       0.1030      56.9150    -999.2500    -999.2500    -999.2500    -999.2500    -999.2500       0.6000       0.0419       3.2700       2.7990
   2459.8621      10.5615       0.0690      64.8518    -999.2500    -999.2500    -999.2500    -999.2500    -999.2500       0.6761       0.0391       3.2234       2.7930
   2460.0146      10.5730       0.0350      72.7810    -999.2500    -999.2500    -999.2500    -999.2500    -999.2500       0.7520       0.0363       3.1770       2.7870
   2460.1670      10.5289       0.0345      68.4632    -999.2500    -999.2500    -999.2500    -999.2500    -999.2500       0.6522       0.0412       3.1710       2.7815
   2460.3193      10.4850       0.0340      64.1490    -999.2500    -999.2500    -999.2500    -999.2500    -999.2500       0.5530       0.0460       3.1650       2.7760
   2460.4717      10.4940       0.0295      66.1527    -999.2500    -999.2500    -999.2500    -999.2500    -999.2500       0.5365       0.0504       3.1825       2.7530
   2460.6240      10.5030       0.0250      68.1550    -999.2500    -999.2500    -999.2500    -999.2500    -999.2500       0.5200       0.0547       3.2000       2.7300
   2460.7766      10.5415       0.0200      59.9566    -999.2500    -999.2500    -999.2500    -999.2500    -999.2500       0.5810       0.0509       3.2070       2.7120
   2460.9290      10.5800       0.0150      51.7630    -999.2500    -999.2500    -999.2500    -999.2500    -999.2500       0.6420       0.0470       3.2140       2.6940
   2461.0813      10.5170       0.0205      54.4276    -999.2500    -999.2500    -999.2500    -999.2500    -999.2500       0.5970       0.0449       3.2170       2.7095
   2461.2336      10.4540       0.0260      57.0910    -999.2500    -999.2500    -999.2500    -999.2500    -999.2500       0.5520       0.0427       3.2200       2.7250
   2461.3862      10.4935       0.0335      54.7361    -999.2500    -999.2500    -999.2500    -999.2500    -999.2500       0.5865       0.0489       3.2270       2.7450
   2461.5386      10.5330       0.0410      52.3820    -999.2500    -999.2500    -999.2500    -999.2500    -999.2500       0.6210       0.0550       3.2340       2.7650
