#------------------------------------------------------------------------------
#
#   Created by  : [OpenWorks] Log Export Utility (LEXP)
#   Created on  : 2016-05-23 11:57:09
#   Project     : CANT971
#   User        : R5K
#   Interpreter : PEP
#
#------------------------------------------------------------------------------
~VERSION INFORMATION
VERS. 2.0 : CWLS Log ASCII Standard - version 2.0
WRAP.  NO : One line per depth step
~WELL INFORMATION
#MNEMONIC   .UNIT                                           VALUE :DESCRIPTION
#------------------------------------------------------------------------------
STRT        .M                                           143.0270 :START DEPTH
STOP        .M                                          2096.0330 :STOP DEPTH
STEP        .M                                             0.1524 :STEP
NULL        .                                           -999.2500 :NULL VALUE
COMP        .                                   PEMEX EXPL & PROD :COMPANY
WELL        .                                                   7 :WELL
FLD         .                                           CANTARELL :FIELD
LOC         .                                             UNKNOWN :LOCATION
CNTY        .                                      CD. DEL CARMEN :COUNTY
STAT        .                                            CAMPECHE :STATE
CTRY        .                                              MEXICO :COUNTRY
SRVC        .                                             UNKNOWN :SERVICE COMPANY
DATE        .                                             UNKNOWN :LOG DATE
UWI         .                                            W-C-0007 :UNIQUE WELL ID
XCOORD      .                                       603360.340000 :SURFACE X
YCOORD      .                                      2145093.880000 :SURFACE Y
LAT         .                                           19.398550 :LATITUDE
LON         .                                          -92.015638 :LONGITUDE
ELEV        .M                                            27.1400 :SURFACE ELEV
ELEV_TYPE   .                                                  KB :ELEV TYPE
~CURVE INFORMATION
#MNEMONIC.UNIT        API CODE       : CURVE DESCRIPTION
#------------------------------------------------------------------------------
DEPTH    .M                          : Measured Depth
CAL      .inches      UNKNOWN        : CAL:UNKNOWN:rC:NONE:v0 (auto-composite)
DRHO     .g/cm3       UNKNOWN        : DRHO:UNKNOWN:rC:NONE:v0 (auto-composite)
DT       .us/ft       UNKNOWN        : DT:UNKNOWN:rC:NONE:v0 (auto-composite)
GR       .api         UNKNOWN        : GR:UNKNOWN:rC:NONE:v0 (auto-composite)
ILD      .ohmm        UNKNOWN        : ILD:UNKNOWN:rC:NONE:v0 (auto-composite)
NPHI     .v/v_decimal UNKNOWN        : NPHI:UNKNOWN:rC:NONE:v0 (auto-composite)
RHOB     .g/cm3       UNKNOWN        : RHOB:UNKNOWN:rC:NONE:v0 (auto-composite)
~A     DEPTH          CAL         DRHO           DT           GR          ILD         NPHI         RHOB
# ...
    272.1098       0.0000       0.2500      40.0000       0.0000       1.4771      -0.1500       1.9500
    272.2622       0.0000       0.2500      40.0000       0.0000       1.4936      -0.1500       1.9500
    272.4146       0.0000       0.2500      40.0000       0.0000       1.5079      -0.1500       1.9500
    272.5670       0.0000       0.2500      40.0000       0.0000       1.5069      -0.1500       1.9500
    272.7194       0.0000       0.2500      40.0000       0.0000       1.5048      -0.1500       1.9500
    272.8718       0.0000       0.2500      40.0000       0.0000       1.4868      -0.1500       1.9500
    273.0242       0.0000       0.2500      40.0000       0.0000       1.4690      -0.1500       1.9500
    273.1766       0.0000       0.2500      40.0000       0.0000       1.4431      -0.1500       1.9500
    273.3290       0.0000       0.2500      40.0000       0.0000       1.4174      -0.1500       1.9500
    273.4814       0.0000       0.2500      40.0000       0.0000       1.3967      -0.1500       1.9500
    273.6338       0.0000       0.2500      40.0000       0.0000       1.3763      -0.1500       1.9500
    273.7862       0.0000       0.2500      40.0000       0.0000       1.3568      -0.1500       1.9500
    273.9386       0.0000       0.2500      40.0000       0.0000       1.3374      -0.1500       1.9500
    274.0910       0.0000       0.2500      40.0000       0.0000       1.3256      -0.1500       1.9500
    274.2434       0.0000       0.2500      40.0000       0.0000       1.3154      -0.1500       1.9500
    274.3958       0.0000       0.2500      40.0000       0.0000       1.3100      -0.1500       1.9500
    274.5482       0.0000       0.2500      40.0000       0.0000       1.3061      -0.1500       1.9500
    274.7006       0.0000       0.2500      40.0000       0.0000       1.3050      -0.1500       1.9500
    274.8530       0.0000       0.2500      40.0000       0.0000       1.3050      -0.1500       1.9500
    275.0054       0.0000       0.2500      40.0000       0.0000       1.3047      -0.1500       1.9500
    275.1578       0.0000       0.2500      40.0000       0.0000       1.3042      -0.1500       1.9500
    275.3102       0.0000       0.2500      40.0000       0.0000       1.3046      -0.1500       1.9500
    275.4626       0.0000       0.2500      40.0000       0.0000       1.3055      -0.1500       1.9500
    275.6150       0.0000       0.2500      40.0000       0.0000       1.3085      -0.1500       1.9500
    275.7674       0.0000       0.2500      40.0000       0.0000       1.3134      -0.1500       1.9500
    275.9198       0.0000       0.2500      40.0000       0.0000       1.3167      -0.1500       1.9500
    276.0722       0.0000       0.2500      40.0000       0.0000       1.3181      -0.1500       1.9500
    276.2246       0.0000       0.2500      40.0000       0.0000       1.3212      -0.1500       1.9500
    276.3770       0.0000       0.2500      40.0000       0.0000       1.3265      -0.1500       1.9500
    276.5294       0.0000       0.2500      40.0000       0.0000       1.3292      -0.1500       1.9500
    276.6818       0.0000       0.2500      40.0000       0.0000       1.3267      -0.1500       1.9500
    276.8342       0.0000       0.2500      40.0000       0.0000       1.3238      -0.1500       1.9500
    276.9866       0.0000       0.2500      40.0000       0.0000       1.3194      -0.1500       1.9500
    277.1390       0.0000       0.2500      40.0000       0.0000       1.3139      -0.1500       1.9500
    277.2914       0.0000       0.2500      40.0000       0.0000       1.3047      -0.1500       1.9500
    277.4438       0.0000       0.2500      40.0000       0.0000       1.2949      -0.1500       1.9500
    277.5962       0.0000       0.2500      40.0000       0.0000       1.2823      -0.1500       1.9500
    277.7486       0.0000       0.2500      40.0000       0.0000       1.2701      -0.1500       1.9500
    277.9010       0.0000       0.2500      40.0000       0.0000       1.2608      -0.1500       1.9500
    278.0534       0.0000       0.2500      40.0000       0.0000       1.2518      -0.1500       1.9500
    278.2058       0.0000       0.2500      40.0000       0.0000       1.2459      -0.1500       1.9500
    278.3582       0.0000       0.2500      40.0000       0.0000       1.2401      -0.1500       1.9500
    278.5106       0.0000       0.2500      40.0000       0.0000       1.2381      -0.1500       1.9500
    278.6630       0.0000       0.2500      40.0000       0.0000       1.2362      -0.1500       1.9500
    278.8154       0.0000       0.2500      40.0000       0.0000       1.2378      -0.1500       1.9500
    278.9678       0.0000       0.2500      40.0000       0.0000       1.2397      -0.1500       1.9500
    279.1202       0.0000       0.2500      40.0000       0.0000       1.2433      -0.1500       1.9500
    279.2726       0.0000       0.2500      40.0000       0.0000       1.2472      -0.1500       1.9500
    279.4250       0.0000       0.2500      40.0000       0.0000       1.2538      -0.1500       1.9500
    279.5774       0.0000       0.2500      40.0000       0.0000       1.2611      -0.1500       1.9500
    279.7298       0.0000       0.2500      40.0000       0.0000       1.2705      -0.1500       1.9500
    279.8822       0.0000       0.2500      40.0000       0.0000       1.2807      -0.1500       1.9500
    280.0346       0.0000       0.2500      40.0000       0.0000       1.2903      -0.1500       1.9500
    280.1870       0.0000       0.2500      40.0000       0.0000       1.2995      -0.1500       1.9500
    280.3394       0.0000       0.2500      40.0000       0.0000       1.3030      -0.1500       1.9500
    280.4918       0.0000       0.2500      40.0000       0.0000       1.3030      -0.1500       1.9500
    280.6442       0.0000       0.2500      40.0000       0.0000       1.3014      -0.1500       1.9500
    280.7966       0.0000       0.2500      40.0000       0.0000       1.2985      -0.1500       1.9500
    280.9490       0.0000       0.2500      40.0000       0.0000       1.2955      -0.1500       1.9500
    281.1014       0.0000       0.2500      40.0000       0.0000       1.2926      -0.1500       1.9500
    281.2538       0.0000       0.2500      40.0000       0.0000       1.2906      -0.1500       1.9500
    281.4062       0.0000       0.2500      40.0000       0.0000       1.2896      -0.1500       1.9500
    281.5586       0.0000       0.2500      40.0000       0.0000       1.2875      -0.1500       1.9500
    281.7110       0.0000       0.2500      40.0000       0.0000       1.2837      -0.1500       1.9500
    281.8634       0.0000       0.2500      40.0000       0.0000       1.2804      -0.1500       1.9500
    282.0158       0.0000       0.2500      40.0000       0.0000       1.2784      -0.1500       1.9500
    282.1682       0.0000       0.2500      40.0000       0.0000       1.2770      -0.1500       1.9500
    282.3206       0.0000       0.2500      40.0000       0.0000       1.2770      -0.1500       1.9500
    282.4730       0.0000       0.2500      40.0000       0.0000       1.2770      -0.1500       1.9500
    282.6254       0.0000       0.2500      40.0000       0.0000       1.2770      -0.1500       1.9500
    282.7778       0.0000       0.2500      40.0000       0.0000       1.2775      -0.1500       1.9500
    282.9302       0.0000       0.2500      40.0000       0.0000       1.2814      -0.1500       1.9500
    283.0826       0.0000       0.2500      40.0000       0.0000       1.2857      -0.1500       1.9500
    283.2350       0.0000       0.2500      40.0000       0.0000       1.2949      -0.1500       1.9500
    283.3874       0.0000       0.2500      40.0000       0.0000       1.3042      -0.1500       1.9500
    283.5398       0.0000       0.2500      40.0000       0.0000       1.3148      -0.1500       1.9500
    283.6922       0.0000       0.2500      40.0000       0.0000       1.3255      -0.1500       1.9500
