#------------------------------------------------------------------------------
#
#   Created by  : [OpenWorks] Log Export Utility (LEXP)
#   Created on  : 2016-05-23 11:55:58
#   Project     : CANT971
#   User        : R5K
#   Interpreter : PEP
#
#------------------------------------------------------------------------------
~VERSION INFORMATION
VERS. 2.0 : CWLS Log ASCII Standard - version 2.0
WRAP.  NO : One line per depth step
~WELL INFORMATION
#MNEMONIC   .UNIT                                           VALUE :DESCRIPTION
#------------------------------------------------------------------------------
STRT        .M                                           646.6334 :START DEPTH
STOP        .M                                          2755.8494 :STOP DEPTH
STEP        .M                                             0.1524 :STEP
NULL        .                                           -999.2500 :NULL VALUE
COMP        .                                   PEMEX EXPL & PROD :COMPANY
WELL        .                                                  42 :WELL
FLD         .                                           CANTARELL :FIELD
LOC         .                                             UNKNOWN :LOCATION
CNTY        .                                      CD. DEL CARMEN :COUNTY
STAT        .                                            CAMPECHE :STATE
CTRY        .                                              MEXICO :COUNTRY
SRVC        .                                             UNKNOWN :SERVICE COMPANY
DATE        .                                             UNKNOWN :LOG DATE
UWI         .                                          3060000464 :UNIQUE WELL ID
XCOORD      .                                       599690.710000 :SURFACE X
YCOORD      .                                      2143036.470000 :SURFACE Y
LAT         .                                           19.380144 :LATITUDE
LON         .                                          -92.050691 :LONGITUDE
ELEV        .M                                            26.7400 :SURFACE ELEV
ELEV_TYPE   .                                                  KB :ELEV TYPE
~CURVE INFORMATION
#MNEMONIC.UNIT        API CODE       : CURVE DESCRIPTION
#------------------------------------------------------------------------------
DEPTH    .M                          : Measured Depth
CALI     .inches      UNKNOWN        : CALI:Import:rC:NONE:v0 (auto-composite)
DRHO     .g/cm3       UNKNOWN        : DRHO:Import:rC:NONE:v0 (auto-composite)
DT       .us/ft       UNKNOWN        : DT:Import:rC:NONE:v0 (auto-composite)
GR       .API         UNKNOWN        : GR:Import:rC:NONE:v0 (auto-composite)
ILD      .ohm.m       UNKNOWN        : ILD:Import:rC:NONE:v0 (auto-composite)
ILM      .ohm.m       UNKNOWN        : ILM:Import:rC:NONE:v0 (auto-composite)
LLD      .ohm.m       UNKNOWN        : LLD:Import:rC:NONE:v0 (auto-composite)
LLS      .ohm.m       UNKNOWN        : LLS:Import:rC:NONE:v0 (auto-composite)
MSFL     .ohm.m       UNKNOWN        : MSFL:Import:rC:NONE:v0 (auto-composite)
NPHI     .v/v_decimal UNKNOWN        : NPHI:Import:rC:NONE:v0 (auto-composite)
PEF      .b/elec      UNKNOWN        : PEF:Import:rC:NONE:v0 (auto-composite)
RHOB     .g/cm3       UNKNOWN        : RHOB:Import:rC:NONE:v0 (auto-composite)
~A     DEPTH         CALI         DRHO           DT           GR          ILD          ILM          LLD          LLS         MSFL         NPHI          PEF         RHOB
# ...
   2563.2158       8.9060       0.0155      48.3046      25.6835    -999.2500    -999.2500    1625.2661    3071.1899    -999.2500       0.0123       3.9685       2.8040
   2563.3682       8.9060       0.0170      46.4890      30.6530    -999.2500    -999.2500    1647.3710    3109.6479    -999.2500       0.0106       3.6390       2.8320
   2563.5205       8.9060       0.0155      46.6721      29.5627    -999.2500    -999.2500    1933.2822    3580.9233    -999.2500       0.0103       3.4790       2.8290
   2563.6729       8.9060       0.0140      46.8550      28.4670    -999.2500    -999.2500    2218.7800    4051.5171    -999.2500       0.0107       3.3190       2.8260
   2563.8254       8.9060       0.0145      47.3258      25.4318    -999.2500    -999.2500    3498.3608    5309.8154    -999.2500       0.0119       3.5385       2.8160
   2563.9778       8.9060       0.0150      47.7960      22.3860    -999.2500    -999.2500    4776.2529    6566.4531    -999.2500       0.0138       3.7580       2.8060
   2564.1301       8.9060       0.0150      48.2333      19.7453    -999.2500    -999.2500    4680.0845    6439.2588    -999.2500       0.0168       3.7405       2.7930
   2564.2825       8.9060       0.0150      48.6700      17.0950    -999.2500    -999.2500    4584.0308    6312.2168    -999.2500       0.0202       3.7230       2.7800
   2564.4351       8.9060       0.0140      49.1232      15.9402    -999.2500    -999.2500    4307.2236    5782.8999    -999.2500       0.0231       3.4621       2.7710
   2564.5874       8.9060       0.0130      49.5760      14.7810    -999.2500    -999.2500    4030.7129    5254.1489    -999.2500       0.0252       3.2010       2.7620
   2564.7397       8.9060       0.0120      49.3099      14.0704    -999.2500    -999.2500    3746.7444    4603.9204    -999.2500       0.0254       3.3040       2.7630
   2564.8921       8.9060       0.0110      49.0440      13.3570    -999.2500    -999.2500    3463.0439    3954.3059    -999.2500       0.0247       3.4070       2.7640
   2565.0447       8.8985       0.0110      49.2616      13.3730    -999.2500    -999.2500    3255.7073    4183.0732    -999.2500       0.0230       3.7689       2.7585
   2565.1970       8.8910       0.0110      49.4790      13.3890    -999.2500    -999.2500    3048.5400    4411.6538    -999.2500       0.0206       4.1310       2.7530
   2565.3494       8.8280       0.0165      49.3590      14.2063    -999.2500    -999.2500    2904.8691    4307.3359    -999.2500       0.0172       4.0300       2.7285
   2565.5017       8.7650       0.0220      49.2390      15.0270    -999.2500    -999.2500    2761.2981    4203.0908    -999.2500       0.0142       3.9290       2.7040
   2565.6541       8.7955       0.0395      48.5748      18.2926    -999.2500    -999.2500    2499.5488    3941.2896    -999.2500       0.0137       3.6619       2.7105
   2565.8066       8.8260       0.0570      47.9110      21.5720    -999.2500    -999.2500    2237.9480    3679.6370    -999.2500       0.0144       3.3950       2.7170
   2565.9590       8.8660       0.0915      48.0270      27.1608    -999.2500    -999.2500    1670.1074    2782.0500    -999.2500       0.0163       3.4465       2.7805
   2566.1113       8.9060       0.1260      48.1430      32.7740    -999.2500    -999.2500    1102.5179    1884.8600    -999.2500       0.0179       3.4980       2.8440
   2566.2637       8.9060       0.1165      48.5151      37.8900    -999.2500    -999.2500    1265.9443    2142.6438    -999.2500       0.0177       3.3945       2.8310
   2566.4163       8.9060       0.1070      48.8870      43.0290    -999.2500    -999.2500    1429.3190    2400.3459    -999.2500       0.0167       3.2910       2.8180
   2566.5686       8.9060       0.0885      48.6840      42.2318    -999.2500    -999.2500    1990.7966    5104.1777    -999.2500       0.0153       3.3095       2.8305
   2566.7209       8.9060       0.0700      48.4810      41.4310    -999.2500    -999.2500    2552.1670    7807.4932    -999.2500       0.0139       3.3280       2.8430
   2566.8733       8.9060       0.0470      48.5441      37.8864    -999.2500    -999.2500    3209.0454    5501.6104    -999.2500       0.0130       3.2995       2.8295
   2567.0259       8.9060       0.0240      48.6070      34.3250    -999.2500    -999.2500    3865.8811    3195.8779    -999.2500       0.0124       3.2710       2.8160
   2567.1782       8.9060       0.0250      48.5019      34.3340    -999.2500    -999.2500    4136.5703    6325.1768    -999.2500       0.0123       3.2180       2.8175
   2567.3306       8.9060       0.0260      48.3970      34.3430    -999.2500    -999.2500    4407.2759    9454.6641    -999.2500       0.0124       3.1650       2.8190
   2567.4829       8.9060       0.0270      48.4530      35.4931    -999.2500    -999.2500    4131.0903    8675.2773    -999.2500       0.0126       3.1835       2.8210
   2567.6353       8.9060       0.0280      48.5090      36.6490    -999.2500    -999.2500    3855.2959    7896.9941    -999.2500       0.0127       3.2020       2.8230
   2567.7878       8.9060       0.0275      48.9363      39.0747    -999.2500    -999.2500    3280.2212    7089.3350    -999.2500       0.0129       3.2330       2.8275
   2567.9402       8.9060       0.0270      49.3630      41.5090    -999.2500    -999.2500    2705.8879    6282.7168    -999.2500       0.0130       3.2640       2.8320
   2568.0925       8.9060       0.0265      50.0849      40.9735    -999.2500    -999.2500    2779.7366    6478.9609    -999.2500       0.0131       3.3350       2.8295
   2568.2449       8.9060       0.0260      50.8060      40.4360    -999.2500    -999.2500    2853.4990    6674.9761    -999.2500       0.0134       3.4060       2.8270
   2568.3975       8.9060       0.0270      51.4478      39.4109    -999.2500    -999.2500    2841.2646    7009.0454    -999.2500       0.0138       3.6539       2.8295
   2568.5498       8.9060       0.0280      52.0890      38.3820    -999.2500    -999.2500    2829.0430    7342.7681    -999.2500       0.0143       3.9020       2.8320
   2568.7021       8.9085       0.0260      52.7993      37.7637    -999.2500    -999.2500    3038.8059    8081.1694    -999.2500       0.0150       3.8215       2.8270
   2568.8545       8.9110       0.0240      53.5090      37.1430    -999.2500    -999.2500    3248.3770    8818.8965    -999.2500       0.0158       3.7410       2.8220
   2569.0071       8.9240       0.0210      53.1143      37.7303    -999.2500    -999.2500    3190.6677    8713.3545    -999.2500       0.0167       3.6006       2.8105
   2569.1594       8.9370       0.0180      52.7200      38.3200    -999.2500    -999.2500    3133.0039    8607.8965    -999.2500       0.0205       3.4600       2.7990
   2569.3118       8.9770       0.0200      53.0881      39.3698    -999.2500    -999.2500    3228.2766    6011.0264    -999.2500       0.0333       3.8026       2.7820
   2569.4641       9.0170       0.0220      53.4560      40.4240    -999.2500    -999.2500    3323.4861    3415.8770    -999.2500       0.0576       4.1450       2.7650
   2569.6165       9.0940       0.0260      54.4068      44.9962    -999.2500    -999.2500    4321.8608    4162.1108    -999.2500       0.1080       4.0500       2.7350
   2569.7690       9.1710       0.0300      55.3570      49.5880    -999.2500    -999.2500    5319.7002    4907.9438    -999.2500       0.1529       3.9550       2.7050
   2569.9214       9.1700       0.0350      55.2645      68.4091    -999.2500    -999.2500    5277.9873    6607.0127    -999.2500       0.1549       3.8190       2.7125
   2570.0737       9.1690       0.0400      55.1720      87.3130    -999.2500    -999.2500    5236.2920    8305.3828    -999.2500       0.1386       3.6830       2.7200
   2570.2261       9.1415       0.0385      54.8229      84.2375    -999.2500    -999.2500    4128.2627    7879.0005    -999.2500       0.1097       4.0931       2.7360
   2570.3787       9.1140       0.0370      54.4740      81.1480    -999.2500    -999.2500    3020.5500    7452.7402    -999.2500       0.0785       4.5030       2.7520
