#------------------------------------------------------------------------------
#
#   Created by  : [OpenWorks] Log Export Utility (LEXP)
#   Created on  : 2016-05-23 11:57:14
#   Project     : CANT971
#   User        : R5K
#   Interpreter : PEP
#
#------------------------------------------------------------------------------
~VERSION INFORMATION
VERS. 2.0 : CWLS Log ASCII Standard - version 2.0
WRAP.  NO : One line per depth step
~WELL INFORMATION
#MNEMONIC   .UNIT                                           VALUE :DESCRIPTION
#------------------------------------------------------------------------------
STRT        .M                                           551.2302 :START DEPTH
STOP        .M                                          2435.9609 :STOP DEPTH
STEP        .M                                             0.1524 :STEP
NULL        .                                           -999.2500 :NULL VALUE
COMP        .                                   PEMEX EXPL & PROD :COMPANY
WELL        .                                                  76 :WELL
FLD         .                                           CANTARELL :FIELD
LOC         .                                             UNKNOWN :LOCATION
CNTY        .                                      CD. DEL CARMEN :COUNTY
STAT        .                                            CAMPECHE :STATE
CTRY        .                                              MEXICO :COUNTRY
SRVC        .                                             UNKNOWN :SERVICE COMPANY
DATE        .                                             UNKNOWN :LOG DATE
UWI         .                                          3060000416 :UNIQUE WELL ID
XCOORD      .                                       599729.570000 :SURFACE X
YCOORD      .                                      2147218.620000 :SURFACE Y
LAT         .                                           19.417934 :LATITUDE
LON         .                                          -92.050101 :LONGITUDE
ELEV        .M                                            27.8000 :SURFACE ELEV
ELEV_TYPE   .                                                  KB :ELEV TYPE
~CURVE INFORMATION
#MNEMONIC.UNIT        API CODE       : CURVE DESCRIPTION
#------------------------------------------------------------------------------
DEPTH    .M                          : Measured Depth
CAL      .inches      UNKNOWN        : CAL:UNKNOWN:rC:NONE:v0 (auto-composite)
DRHO     .UNKNOWN     UNKNOWN        : DRHO:UNKNOWN:rC:NONE:v0 (auto-composite)
DT       .us/ft       UNKNOWN        : DT:DT:rC:NONE:v0 (auto-composite)
GR       .UNKNOWN     UNKNOWN        : GR:GR-Load:rC:NONE:v0 (auto-composite)
ILD      .UNKNOWN     UNKNOWN        : ILD:ILD-Load:rC:NONE:v0 (auto-composite)
LLD      .UNKNOWN     UNKNOWN        : LLD:UNKNOWN:rC:NONE:v0 (auto-composite)
LLS      .UNKNOWN     UNKNOWN        : LLS:UNKNOWN:rC:NONE:v0 (auto-composite)
NPHI     .v/v_decimal UNKNOWN        : NPHI:NPHI:rC:NONE:v0 (auto-composite)
RHOB     .UNKNOWN     UNKNOWN        : RHOB:UNKNOWN:rC:NONE:v0 (auto-composite)
~A     DEPTH          CAL         DRHO           DT           GR          ILD          LLD          LLS         NPHI         RHOB
# ...
   1373.2759       0.0000       0.2500    -999.2500      12.1080       1.0495       0.2000       0.2000    -999.2500       1.9500
   1373.4282       0.0000       0.2500    -999.2500      12.2470       1.0590       0.2000       0.2000    -999.2500       1.9500
   1373.5806       0.0000       0.2500    -999.2500      13.5490       1.0980       0.2000       0.2000    -999.2500       1.9500
   1373.7330       0.0000       0.2500    -999.2500      14.8510       1.1370       0.2000       0.2000    -999.2500       1.9500
   1373.8854       0.0000       0.2500    -999.2500      18.0347       1.1980       0.2000       0.2000    -999.2500       1.9500
   1374.0378       0.0000       0.2500    -999.2500      21.2190       1.2590       0.2000       0.2000    -999.2500       1.9500
   1374.1902       0.0000       0.2500    -999.2500      20.9140       1.2505       0.2000       0.2000    -999.2500       1.9500
   1374.3427       0.0000       0.2500    -999.2500      20.6090       1.2420       0.2000       0.2000    -999.2500       1.9500
   1374.4950       0.0000       0.2500    -999.2500      21.8667       1.2165       0.2000       0.2000    -999.2500       1.9500
   1374.6475       0.0000       0.2500    -999.2500      23.1250       1.1910       0.2000       0.2000    -999.2500       1.9500
   1374.7998       0.0000       0.2500    -999.2500      23.0310       1.1400       0.2000       0.2000    -999.2500       1.9500
   1374.9523       0.0000       0.2500    -999.2500      22.9370       1.0890       0.2000       0.2000    -999.2500       1.9500
   1375.1046       0.0000       0.2500    -999.2500      22.3392       1.0930       0.2000       0.2000    -999.2500       1.9500
   1375.2571       0.0000       0.2500    -999.2500      21.7410       1.0970       0.2000       0.2000    -999.2500       1.9500
   1375.4094       0.0000       0.2500    -999.2500      21.0773       1.1375       0.2000       0.2000    -999.2500       1.9500
   1375.5618       0.0000       0.2500    -999.2500      20.4130       1.1780       0.2000       0.2000    -999.2500       1.9500
   1375.7142       0.0000       0.2500    -999.2500      19.9607       1.2310       0.2000       0.2000    -999.2500       1.9500
   1375.8666       0.0000       0.2500    -999.2500      19.5080       1.2840       0.2000       0.2000    -999.2500       1.9500
   1376.0190       0.0000       0.2500    -999.2500      19.6529       1.3565       0.2000       0.2000    -999.2500       1.9500
   1376.1714       0.0000       0.2500    -999.2500      19.7980       1.4290       0.2000       0.2000    -999.2500       1.9500
   1376.3239       0.0000       0.2500    -999.2500      20.4849       1.5640       0.2000       0.2000    -999.2500       1.9500
   1376.4762       0.0000       0.2500    -999.2500      21.1720       1.6990       0.2000       0.2000    -999.2500       1.9500
   1376.6287       0.0000       0.2500    -999.2500      20.7264       1.6970       0.2000       0.2000    -999.2500       1.9500
   1376.7810       0.0000       0.2500    -999.2500      20.2810       1.6950       0.2000       0.2000    -999.2500       1.9500
   1376.9335       0.0000       0.2500    -999.2500      18.3668       1.6750       0.2000       0.2000    -999.2500       1.9500
   1377.0858       0.0000       0.2500    -999.2500      16.4530       1.6550       0.2000       0.2000    -999.2500       1.9500
   1377.2383       0.0000       0.2500    -999.2500      16.6595       1.5840       0.2000       0.2000    -999.2500       1.9500
   1377.3906       0.0000       0.2500    -999.2500      16.8660       1.5130       0.2000       0.2000    -999.2500       1.9500
   1377.5430       0.0000       0.2500    -999.2500      17.4080       1.4335       0.2000       0.2000    -999.2500       1.9500
   1377.6954       0.0000       0.2500    -999.2500      17.9500       1.3540       0.2000       0.2000    -999.2500       1.9500
   1377.8478       0.0000       0.2500    -999.2500      18.8139       1.3075       0.2000       0.2000    -999.2500       1.9500
   1378.0002       0.0000       0.2500    -999.2500      19.6780       1.2610       0.2000       0.2000    -999.2500       1.9500
   1378.1526       0.0000       0.2500    -999.2500      20.9423       1.2145       0.2000       0.2000    -999.2500       1.9500
   1378.3051       0.0000       0.2500    -999.2500      22.2070       1.1680       0.2000       0.2000    -999.2500       1.9500
   1378.4574       0.0000       0.2500    -999.2500      25.1888       1.1265       0.2000       0.2000    -999.2500       1.9500
   1378.6099       0.0000       0.2500    -999.2500      28.1720       1.0850       0.2000       0.2000    -999.2500       1.9500
   1378.7622       0.0000       0.2500    -999.2500      27.8381       1.0985       0.2000       0.2000    -999.2500       1.9500
   1378.9147       0.0000       0.2500    -999.2500      27.5040       1.1120       0.2000       0.2000    -999.2500       1.9500
   1379.0670       0.0000       0.2500    -999.2500      26.4319       1.1380       0.2000       0.2000    -999.2500       1.9500
   1379.2195       0.0000       0.2500    -999.2500      25.3590       1.1640       0.2000       0.2000    -999.2500       1.9500
   1379.3718       0.0000       0.2500    -999.2500      25.6834       1.1800       0.2000       0.2000    -999.2500       1.9500
   1379.5242       0.0000       0.2500    -999.2500      26.0080       1.1960       0.2000       0.2000    -999.2500       1.9500
   1379.6766       0.0000       0.2500    -999.2500      23.9035       1.1975       0.2000       0.2000    -999.2500       1.9500
   1379.8290       0.0000       0.2500    -999.2500      21.7970       1.1990       0.2000       0.2000    -999.2500       1.9500
   1379.9814       0.0000       0.2500    -999.2500      21.9244       1.1990       0.2000       0.2000    -999.2500       1.9500
   1380.1338       0.0000       0.2500    -999.2500      22.0520       1.1990       0.2000       0.2000    -999.2500       1.9500
   1380.2863       0.0000       0.2500    -999.2500      22.8263       1.1990       0.2000       0.2000    -999.2500       1.9500
   1380.4386       0.0000       0.2500    -999.2500      23.6010       1.1990       0.2000       0.2000    -999.2500       1.9500
   1380.5911       0.0000       0.2500    -999.2500      24.7272       1.1990       0.2000       0.2000    -999.2500       1.9500
   1380.7434       0.0000       0.2500    -999.2500      25.8530       1.1990       0.2000       0.2000    -999.2500       1.9500
   1380.8959       0.0000       0.2500    -999.2500      26.9346       1.1670       0.2000       0.2000    -999.2500       1.9500
   1381.0482       0.0000       0.2500    -999.2500      28.0160       1.1350       0.2000       0.2000    -999.2500       1.9500
   1381.2007       0.0000       0.2500    -999.2500      27.7855       1.0815       0.2000       0.2000    -999.2500       1.9500
   1381.3530       0.0000       0.2500    -999.2500      27.5550       1.0280       0.2000       0.2000    -999.2500       1.9500
   1381.5054       0.0000       0.2500    -999.2500      26.5760       1.0280       0.2000       0.2000    -999.2500       1.9500
   1381.6578       0.0000       0.2500    -999.2500      25.5970       1.0280       0.2000       0.2000    -999.2500       1.9500
   1381.8102       0.0000       0.2500    -999.2500      23.0798       1.0280       0.2000       0.2000    -999.2500       1.9500
   1381.9626       0.0000       0.2500    -999.2500      20.5620       1.0280       0.2000       0.2000    -999.2500       1.9500
   1382.1150       0.0000       0.2500    -999.2500      14.4921       1.0280       0.2000       0.2000    -999.2500       1.9500
   1382.2675       0.0000       0.2500    -999.2500       8.4200       1.0280       0.2000       0.2000    -999.2500       1.9500
   1382.4198       0.0000       0.2500    -999.2500       8.6170       1.0280       0.2000       0.2000    -999.2500       1.9500
   1382.5723       0.0000       0.2500    -999.2500       8.8140       1.0280       0.2000       0.2000    -999.2500       1.9500
