#------------------------------------------------------------------------------
#
#   Created by  : [OpenWorks] Log Export Utility (LEXP)
#   Created on  : 2016-05-23 11:56:43
#   Project     : CANT971
#   User        : R5K
#   Interpreter : PEP
#
#------------------------------------------------------------------------------
~VERSION INFORMATION
VERS. 2.0 : CWLS Log ASCII Standard - version 2.0
WRAP.  NO : One line per depth step
~WELL INFORMATION
#MNEMONIC   .UNIT                                           VALUE :DESCRIPTION
#------------------------------------------------------------------------------
STRT        .M                                           650.2150 :START DEPTH
STOP        .M                                          2618.6135 :STOP DEPTH
STEP        .M                                             0.1524 :STEP
NULL        .                                           -999.2500 :NULL VALUE
COMP        .                                   PEMEX EXPL & PROD :COMPANY
WELL        .                                                  4D :WELL
FLD         .                                           CANTARELL :FIELD
LOC         .                                             UNKNOWN :LOCATION
CNTY        .                                      CD. DEL CARMEN :COUNTY
STAT        .                                            CAMPECHE :STATE
CTRY        .                                              MEXICO :COUNTRY
SRVC        .                                             UNKNOWN :SERVICE COMPANY
DATE        .                                             UNKNOWN :LOG DATE
UWI         .                                          3060000662 :UNIQUE WELL ID
XCOORD      .                                       598468.500000 :SURFACE X
YCOORD      .                                      2145023.700000 :SURFACE Y
LAT         .                                           19.398162 :LATITUDE
LON         .                                          -92.062225 :LONGITUDE
ELEV        .M                                            26.5400 :SURFACE ELEV
ELEV_TYPE   .                                                  KB :ELEV TYPE
~CURVE INFORMATION
#MNEMONIC.UNIT        API CODE       : CURVE DESCRIPTION
#------------------------------------------------------------------------------
DEPTH    .M                          : Measured Depth
CAL      .inches      UNKNOWN        : CAL:UNKNOWN:rC:NONE:v0 (auto-composite)
CGR      .UNKNOWN     UNKNOWN        : CGR:UNKNOWN:rC:NONE:v0 (auto-composite)
DRHO     .UNKNOWN     UNKNOWN        : DRHO:UNKNOWN:rC:NONE:v0 (auto-composite)
DT       .us/ft       UNKNOWN        : DT:DT:rC:NONE:v0 (auto-composite)
GR       .API         UNKNOWN        : GR:UNKNOWN:rC:NONE:v0 (auto-composite)
ILD      .UNKNOWN     UNKNOWN        : ILD:UNKNOWN:rC:NONE:v0 (auto-composite)
ILM      .UNKNOWN     UNKNOWN        : ILM:UNKNOWN:rC:NONE:v0 (auto-composite)
LLD      .UNKNOWN     UNKNOWN        : LLD:UNKNOWN:rC:NONE:v0 (auto-composite)
LLS      .UNKNOWN     UNKNOWN        : LLS:UNKNOWN:rC:NONE:v0 (auto-composite)
MSFL     .UNKNOWN     UNKNOWN        : MSFL:UNKNOWN:rC:NONE:v0 (auto-composite)
NPHI     .v/v_decimal UNKNOWN        : NPHI:PETROWORKS:rC:NONE:v1 
PEF      .UNKNOWN     UNKNOWN        : PEF:UNKNOWN:rC:NONE:v0 (auto-composite)
POTA     .UNKNOWN     UNKNOWN        : POTA:UNKNOWN:rC:NONE:v0 (auto-composite)
RHOB     .UNKNOWN     UNKNOWN        : RHOB:UNKNOWN:rC:NONE:v0 (auto-composite)
THOR     .UNKNOWN     UNKNOWN        : THOR:UNKNOWN:rC:NONE:v0 (auto-composite)
URAN     .UNKNOWN     UNKNOWN        : URAN:UNKNOWN:rC:NONE:v0 (auto-composite)
~A     DEPTH          CAL          CGR         DRHO           DT           GR          ILD          ILM          LLD          LLS         MSFL         NPHI          PEF         POTA         RHOB         THOR         URAN
# ...
   2494.1025    -999.2500      11.0427    -999.2500      49.6161      15.1866    -999.2500    -999.2500       0.1443       0.0138       0.2643       0.1281    -999.2500       0.0030    -999.2500       1.2831       0.4162
   2494.2551    -999.2500      10.4655    -999.2500      49.9775      14.2767    -999.2500    -999.2500       0.1693       0.0128       0.4697       0.0837    -999.2500       0.0030    -999.2500       1.0802       0.4461
   2494.4075    -999.2500       9.7165    -999.2500      50.2236      13.2404    -999.2500    -999.2500       0.1875       0.0123       0.5966       0.0465    -999.2500       0.0031    -999.2500       0.8664       0.4654
   2494.5598    -999.2500       8.1359    -999.2500      49.9115      11.5986    -999.2500    -999.2500       0.1730       0.0143       0.3430       0.0431    -999.2500       0.0036    -999.2500       0.5998       0.4329
   2494.7122    -999.2500       6.8540    -999.2500      49.6199      10.5772    -999.2500    -999.2500       0.1613       0.0160       0.1387       0.0434    -999.2500       0.0038    -999.2500       0.4154       0.4430
   2494.8647    -999.2500       7.0109    -999.2500      49.4275      12.5448    -999.2500    -999.2500       0.1628       0.0160       0.1717       0.0483    -999.2500       0.0028    -999.2500       0.6273       0.6584
   2495.0171    -999.2500       7.0039    -999.2500      49.4119      14.0279    -999.2500    -999.2500       0.1646       0.0157       0.2088       0.0512    -999.2500       0.0021    -999.2500       0.7605       0.8408
   2495.1694    -999.2500       6.2021    -999.2500      50.2532      13.1620    -999.2500    -999.2500       0.1681       0.0137       0.2658       0.0397    -999.2500       0.0026    -999.2500       0.5119       0.8634
   2495.3218    -999.2500       5.6752    -999.2500      50.9125      12.8669    -999.2500    -999.2500       0.1722       0.0122       0.3539       0.0308    -999.2500       0.0029    -999.2500       0.3560       0.9089
   2495.4741    -999.2500       6.4744    -999.2500      50.6941      15.2340    -999.2500    -999.2500       0.1792       0.0132       0.5923       0.0267    -999.2500       0.0024    -999.2500       0.6474       1.0653
   2495.6267    -999.2500       6.9869    -999.2500      50.6085      17.0071    -999.2500    -999.2500       0.1828       0.0138       0.7395       0.0246    -999.2500       0.0020    -999.2500       0.8650       1.1894
   2495.7791    -999.2500       6.1086    -999.2500      51.1672      15.9620    -999.2500    -999.2500       0.1698       0.0128       0.4439       0.0276    -999.2500       0.0020    -999.2500       0.7244       1.1563
   2495.9314    -999.2500       5.4843    -999.2500      51.6855      15.2720    -999.2500    -999.2500       0.1607       0.0123       0.2356       0.0305    -999.2500       0.0020    -999.2500       0.6319       1.1395
   2496.0837    -999.2500       6.0860    -999.2500      52.0089      16.2766    -999.2500    -999.2500       0.1707       0.0138       0.4490       0.0331    -999.2500       0.0020    -999.2500       0.7714       1.2010
   2496.2363    -999.2500       6.6928    -999.2500      52.1595      17.2663    -999.2500    -999.2500       0.1785       0.0147       0.5938       0.0352    -999.2500       0.0020    -999.2500       0.9004       1.2578
   2496.3887    -999.2500       7.3240    -999.2500      51.4712      18.1849    -999.2500    -999.2500       0.1755       0.0132       0.4052       0.0357    -999.2500       0.0020    -999.2500       0.9789       1.2918
   2496.5410    -999.2500       7.5727    -999.2500      50.8603      18.4825    -999.2500    -999.2500       0.1738       0.0123       0.2781       0.0361    -999.2500       0.0021    -999.2500       0.9514       1.2975
   2496.6934    -999.2500       5.9734    -999.2500      50.6227      15.7799    -999.2500    -999.2500       0.1783       0.0138       0.4481       0.0369    -999.2500       0.0026    -999.2500       0.4117       1.1660
   2496.8459    -999.2500       4.4798    -999.2500      50.4706      13.7901    -999.2500    -999.2500       0.1833       0.0154       0.5497       0.0372    -999.2500       0.0030    -999.2500      -0.0093       1.0735
   2496.9983    -999.2500       3.5000    -999.2500      50.7295      15.3053    -999.2500    -999.2500       0.1908       0.0179       0.3191       0.0364    -999.2500       0.0030    -999.2500       0.1473       1.1700
   2497.1506    -999.2500       2.7649    -999.2500      50.9857      16.1868    -999.2500    -999.2500       0.1979       0.0196       0.1837       0.0356    -999.2500       0.0028    -999.2500       0.3059       1.2513
   2497.3030    -999.2500       3.2135    -999.2500      51.2287      14.0717    -999.2500    -999.2500       0.2034       0.0171       0.5088       0.0358    -999.2500       0.0018    -999.2500       0.4744       1.2588
   2497.4553    -999.2500       3.5007    -999.2500      51.4719      12.4901    -999.2500    -999.2500       0.2063       0.0152       0.7210       0.0354    -999.2500       0.0009    -999.2500       0.5993       1.2587
   2497.6079    -999.2500       3.0109    -999.2500      51.7153      13.4462    -999.2500    -999.2500       0.1963       0.0162       0.3896       0.0336    -999.2500       0.0004    -999.2500       0.5138       1.2222
   2497.7603    -999.2500       2.7516    -999.2500      51.9693      14.3002    -999.2500    -999.2500       0.1897       0.0167       0.1202       0.0314    -999.2500       0.0002    -999.2500       0.4307       1.1984
   2497.9126    -999.2500       3.6079    -999.2500      52.2749      14.6657    -999.2500    -999.2500       0.1997       0.0152       0.1507       0.0285    -999.2500       0.0012    -999.2500       0.3586       1.2359
   2498.0649    -999.2500       4.1315    -999.2500      52.4236      14.7137    -999.2500    -999.2500       0.2077       0.0142       0.1726       0.0265    -999.2500       0.0019    -999.2500       0.3127       1.2762
   2498.2175    -999.2500       3.0530    -999.2500      51.8163      13.2154    -999.2500    -999.2500       0.2062       0.0152       0.1526       0.0261    -999.2500       0.0014    -999.2500       0.3921       1.3297
   2498.3699    -999.2500       2.3144    -999.2500      51.3786      12.1947    -999.2500    -999.2500       0.2032       0.0158       0.1369       0.0261    -999.2500       0.0011    -999.2500       0.4322       1.3556
   2498.5222    -999.2500       3.2228    -999.2500      51.7623      13.5143    -999.2500    -999.2500       0.1927       0.0148       0.1424       0.0261    -999.2500       0.0016    -999.2500       0.2817       1.2481
   2498.6746    -999.2500       3.9229    -999.2500      51.9893      14.5227    -999.2500    -999.2500       0.1857       0.0137       0.1473       0.0261    -999.2500       0.0019    -999.2500       0.1754       1.1739
   2498.8271    -999.2500       3.6195    -999.2500      51.4615      14.0639    -999.2500    -999.2500       0.1957       0.0122       0.1488       0.0261    -999.2500       0.0014    -999.2500       0.2823       1.2603
   2498.9795    -999.2500       3.4845    -999.2500      50.9789      13.9786    -999.2500    -999.2500       0.2018       0.0113       0.1573       0.0261    -999.2500       0.0011    -999.2500       0.3843       1.3435
   2499.1318    -999.2500       4.1657    -999.2500      50.7153      15.6640    -999.2500    -999.2500       0.1888       0.0133       0.1998       0.0261    -999.2500       0.0016    -999.2500       0.4618       1.4105
   2499.2842    -999.2500       4.4988    -999.2500      50.5074      16.7365    -999.2500    -999.2500       0.1803       0.0149       0.2293       0.0261    -999.2500       0.0019    -999.2500       0.4882       1.4591
   2499.4365    -999.2500       3.1524    -999.2500      50.5679      14.8528    -999.2500    -999.2500       0.1938       0.0144       0.1963       0.0261    -999.2500       0.0014    -999.2500       0.2677       1.4192
   2499.5891    -999.2500       2.3939    -999.2500      50.6753      13.6496    -999.2500    -999.2500       0.2012       0.0139       0.1837       0.0261    -999.2500       0.0011    -999.2500       0.1351       1.3819
