#------------------------------------------------------------------------------
#
#   Created by  : [OpenWorks] Log Export Utility (LEXP)
#   Created on  : 2016-05-12 17:01:20
#   Project     : CANT971
#   User        : R5K
#   Interpreter : PEP
#
#------------------------------------------------------------------------------
~VERSION INFORMATION
VERS. 2.0 : CWLS Log ASCII Standard - version 2.0
WRAP.  NO : One line per depth step
~WELL INFORMATION
#MNEMONIC   .UNIT                                           VALUE :DESCRIPTION
#------------------------------------------------------------------------------
STRT        .M                                           993.9530 :START DEPTH
STOP        .M                                          2371.9539 :STOP DEPTH
STEP        .M                                             0.1524 :STEP
NULL        .                                           -999.2500 :NULL VALUE
COMP        .                                   PEMEX EXPL & PROD :COMPANY
WELL        .                                                  55 :WELL
FLD         .                                           CANTARELL :FIELD
LOC         .                                             UNKNOWN :LOCATION
CNTY        .                                      CD. DEL CARMEN :COUNTY
STAT        .                                            CAMPECHE :STATE
CTRY        .                                              MEXICO :COUNTRY
SRVC        .                                             UNKNOWN :SERVICE COMPANY
DATE        .                                             UNKNOWN :LOG DATE
UWI         .                                          3060000168 :UNIQUE WELL ID
XCOORD      .                                       602149.520000 :SURFACE X
YCOORD      .                                      2147170.290000 :SURFACE Y
LAT         .                                           19.417375 :LATITUDE
LON         .                                          -92.027057 :LONGITUDE
ELEV        .M                                            28.1700 :SURFACE ELEV
ELEV_TYPE   .                                                  KB :ELEV TYPE
~CURVE INFORMATION
#MNEMONIC.UNIT        API CODE       : CURVE DESCRIPTION
#------------------------------------------------------------------------------
DEPTH    .M                          : Measured Depth
CALI     .inches      UNKNOWN        : CALI:CALI-Load:rC:NONE:v0 (auto-composite)
DRHO     .UNKNOWN     UNKNOWN        : DRHO:DRHO-Load:rC:NONE:v0 (auto-composite)
DT       .us/ft       UNKNOWN        : DT:DT:rC:NONE:v0 (auto-composite)
GR       .UNKNOWN     UNKNOWN        : GR:GR-Load:rC:NONE:v0 (auto-composite)
ILD      .UNKNOWN     UNKNOWN        : ILD:ILD-Load:rC:NONE:v0 (auto-composite)
LLD      .UNKNOWN     UNKNOWN        : LLD:LLD-Load:rC:NONE:v0 (auto-composite)
LLS      .UNKNOWN     UNKNOWN        : LLS:LLS-Load:rC:NONE:v0 (auto-composite)
MSFL     .UNKNOWN     UNKNOWN        : MSFL:MSFL-Load:rC:NONE:v0 (auto-composite)
NPHI     .v/v_decimal UNKNOWN        : NPHI:NPHI:rC:NONE:v0 (auto-composite)
RHOB     .UNKNOWN     UNKNOWN        : RHOB:RHOB-Load:rC:NONE:v0 (auto-composite)
SP       .UNKNOWN     UNKNOWN        : SP:SP-Load:rC:NONE:v0 (auto-composite)
~A     DEPTH         CALI         DRHO           DT           GR          ILD          LLD          LLS         MSFL         NPHI         RHOB           SP
# ...
   1929.0793       5.6070       0.0510      74.1970      56.5320    -999.2500      18.9630      13.7450      10.0030      20.8840       2.5450      28.1740
   1929.2318       5.6285       0.0445      74.2835      54.5420    -999.2500      19.1565      13.9255      12.4079      21.3772       2.5275      27.9817
   1929.3842       5.6500       0.0380      74.3700      52.5470    -999.2500      19.3500      14.1060      14.8130      21.8700       2.5100      27.7890
   1929.5366       5.6500       0.0400      74.7048      52.3503    -999.2500      18.0456      13.0827      14.2438      20.9267       2.5285      26.6575
   1929.6890       5.6500       0.0420      75.0400      52.1530    -999.2500      16.7420      12.0600      13.6750      19.9840       2.5470      25.5230
   1929.8414       5.5650       0.0410      72.4915      49.2211    -999.2500      15.5397      11.1978      10.0792      18.3431       2.5784      26.2370
   1929.9938       5.4800       0.0400      69.9400      46.2810    -999.2500      14.3380      10.3360       6.4850      16.7030       2.6100      26.9530
   1930.1462       5.4775       0.0310      70.1813      48.0130    -999.2500      15.0506      10.8486       8.2053      16.3814       2.5980      26.4617
   1930.2986       5.4750       0.0220      70.4230      49.7500    -999.2500      15.7630      11.3610       9.9250      16.0600       2.5860      25.9690
   1930.4510       5.4375       0.0305      72.3909      48.2992    -999.2500      16.2785      11.6050      10.1410      17.0801       2.5581      26.6435
   1930.6034       5.4000       0.0390      74.3600      46.8440    -999.2500      16.7940      11.8490      10.3570      18.1000       2.5300      27.3200
   1930.7559       5.4000       0.0480      75.9650      47.5244    -999.2500      16.7115      11.8070      10.8410      18.0885       2.5310      26.9306
   1930.9082       5.4000       0.0570      77.5700      48.2070    -999.2500      16.6290      11.7650      11.3250      18.0770       2.5320      26.5400
   1931.0605       5.4000       0.0555      77.3920      54.8896    -999.2500      15.4950      11.2190      12.8519      18.0330       2.5370      25.1852
   1931.2130       5.4000       0.0540      77.2140      61.5940    -999.2500      14.3610      10.6730      14.3790      17.9890       2.5420      23.8260
   1931.3654       5.4000       0.0340      76.4521      61.5925    -999.2500      14.3610      10.6735      10.6504      17.9645       2.5460      23.4874
   1931.5178       5.4000       0.0140      75.6900      61.5910    -999.2500      14.3610      10.6740       6.9210      17.9400       2.5500      23.1480
   1931.6702       5.4000       0.0170      74.4652      54.0138    -999.2500      18.6458      13.4151       6.9225      17.7249       2.5500      22.9257
   1931.8226       5.4000       0.0200      73.2400      46.4220    -999.2500      22.9320      16.1570       6.9240      17.5100       2.5500      22.7030
   1931.9750       5.4000       0.0200      73.2410      46.4225    -999.2500      22.9265      16.1540       9.3525      17.3399       2.5500      22.5312
   1932.1274       5.4000       0.0200      73.2420      46.4230    -999.2500      22.9210      16.1510      11.7820      17.1700       2.5500      22.3590
   1932.2798       5.3900       0.0190      74.9055      47.3979    -999.2500      17.6645      12.8264      12.6992      17.0399       2.5600      22.3280
   1932.4323       5.3800       0.0180      76.5700      48.3750    -999.2500      12.4050       9.5000      13.6170      16.9100       2.5700      22.2970
   1932.5846       5.4000       0.0125      75.9252      49.2570    -999.2500      12.2426       9.3001       7.9030      17.7654       2.5451      21.8430
   1932.7371       5.4200       0.0070      75.2800      50.1410    -999.2500      12.0800       9.1000       2.1850      18.6200       2.5200      21.3880
   1932.8894       5.4250       0.0010      73.9006      44.9563    -999.2500      16.5027      11.9733      13.2610      17.6146       2.5200      21.0799
   1933.0417       5.4300      -0.0050      72.5200      39.7590    -999.2500      20.9290      14.8490      24.3460      16.6100       2.5200      20.7710
   1933.1942       5.4375       0.0075      73.5555      31.0871    -999.2500      25.6502      18.0973      16.0516      16.7635       2.5150      20.1208
   1933.3466       5.4450       0.0200      74.5920      22.3930    -999.2500      30.3720      21.3460       7.7560      16.9170       2.5100      19.4690
   1933.4990       5.4725       0.0539      76.0652      18.0189    -999.2500      34.1080      23.9037       8.0211      18.9190       2.4950      17.9281
   1933.6514       5.5000       0.0880      77.5400      13.6330    -999.2500      37.8420      26.4600       8.2860      20.9200       2.4800      16.3830
   1933.8038       5.4116       0.0521      77.5005      15.5209    -999.2500      37.6250      25.8359      11.2121      20.8170       2.5049      13.8670
   1933.9562       5.3230       0.0160      77.4610      17.4140    -999.2500      37.4080      25.2120      14.1370      20.7140       2.5300      11.3440
   1934.1086       5.2755       0.0175      76.8004      19.3482    -999.2500      34.9542      23.2882      14.0380      19.2783       2.5295      11.3924
   1934.2610       5.2280       0.0190      76.1390      21.2880    -999.2500      32.5010      21.3650      13.9390      17.8430       2.5290      11.4410
   1934.4135       5.2140       0.0190      74.3401      21.9515    -999.2500      31.8419      20.5029      12.5629      17.7115       2.5195      12.1958
   1934.5658       5.2000       0.0190      72.5400      22.6170    -999.2500      31.1830      19.6410      11.1870      17.5800       2.5100      12.9530
   1934.7183       5.2150       0.0220      71.4050      23.1477    -999.2500      33.8060      21.1045      12.2245      17.5800       2.5015      10.4056
   1934.8706       5.2300       0.0250      70.2700      23.6800    -999.2500      36.4290      22.5680      13.2620      17.5800       2.4930       7.8500
   1935.0229       5.2150       0.0220      70.4660      23.1983    -999.2500      33.1547      20.9236      11.2991      17.2050       2.4865       4.8460
   1935.1754       5.2000       0.0190      70.6620      22.7150    -999.2500      29.8800      19.2790       9.3360      16.8300       2.4800       1.8320
   1935.3278       5.2210       0.0220      70.7345      21.8586    -999.2500      27.7382      18.0716       8.9675      16.9800       2.5099       1.0106
   1935.4802       5.2420       0.0250      70.8070      21.0000    -999.2500      25.5960      16.8640       8.5990      17.1300       2.5400       0.1870
   1935.6326       5.2610       0.0140      71.1884      21.1429    -999.2500      26.1074      17.1954       8.4130      17.7554       2.5300       1.7999
   1935.7850       5.2800       0.0030      71.5700      21.2860    -999.2500      26.6190      17.5270       8.2270      18.3800       2.5200       3.4160
   1935.9374       5.2550       0.0070      69.7954      22.7285    -999.2500      24.2171      15.7854       8.3750      16.4489       2.5399       3.3636
   1936.0898       5.2300       0.0110      68.0200      24.1740    -999.2500      21.8140      14.0430       8.5230      14.5200       2.5600       3.3110
   1936.2422       5.2330       0.0110      68.1355      31.2302    -999.2500      14.8991       9.8358       8.9784      14.5755       2.5595       2.9234
   1936.3947       5.2360       0.0110      68.2510      38.3020    -999.2500       7.9800       5.6260       9.4340      14.6310       2.5590       2.5350
   1936.5470       5.2580       0.0100      69.1047      42.7688    -999.2500       8.0105       5.6445       9.4050      15.0417       2.5540       2.1659
   1936.6995       5.2800       0.0090      69.9590      47.2460    -999.2500       8.0410       5.6630       9.3760      15.4520       2.5490       1.7960
   1936.8518       5.2800       0.0080      70.5642      50.1115    -999.2500      10.5514       7.1539       7.8661      15.8361       2.5296       1.6117
