#------------------------------------------------------------------------------
#
#   Created by  : [OpenWorks] Log Export Utility (LEXP)
#   Created on  : 2016-05-23 11:51:18
#   Project     : CANT971
#   User        : R5K
#   Interpreter : PEP
#
#------------------------------------------------------------------------------
~VERSION INFORMATION
VERS. 2.0 : CWLS Log ASCII Standard - version 2.0
WRAP.  NO : One line per depth step
~WELL INFORMATION
#MNEMONIC   .UNIT                                           VALUE :DESCRIPTION
#------------------------------------------------------------------------------
STRT        .M                                           690.7880 :START DEPTH
STOP        .M                                          2950.1179 :STOP DEPTH
STEP        .M                                             0.1524 :STEP
NULL        .                                           -999.2500 :NULL VALUE
COMP        .                                   PEMEX EXPL & PROD :COMPANY
WELL        .                                                1066 :WELL
FLD         .                                           CANTARELL :FIELD
LOC         .                                             UNKNOWN :LOCATION
CNTY        .                                      CD. DEL CARMEN :COUNTY
STAT        .                                            CAMPECHE :STATE
CTRY        .                                              MEXICO :COUNTRY
SRVC        .                                             UNKNOWN :SERVICE COMPANY
DATE        .                                             UNKNOWN :LOG DATE
UWI         .                                          3060000505 :UNIQUE WELL ID
XCOORD      .                                       596157.670000 :SURFACE X
YCOORD      .                                      2150605.920000 :SURFACE Y
LAT         .                                           19.448718 :LATITUDE
LON         .                                          -92.083948 :LONGITUDE
ELEV        .M                                            30.0000 :SURFACE ELEV
ELEV_TYPE   .                                                  KB :ELEV TYPE
~CURVE INFORMATION
#MNEMONIC.UNIT        API CODE       : CURVE DESCRIPTION
#------------------------------------------------------------------------------
DEPTH    .M                          : Measured Depth
CALI     .inches      UNKNOWN        : CALI:litodensidad:rC:NONE:v0 (auto-composite)
DRHO     .g/cm3       UNKNOWN        : DRHO:litodensidad:rC:NONE:v0 (auto-composite)
DT       .us/ft       UNKNOWN        : DT:DT:rC:NONE:v0 (auto-composite)
GR       .API         UNKNOWN        : GR:UNKNOWN:rC:NONE:v0 (auto-composite)
ILD      .ohmm        UNKNOWN        : ILD:UNKNOWN:rC:NONE:v0 (auto-composite)
ILM      .ohmm        UNKNOWN        : ILM:UNKNOWN:rC:NONE:v0 (auto-composite)
LLD      .ohmm        UNKNOWN        : LLD:UNKNOWN:rC:NONE:v0 (auto-composite)
LLS      .ohmm        UNKNOWN        : LLS:UNKNOWN:rC:NONE:v0 (auto-composite)
MSFL     .ohmm        UNKNOWN        : MSFL:UNKNOWN:rC:NONE:v0 (auto-composite)
NPHI     .v/v_decimal UNKNOWN        : NPHI:PETROWORKS:rC:NONE:v2 
PEF      .b/elec      UNKNOWN        : PEF:litodensidad:rC:NONE:v0 (auto-composite)
RHOB     .g/cm3       UNKNOWN        : RHOB:litodensidad:rC:NONE:v0 (auto-composite)
~A     DEPTH         CALI         DRHO           DT           GR          ILD          ILM          LLD          LLS         MSFL         NPHI          PEF         RHOB
# ...
   1590.5576    -999.2500    -999.2500    -999.2500      38.1886       1.0571       1.0543       0.2000       0.2000       0.2000      -0.1500    -999.2500    -999.2500
   1590.7101    -999.2500    -999.2500    -999.2500      37.3194       1.0624       1.0586       0.2000       0.2000       0.2000      -0.1500    -999.2500    -999.2500
   1590.8624    -999.2500    -999.2500    -999.2500      36.3181       1.0679       1.0631       0.2000       0.2000       0.2000      -0.1500    -999.2500    -999.2500
   1591.0148    -999.2500    -999.2500    -999.2500      37.2969       1.0734       1.0688       0.2000       0.2000       0.2000      -0.1500    -999.2500    -999.2500
   1591.1672    -999.2500    -999.2500    -999.2500      38.7519       1.0790       1.0749       0.2000       0.2000       0.2000      -0.1500    -999.2500    -999.2500
   1591.3196    -999.2500    -999.2500    -999.2500      37.8315       1.0820       1.0772       0.2000       0.2000       0.2000      -0.1500    -999.2500    -999.2500
   1591.4720    -999.2500    -999.2500    -999.2500      36.3571       1.0845       1.0787       0.2000       0.2000       0.2000      -0.1500    -999.2500    -999.2500
   1591.6244    -999.2500    -999.2500    -999.2500      36.8098       1.0854       1.0786       0.2000       0.2000       0.2000      -0.1500    -999.2500    -999.2500
   1591.7769    -999.2500    -999.2500    -999.2500      37.7144       1.0859       1.0781       0.2000       0.2000       0.2000      -0.1500    -999.2500    -999.2500
   1591.9292    -999.2500    -999.2500    -999.2500      38.7298       1.0844       1.0776       0.2000       0.2000       0.2000      -0.1500    -999.2500    -999.2500
   1592.0817    -999.2500    -999.2500    -999.2500      39.7704       1.0824       1.0771       0.2000       0.2000       0.2000      -0.1500    -999.2500    -999.2500
   1592.2340    -999.2500    -999.2500    -999.2500      38.8214       1.0816       1.0770       0.2000       0.2000       0.2000      -0.1500    -999.2500    -999.2500
   1592.3865    -999.2500    -999.2500    -999.2500      37.4175       1.0811       1.0770       0.2000       0.2000       0.2000      -0.1500    -999.2500    -999.2500
   1592.5388    -999.2500    -999.2500    -999.2500      37.5657       1.0822       1.0782       0.2000       0.2000       0.2000      -0.1500    -999.2500    -999.2500
   1592.6913    -999.2500    -999.2500    -999.2500      38.0558       1.0837       1.0797       0.2000       0.2000       0.2000      -0.1500    -999.2500    -999.2500
   1592.8436    -999.2500    -999.2500    -999.2500      36.9277       1.0848       1.0808       0.2000       0.2000       0.2000      -0.1500    -999.2500    -999.2500
   1592.9960    -999.2500    -999.2500    -999.2500      35.4543       1.0858       1.0818       0.2000       0.2000       0.2000      -0.1500    -999.2500    -999.2500
   1593.1484    -999.2500    -999.2500    -999.2500      34.3064       1.0872       1.0824       0.2000       0.2000       0.2000      -0.1500    -999.2500    -999.2500
   1593.3008    -999.2500    -999.2500    -999.2500      33.2283       1.0887       1.0829       0.2000       0.2000       0.2000      -0.1500    -999.2500    -999.2500
   1593.4532    -999.2500    -999.2500    -999.2500      35.0001       1.0886       1.0834       0.2000       0.2000       0.2000      -0.1500    -999.2500    -999.2500
   1593.6056    -999.2500    -999.2500    -999.2500      37.3636       1.0881       1.0839       0.2000       0.2000       0.2000      -0.1500    -999.2500    -999.2500
   1593.7581    -999.2500    -999.2500    -999.2500      36.7488       1.0872       1.0819       0.2000       0.2000       0.2000      -0.1500    -999.2500    -999.2500
   1593.9104    -999.2500    -999.2500    -999.2500      35.5119       1.0862       1.0794       0.2000       0.2000       0.2000      -0.1500    -999.2500    -999.2500
   1594.0629    -999.2500    -999.2500    -999.2500      36.2972       1.0847       1.0782       0.2000       0.2000       0.2000      -0.1500    -999.2500    -999.2500
   1594.2152    -999.2500    -999.2500    -999.2500      37.4910       1.0832       1.0772       0.2000       0.2000       0.2000      -0.1500    -999.2500    -999.2500
   1594.3677    -999.2500    -999.2500    -999.2500      36.8729       1.0813       1.0753       0.2000       0.2000       0.2000      -0.1500    -999.2500    -999.2500
   1594.5200    -999.2500    -999.2500    -999.2500      35.9032       1.0793       1.0733       0.2000       0.2000       0.2000      -0.1500    -999.2500    -999.2500
   1594.6725    -999.2500    -999.2500    -999.2500      35.1539       1.0815       1.0747       0.2000       0.2000       0.2000      -0.1500    -999.2500    -999.2500
   1594.8248    -999.2500    -999.2500    -999.2500      34.4480       1.0845       1.0767       0.2000       0.2000       0.2000      -0.1500    -999.2500    -999.2500
   1594.9772    -999.2500    -999.2500    -999.2500      34.9531       1.0921       1.0841       0.2000       0.2000       0.2000      -0.1500    -999.2500    -999.2500
   1595.1296    -999.2500    -999.2500    -999.2500      35.6864       1.1006       1.0926       0.2000       0.2000       0.2000      -0.1500    -999.2500    -999.2500
   1595.2820    -999.2500    -999.2500    -999.2500      36.3842       1.1142       1.1071       0.2000       0.2000       0.2000      -0.1500    -999.2500    -999.2500
   1595.4344    -999.2500    -999.2500    -999.2500      37.0751       1.1287       1.1226       0.2000       0.2000       0.2000      -0.1500    -999.2500    -999.2500
   1595.5868    -999.2500    -999.2500    -999.2500      38.0716       1.1450       1.1381       0.2000       0.2000       0.2000      -0.1500    -999.2500    -999.2500
   1595.7393    -999.2500    -999.2500    -999.2500      39.1240       1.1615       1.1537       0.2000       0.2000       0.2000      -0.1500    -999.2500    -999.2500
   1595.8916    -999.2500    -999.2500    -999.2500      37.9009       1.1759       1.1654       0.2000       0.2000       0.2000      -0.1500    -999.2500    -999.2500
   1596.0441    -999.2500    -999.2500    -999.2500      36.2787       1.1899       1.1763       0.2000       0.2000       0.2000      -0.1500    -999.2500    -999.2500
   1596.1964    -999.2500    -999.2500    -999.2500      35.9667       1.1980       1.1823       0.2000       0.2000       0.2000      -0.1500    -999.2500    -999.2500
   1596.3489    -999.2500    -999.2500    -999.2500      35.8875       1.2050       1.1873       0.2000       0.2000       0.2000      -0.1500    -999.2500    -999.2500
   1596.5012    -999.2500    -999.2500    -999.2500      37.0216       1.2081       1.1884       0.2000       0.2000       0.2000      -0.1500    -999.2500    -999.2500
   1596.6536    -999.2500    -999.2500    -999.2500      38.3620       1.2106       1.1889       0.2000       0.2000       0.2000      -0.1500    -999.2500    -999.2500
   1596.8060    -999.2500    -999.2500    -999.2500      38.9726       1.2106       1.1899       0.2000       0.2000       0.2000      -0.1500    -999.2500    -999.2500
   1596.9584    -999.2500    -999.2500    -999.2500      39.4574       1.2101       1.1909       0.2000       0.2000       0.2000      -0.1500    -999.2500    -999.2500
   1597.1108    -999.2500    -999.2500    -999.2500      39.9042       1.2070       1.1897       0.2000       0.2000       0.2000      -0.1500    -999.2500    -999.2500
   1597.2632    -999.2500    -999.2500    -999.2500      40.3448       1.2035       1.1882       0.2000       0.2000       0.2000      -0.1500    -999.2500    -999.2500
   1597.4156    -999.2500    -999.2500    -999.2500      41.1022       1.2039       1.1871       0.2000       0.2000       0.2000      -0.1500    -999.2500    -999.2500
   1597.5680    -999.2500    -999.2500    -999.2500      41.9099       1.2049       1.1861       0.2000       0.2000       0.2000      -0.1500    -999.2500    -999.2500
   1597.7205    -999.2500    -999.2500    -999.2500      40.6658       1.2080       1.1877       0.2000       0.2000       0.2000      -0.1500    -999.2500    -999.2500
