#------------------------------------------------------------------------------
#
#   Created by  : [OpenWorks] Log Export Utility (LEXP)
#   Created on  : 2016-05-23 11:50:40
#   Project     : CANT971
#   User        : R5K
#   Interpreter : PEP
#
#------------------------------------------------------------------------------
~VERSION INFORMATION
VERS. 2.0 : CWLS Log ASCII Standard - version 2.0
WRAP.  NO : One line per depth step
~WELL INFORMATION
#MNEMONIC   .UNIT                                           VALUE :DESCRIPTION
#------------------------------------------------------------------------------
STRT        .M                                           697.2303 :START DEPTH
STOP        .M                                          3650.8948 :STOP DEPTH
STEP        .M                                             0.1524 :STEP
NULL        .                                           -999.2500 :NULL VALUE
COMP        .                                   PEMEX EXPL & PROD :COMPANY
WELL        .                                                1026 :WELL
FLD         .                                           CANTARELL :FIELD
LOC         .                                             UNKNOWN :LOCATION
CNTY        .                                      CD. DEL CARMEN :COUNTY
STAT        .                                            CAMPECHE :STATE
CTRY        .                                              MEXICO :COUNTRY
SRVC        .                                             UNKNOWN :SERVICE COMPANY
DATE        .                                             UNKNOWN :LOG DATE
UWI         .                                          3060000491 :UNIQUE WELL ID
XCOORD      .                                       596159.330000 :SURFACE X
YCOORD      .                                      2150607.710000 :SURFACE Y
LAT         .                                           19.448735 :LATITUDE
LON         .                                          -92.083932 :LONGITUDE
ELEV        .M                                            30.0000 :SURFACE ELEV
ELEV_TYPE   .                                                  KB :ELEV TYPE
~CURVE INFORMATION
#MNEMONIC.UNIT        API CODE       : CURVE DESCRIPTION
#------------------------------------------------------------------------------
DEPTH    .M                          : Measured Depth
CALI     .inches      UNKNOWN        : CALI:registros:rC:NONE:v0 (auto-composite)
DRHO     .g/cm3       UNKNOWN        : DRHO:registros:rC:NONE:v0 (auto-composite)
DT       .us/ft       UNKNOWN        : DT:registros:rC:NONE:v0 (auto-composite)
GR       .API         UNKNOWN        : GR:registros:rC:NONE:v0 (auto-composite)
ILD      .ohm.m       UNKNOWN        : ILD:registros:rC:NONE:v0 (auto-composite)
ILM      .ohm.m       UNKNOWN        : ILM:registros:rC:NONE:v0 (auto-composite)
LLD      .ohm.m       UNKNOWN        : LLD:registros:rC:NONE:v0 (auto-composite)
LLS      .ohm.m       UNKNOWN        : LLS:registros:rC:NONE:v0 (auto-composite)
MSFL     .ohm.m       UNKNOWN        : MSFL:registros:rC:NONE:v0 (auto-composite)
NPHI     .v/v_decimal UNKNOWN        : NPHI:registros:rC:NONE:v0 (auto-composite)
PEF      .b/elec      UNKNOWN        : PEF:registros:rC:NONE:v0 (auto-composite)
RHOB     .g/cm3       UNKNOWN        : RHOB:registros:rC:NONE:v0 (auto-composite)
~A     DEPTH         CALI         DRHO           DT           GR          ILD          ILM          LLD          LLS         MSFL         NPHI          PEF         RHOB
# ...
   3133.1919      13.1455       0.0440      51.0862      53.2622    -999.2500    -999.2500       5.2754       5.5494       1.0901       0.1638       4.1410       2.4950
   3133.3442      13.1910       0.0390      43.5630      54.1960    -999.2500    -999.2500       5.1010       5.3950       1.2010       0.1766       4.0630       2.4820
   3133.4966      13.2205       0.0290      47.9993      57.3130    -999.2500    -999.2500       4.9429       5.2859       1.6338       0.2000       3.8470       2.4575
   3133.6492      13.2500       0.0190      52.4370      60.4310    -999.2500    -999.2500       4.7850       5.1770       2.0660       0.2209       3.6310       2.4330
   3133.8015      13.1990       0.0095      43.1270      67.4015    -999.2500    -999.2500       4.9431       5.3491       1.6588       0.2259       3.4435       2.4415
   3133.9539      13.1480       0.0000      33.8130      74.3750    -999.2500    -999.2500       5.1010       5.5210       1.2520       0.2237       3.2560       2.4500
   3134.1062      13.2105       0.0005      34.7387      73.7577    -999.2500    -999.2500       5.3563       5.7934       1.3021       0.2233       3.3460       2.4630
   3134.2588      13.2730       0.0010      35.6650      73.1400    -999.2500    -999.2500       5.6110       6.0650       1.3520       0.2233       3.4360       2.4760
   3134.4111      13.2420       0.0015      55.3416      71.8829    -999.2500    -999.2500       5.7587       6.2212       1.6929       0.2222       3.4035       2.4675
   3134.5635      13.2110       0.0020      75.0000      70.6250    -999.2500    -999.2500       5.9060       6.3770       2.0330       0.2205       3.3710       2.4590
   3134.7158      13.1295       0.0030      73.8745      71.2497    -999.2500    -999.2500       5.9766       6.4616       2.6557       0.2185       3.4295       2.4600
   3134.8682      13.0480       0.0040      72.7500      71.8750    -999.2500    -999.2500       6.0470       6.5460       3.2770       0.2154       3.4880       2.4610
   3135.0208      12.9150       0.0020      72.7815      69.3452    -999.2500    -999.2500       6.0946       6.6166       2.1527       0.2104       3.4665       2.4675
   3135.1731      12.7820       0.0000      72.8130      66.8130    -999.2500    -999.2500       6.1420       6.6870       1.0310       0.2065       3.4450       2.4740
   3135.3254      12.6955       0.0005      55.7144      67.3112    -999.2500    -999.2500       6.2576       6.8091       1.0720       0.2070       3.3106       2.4735
   3135.4778      12.6090       0.0010      38.6250      67.8100    -999.2500    -999.2500       6.3730       6.9310       1.1130       0.2107       3.1760       2.4730
   3135.6304      12.5740       0.0040      41.7507      69.8413    -999.2500    -999.2500       6.5001       7.0656       1.3142       0.2166       3.1845       2.4625
   3135.7827      12.5390       0.0070      44.8750      71.8750    -999.2500    -999.2500       6.6270       7.2000       1.5150       0.2233       3.1930       2.4520
   3135.9351      12.4415       0.0055      42.8747      68.0870    -999.2500    -999.2500       6.7121       7.3281       1.4675       0.2297       3.2110       2.4385
   3136.0874      12.3440       0.0040      40.8750      64.2940    -999.2500    -999.2500       6.7970       7.4560       1.4200       0.2334       3.2290       2.4250
   3136.2400      12.3715       0.0010      45.9379      55.4813    -999.2500    -999.2500       6.9992       7.7177       1.5621       0.2320       3.2385       2.4190
   3136.3923      12.3990      -0.0020      51.0000      46.6560    -999.2500    -999.2500       7.2010       7.9790       1.7040       0.2269       3.2480       2.4130
   3136.5447      12.4260      -0.0005      50.9685      51.0985    -999.2500    -999.2500       7.5728       8.3968       1.8947       0.2193       3.2725       2.4180
   3136.6970      12.4530       0.0010      50.9370      55.5480    -999.2500    -999.2500       7.9440       8.8140       2.0850       0.2099       3.2970       2.4230
   3136.8494      12.4255       0.0025      47.3122      59.9268    -999.2500    -999.2500       8.2788       9.1773       2.2811       0.1992       3.4980       2.4330
   3137.0020      12.3980       0.0040      43.6870      64.3130    -999.2500    -999.2500       8.6130       9.5400       2.4770       0.1886       3.6990       2.4430
   3137.1543      12.3240       0.0055      43.9720      62.2519    -999.2500    -999.2500       8.7546       9.7171       2.9108       0.1794       3.6775       2.4530
   3137.3066      12.2500       0.0070      44.2570      60.1870    -999.2500    -999.2500       8.8960       9.8940       3.3440       0.1726       3.6560       2.4630
   3137.4590      12.2660       0.0080      45.9757      60.1870    -999.2500    -999.2500       8.9675      10.0111       3.6822       0.1688       3.6275       2.4735
   3137.6116      12.2820       0.0090      47.6950      60.1870    -999.2500    -999.2500       9.0390      10.1280       4.0200       0.1669       3.5990       2.4840
   3137.7639      12.3330       0.0090      49.2536      54.6883    -999.2500    -999.2500       9.2646      10.4102       4.5433       0.1656       3.5850       2.4930
   3137.9163      12.3840       0.0090      50.8130      49.1870    -999.2500    -999.2500       9.4900      10.6920       5.0660       0.1628       3.5710       2.5020
   3138.0686      12.4810       0.0080      49.6253      50.1497    -999.2500    -999.2500       9.9541      11.1736       4.8998       0.1567       3.5265       2.5120
   3138.2212      12.5780       0.0070      48.4370      51.1130    -999.2500    -999.2500      10.4170      11.6540       4.7340       0.1508       3.4820       2.5220
   3138.3735      12.5240       0.0075      49.7506      53.3332    -999.2500    -999.2500      10.2458      11.5774       4.4036       0.1489       3.4970       2.5215
   3138.5259      12.4700       0.0080      51.0630      55.5550    -999.2500    -999.2500      10.0750      11.5010       4.0740       0.1506       3.5120       2.5210
   3138.6782      12.4045       0.0105      47.3426      58.0789    -999.2500    -999.2500      10.2692      11.6962       4.4825       0.1553       3.5030       2.5245
   3138.8306      12.3390       0.0130      43.6250      60.6050    -999.2500    -999.2500      10.4630      11.8910       4.8900       0.1595       3.4940       2.5280
   3138.9832      12.2895       0.0120      47.2201      62.4581    -999.2500    -999.2500      11.2404      12.6759       5.8311       0.1599       3.6444       2.5400
   3139.1355      12.2400       0.0110      50.8130      64.3130    -999.2500    -999.2500      12.0160      13.4590       6.7700       0.1578       3.7950       2.5520
   3139.2878      12.1700       0.0070      49.8648      64.1041    -999.2500    -999.2500      12.7783      14.2353       6.4457       0.1547       3.7725       2.5500
   3139.4402      12.1000       0.0030      48.9170      63.8950    -999.2500    -999.2500      13.5390      15.0100       6.1220       0.1514       3.7500       2.5480
   3139.5928      11.9955       0.0035      47.2322      60.6060    -999.2500    -999.2500      13.3914      14.8428       5.7697       0.1489       3.6501       2.5520
   3139.7451      11.8910       0.0040      45.5480      57.3130    -999.2500    -999.2500      13.2440      14.6760       5.4180       0.1457       3.5500       2.5560
   3139.8975      11.8910       0.0050      44.6804      57.3130    -999.2500    -999.2500      13.3241      14.7025       5.2664       0.1403       3.3406       2.5530
   3140.0498      11.8910       0.0060      43.8130      57.3130    -999.2500    -999.2500      13.4040      14.7290       5.1150       0.1359       3.1310       2.5500
   3140.2024      11.8870       0.0110      46.0942      53.8775    -999.2500    -999.2500      13.3605      14.6715       5.0389       0.1360       3.1865       2.5550
   3140.3547      11.8830       0.0160      48.3750      50.4370    -999.2500    -999.2500      13.3170      14.6140       4.9630       0.1386       3.2420       2.5600
