#------------------------------------------------------------------------------
#
#   Created by  : [OpenWorks] Log Export Utility (LEXP)
#   Created on  : 2016-05-23 11:55:55
#   Project     : CANT971
#   User        : R5K
#   Interpreter : PEP
#
#------------------------------------------------------------------------------
~VERSION INFORMATION
VERS. 2.0 : CWLS Log ASCII Standard - version 2.0
WRAP.  NO : One line per depth step
~WELL INFORMATION
#MNEMONIC   .UNIT                                           VALUE :DESCRIPTION
#------------------------------------------------------------------------------
STRT        .M                                          2870.4541 :START DEPTH
STOP        .M                                          3966.9722 :STOP DEPTH
STEP        .M                                             0.1524 :STEP
NULL        .                                           -999.2500 :NULL VALUE
COMP        .                                             UNKNOWN :COMPANY
WELL        .                                            418D-ST1 :WELL
FLD         .                                             UNKNOWN :FIELD
LOC         .                                             UNKNOWN :LOCATION
CNTY        .                                             UNKNOWN :COUNTY
STAT        .                                             UNKNOWN :STATE
CTRY        .                                             UNKNOWN :COUNTRY
SRVC        .                                             UNKNOWN :SERVICE COMPANY
DATE        .                                             UNKNOWN :LOG DATE
UWI         .                                            418D-ST1 :UNIQUE WELL ID
XCOORD      .                                       597130.010000 :SURFACE X
YCOORD      .                                      2144879.410000 :SURFACE Y
LAT         .                                           19.396924 :LATITUDE
LON         .                                          -92.074978 :LONGITUDE
ELEV        .M                                             0.0000 :SURFACE ELEV
ELEV_TYPE   .                                                  NA :ELEV TYPE
~CURVE INFORMATION
#MNEMONIC.UNIT        API CODE       : CURVE DESCRIPTION
#------------------------------------------------------------------------------
DEPTH    .M                          : Measured Depth
CALI     .inches      UNKNOWN        : CALI:litodensidad:rC:NONE:v0 (auto-composite)
CGR      .API         UNKNOWN        : CGR:litodensidad:rC:NONE:v0 (auto-composite)
DRHO     .g/cm3       UNKNOWN        : DRHO:litodensidad:rC:NONE:v0 (auto-composite)
DT       .us/ft       UNKNOWN        : DT:DT-Load:rC:NONE:v0 (auto-composite)
GR       .API         UNKNOWN        : GR:litodensidad:rC:NONE:v0 (auto-composite)
LLD      .ohm.m       UNKNOWN        : LLD:PETROWORKS:rC:NONE:v1 
LLS      .ohm.m       UNKNOWN        : LLS:PETROWORKS:rC:NONE:v1 
MSFL     .ohm.m       UNKNOWN        : MSFL:resistivos:rC:NONE:v0 (auto-composite)
NPHI     .v/v_decimal UNKNOWN        : NPHI:litodensidad:rC:NONE:v0 (auto-composite)
PEF      .UNKNOWN     UNKNOWN        : PEF:litodensidad:rC:NONE:v0 (auto-composite)
POTA     .UNKNOWN     UNKNOWN        : POTA:litodensidad:rC:NONE:v0 (auto-composite)
RHOB     .g/cm3       UNKNOWN        : RHOB:litodensidad:rC:NONE:v0 (auto-composite)
THOR     .ppm         UNKNOWN        : THOR:litodensidad:rC:NONE:v0 (auto-composite)
URAN     .ppm         UNKNOWN        : URAN:litodensidad:rC:NONE:v0 (auto-composite)
~A     DEPTH         CALI          CGR         DRHO           DT           GR          LLD          LLS         MSFL         NPHI          PEF         POTA         RHOB         THOR         URAN
# ...
   3843.3757      13.1797      90.5526       0.0006    -999.2500     105.2139      39.7802      24.4157    -999.2500       0.0366       5.0039       0.0321       2.8760      10.6568       1.8843
   3843.5281      13.1797      88.3753       0.0006    -999.2500     102.4008      30.2208      19.3547    -999.2500       0.0458       4.2852       0.0314       2.8074      10.3690       1.8026
   3843.6804      13.1797      90.8503       0.0029    -999.2500     107.4477      20.6615      14.2936    -999.2500       0.0475       3.8438       0.0323       2.7393      10.6744       2.1332
   3843.8330      13.1797      87.7629       0.0044    -999.2500     103.5966      17.4265      12.1485    -999.2500       0.0512       3.5684       0.0314       2.6830      10.2288       2.0350
   3843.9854      13.2500      93.1519       0.0056    -999.2500     112.0008      14.7582      10.2647    -999.2500       0.0478       3.5820       0.0331       2.6372      10.9376       2.4225
   3844.1377      13.3672      89.6656       0.0119    -999.2500     106.7422      12.0899       8.3808    -999.2500       0.0487       3.5293       0.0315       2.6012      10.6780       2.1947
   3844.2900      13.7422      90.8513       0.0179    -999.2500     107.8131       9.9619       6.8773    -999.2500       0.0447       3.5313       0.0318       2.5752      10.8490       2.1800
   3844.4424      13.9063      91.4458       0.0308    -999.2500     109.0755       8.4231       5.7885    -999.2500       0.0503       3.7500       0.0319       2.5613      10.9803       2.2658
   3844.5950      13.5938      90.6409       0.0485    -999.2500     107.5900       6.8844       4.6997    -999.2500       0.1028       3.6387       0.0315       2.5556      10.9275       2.1784
   3844.7473      13.7109      89.2901       0.0538    -999.2500     105.4863       5.4195       3.6620    -999.2500       0.1935       3.4629       0.0308       2.5391      10.8659       2.0816
   3844.8997      13.7969      87.8051       0.0546    -999.2500     103.5189       5.7038       3.8356    -999.2500       0.2918       2.9551       0.0302       2.5439      10.7179       2.0196
   3845.0520      13.8438      87.2596       0.0602    -999.2500     102.2905       5.9881       4.0092    -999.2500       0.3479       2.8926       0.0296       2.5678      10.8274       1.9318
   3845.2046      13.9297      88.7498       0.0568    -999.2500     104.3896       6.2724       4.1827    -999.2500       0.3476       3.4902       0.0297       2.5861      11.2073       2.0101
   3845.3569      14.0547      89.0931       0.0518    -999.2500     105.7442       6.3968       4.2421    -999.2500       0.3498       4.3320       0.0295       2.5497      11.3668       2.1401
   3845.5093      15.1484      90.2794       0.0544    -999.2500     107.2270       6.4156       4.2262    -999.2500       0.3331       5.0508       0.0295       2.4609      11.6903       2.1782
   3845.6616      15.2578      92.4836       0.0812    -999.2500     110.3607       6.4345       4.2103    -999.2500       0.3404       5.1875       0.0297       2.4329      12.2267       2.2976
   3845.8142      15.5625      91.3506       0.1068    -999.2500     109.5247       6.4274       4.1769    -999.2500       0.3285       5.0820       0.0288       2.4277      12.2799       2.3358
   3845.9666      15.8672      90.8508       0.1283    -999.2500     108.4050       6.2871       4.0540    -999.2500       0.3161       5.1563       0.0282       2.4598      12.3951       2.2561
   3846.1189      15.4453      90.2006       0.1182    -999.2500     108.1893       6.1468       3.9311    -999.2500       0.3097       4.7188       0.0278       2.4834      12.3922       2.3120
   3846.2712      14.5781      87.9642       0.1224    -999.2500     104.3938       6.0065       3.8082    -999.2500       0.3137       4.0781       0.0269       2.5454      12.1765       2.1116
   3846.4236      14.3594      82.0955       0.1000    -999.2500      97.2991       6.0523       3.8567    -999.2500       0.3335       3.9063       0.0244       2.5920      11.6680       1.9540
   3846.5762      14.5703      77.9857       0.0602    -999.2500      87.7217       6.1685       3.9701    -999.2500       0.3352       3.5742       0.0235       2.5819      10.9745       1.2513
   3846.7285      14.0234      79.5310       0.0325    -999.2500      89.8987       6.2846       4.0836    -999.2500       0.3288       3.2813       0.0243       2.5667      11.0286       1.3325
   3846.8809      14.0078      82.3063       0.0229    -999.2500      93.7270       6.4197       4.1897    -999.2500       0.3084       2.8984       0.0255       2.5676      11.2750       1.4678
   3847.0332      14.0078      85.0979       0.0045    -999.2500      97.5620       6.6014       4.2778    -999.2500       0.2993       2.8711       0.0264       2.5477      11.6368       1.6019
   3847.1858      14.0078      82.8821       0.0009    -999.2500      94.1959       6.7831       4.3658    -999.2500       0.2888       3.0859       0.0255       2.5373      11.4299       1.4541
   3847.3381      14.1797      83.2272       0.0015    -999.2500      95.2964       6.9648       4.4538    -999.2500       0.2899       3.1797       0.0254       2.5531      11.5385       1.5512
   3847.4905      14.2734      81.7773       0.0044    -999.2500      93.7406       7.1418       4.5125    -999.2500       0.2867       3.2344       0.0248       2.5662      11.4162       1.5376
   3847.6428      14.1875      83.3643       0.0075    -999.2500      96.3489       7.3180       4.5659    -999.2500       0.2940       3.0742       0.0252       2.5887      11.6956       1.6688
   3847.7954      14.1797      83.1394       0.0065    -999.2500      96.7415       7.4942       4.6193    -999.2500       0.2967       3.1270       0.0250       2.6017      11.6868       1.7482
   3847.9478      14.1797      83.7113       0.0014    -999.2500      97.9372       7.9486       4.8350    -999.2500       0.3075       3.0234       0.0253       2.6113      11.7469       1.8284
   3848.1001      14.1797      82.5757      -0.0005    -999.2500      96.1948       8.8027       5.2838    -999.2500       0.3037       3.2383       0.0248       2.6028      11.6560       1.7504
   3848.2524      14.1953      89.6536      -0.0056    -999.2500     104.9176       9.6569       5.7327    -999.2500       0.2862       4.0508       0.0295       2.5809      11.5295       1.9618
   3848.4048      14.3438      90.0936       0.0031    -999.2500     105.7120      10.5111       6.1815    -999.2500       0.2713       5.0234       0.0298       2.5533      11.5343       2.0073
   3848.5574      15.2266      89.1274       0.0474    -999.2500     104.1083      10.5081       6.2205    -999.2500       0.2703       6.4609       0.0297       2.4984      11.3177       1.9254
   3848.7097      16.6875      88.3676       0.0710    -999.2500     102.9631      10.4808       6.2479    -999.2500       0.2708       7.5195       0.0298       2.3808      11.0770       1.8759
   3848.8621      19.0313      88.4831       0.0890    -999.2500     103.0338      10.4536       6.2753    -999.2500       0.2718       9.0000       0.0302       2.2506      10.9067       1.8701
   3849.0144      19.7188      87.9536       0.1164    -999.2500     102.3495      10.0187       6.0724    -999.2500       0.2612       8.5703       0.0304       2.2340      10.6925       1.8502
   3849.1670      19.7656      88.0574       0.1267    -999.2500     102.3858       9.2291       5.6692    -999.2500       0.2676       7.1211       0.0308       2.2829      10.5460       1.8415
   3849.3193      19.7188      89.0898       0.1203    -999.2500     103.3400       8.4395       5.2660    -999.2500       0.2601       5.6953       0.0313       2.4076      10.5883       1.8315
   3849.4717      20.0938      89.8830       0.1258    -999.2500     104.1469       7.6936       4.8857    -999.2500       0.2558       5.3633       0.0319       2.5136      10.5554       1.8333
   3849.6240      21.0625      90.0985       0.1115    -999.2500     103.4877       7.3625       4.7234    -999.2500       0.2484       5.1953       0.0321       2.5094      10.5462       1.7208
