#------------------------------------------------------------------------------
#
#   Created by  : [OpenWorks] Log Export Utility (LEXP)
#   Created on  : 2016-05-23 11:55:55
#   Project     : CANT971
#   User        : R5K
#   Interpreter : PEP
#
#------------------------------------------------------------------------------
~VERSION INFORMATION
VERS. 2.0 : CWLS Log ASCII Standard - version 2.0
WRAP.  NO : One line per depth step
~WELL INFORMATION
#MNEMONIC   .UNIT                                           VALUE :DESCRIPTION
#------------------------------------------------------------------------------
STRT        .M                                          1803.5016 :START DEPTH
STOP        .M                                          3154.9849 :STOP DEPTH
STEP        .M                                             0.1524 :STEP
NULL        .                                           -999.2500 :NULL VALUE
COMP        .                                             UNKNOWN :COMPANY
WELL        .                                             418D-ST :WELL
FLD         .                                             UNKNOWN :FIELD
LOC         .                                             UNKNOWN :LOCATION
CNTY        .                                             UNKNOWN :COUNTY
STAT        .                                             UNKNOWN :STATE
CTRY        .                                             UNKNOWN :COUNTRY
SRVC        .                                             UNKNOWN :SERVICE COMPANY
DATE        .                                             UNKNOWN :LOG DATE
UWI         .                                             418D-ST :UNIQUE WELL ID
XCOORD      .                                       597130.010000 :SURFACE X
YCOORD      .                                      2144879.410000 :SURFACE Y
LAT         .                                           19.396924 :LATITUDE
LON         .                                          -92.074978 :LONGITUDE
ELEV        .M                                             0.0000 :SURFACE ELEV
ELEV_TYPE   .                                                  NA :ELEV TYPE
~CURVE INFORMATION
#MNEMONIC.UNIT        API CODE       : CURVE DESCRIPTION
#------------------------------------------------------------------------------
DEPTH    .M                          : Measured Depth
CALI     .inches      UNKNOWN        : CALI:PETROWORKS:rC:NONE:v1 
CGR      .API         UNKNOWN        : CGR:PETROWORKS:rC:NONE:v1 
DRHO     .g/cm3       UNKNOWN        : DRHO:PETROWORKS:rC:NONE:v1 
DT       .us/ft       UNKNOWN        : DT:PETROWORKS:rC:NONE:v1 
GR       .API         UNKNOWN        : GR:PETROWORKS:rC:NONE:v3 
ILD      .ohm.m       UNKNOWN        : ILD:registros:rC:NONE:v0 (auto-composite)
ILM      .ohm.m       UNKNOWN        : ILM:registros:rC:NONE:v0 (auto-composite)
LLD      .ohm.m       UNKNOWN        : LLD:PETROWORKS:rC:NONE:v2 
LLS      .ohm.m       UNKNOWN        : LLS:PETROWORKS:rC:NONE:v2 
MSFL     .ohm.m       UNKNOWN        : MSFL:PETROWORKS:rC:NONE:v1 
NPHI     .v/v_decimal UNKNOWN        : NPHI:PETROWORKS:rC:NONE:v1 
PEF      .b/elec      UNKNOWN        : PEF:PETROWORKS:rC:NONE:v1 
POTA     .wtpercent   UNKNOWN        : POTA:PETROWORKS:rC:NONE:v1 
RHOB     .g/cm3       UNKNOWN        : RHOB:PETROWORKS:rC:NONE:v1 
THOR     .ppm         UNKNOWN        : THOR:PETROWORKS:rC:NONE:v1 
URAN     .ppm         UNKNOWN        : URAN:PETROWORKS:rC:NONE:v1 
~A     DEPTH         CALI          CGR         DRHO           DT           GR          ILD          ILM          LLD          LLS         MSFL         NPHI          PEF         POTA         RHOB         THOR         URAN
# ...
   2931.2615      12.8828      54.9611       0.0053      84.3000      95.5837    -999.2500    -999.2500     596.6637     355.4183      58.0000       0.2054       4.4844       0.0192       2.4621       7.8410       5.6571
   2931.4141      13.0234      56.7582       0.0042      84.1000      98.1759    -999.2500    -999.2500     601.7499     360.3823     136.0000       0.2123       4.7109       0.0197       2.4530       8.1462       5.7678
   2931.5664      13.7344      57.4031       0.0020      81.8000      99.7403    -999.2500    -999.2500     604.0891     363.4990     199.3750       0.1976       4.7109       0.0199       2.4475       8.2543       5.8959
   2931.7188      13.7422      41.6099       0.0072      83.3000      82.1999    -999.2500    -999.2500     655.8018     380.0118      74.3750       0.1699       4.3906       0.0158       2.4597       5.3737       5.6525
   2931.8711      13.6641      39.0879       0.0141      79.8000      78.4221    -999.2500    -999.2500     939.6168     448.0089      49.1250       0.1519       4.0586       0.0150       2.4755       4.9830       5.4777
   2932.0237      13.0781      42.0294       0.0164      78.5000      83.5185    -999.2500    -999.2500    1058.1975     498.4169     133.5000       0.1453       4.1367       0.0162       2.4952       5.3523       5.7778
   2932.1760      12.7109      38.5102       0.0140      76.8000      78.1183    -999.2500    -999.2500     746.5532     409.5601     106.1875       0.1551       4.5898       0.0155       2.5121       4.6278       5.5158
   2932.3284      12.9766      41.8353       0.0137      70.7000      83.2912    -999.2500    -999.2500     612.3765     375.2974      31.2031       0.1718       4.9336       0.0169       2.5007       4.9718       5.7731
   2932.4807      12.9297      50.5360       0.0110      74.6000      92.7253    -999.2500    -999.2500     685.5673     392.5787     140.6250       0.1954       4.6758       0.0213       2.4754       5.6213       5.8753
   2932.6333      12.8672      49.6188       0.0044      76.5000      91.2792    -999.2500    -999.2500     179.8345     153.1444     151.0000       0.2081       4.2852       0.0210       2.4483       5.5061       5.8016
   2932.7856      12.8125      49.3235       0.0042      81.3000      90.6102    -999.2500    -999.2500     109.8320     100.5643      67.7500       0.1885       4.2070       0.0210       2.4789       5.4111       5.7496
   2932.9380      12.6250      48.0007       0.0081      85.2000      88.5164    -999.2500    -999.2500     104.0409      96.9909      27.1250       0.1572       4.4063       0.0205       2.5422       5.2412       5.6422
   2933.0903      12.6016      34.4809       0.0084      81.8000      73.5896    -999.2500    -999.2500      98.9164      94.6831     363.7500       0.1401       4.3672       0.0121       2.6001       4.8796       5.4463
   2933.2427      12.5703      32.3072       0.0087      78.0000      70.0775    -999.2500    -999.2500      86.1578      83.5927     346.5000       0.1571       4.2148       0.0114       2.5837       4.5544       5.2599
   2933.3953      12.5234      32.5336       0.0027      72.2000      70.1999    -999.2500    -999.2500      84.9008      81.7935      73.1250       0.1724       3.9434       0.0114       2.5201       4.6027       5.2454
   2933.5476      12.5938      62.2362      -0.0003      72.9000     102.0256    -999.2500    -999.2500      86.1563      83.6467       3.8652       0.1859       3.9180       0.0298       2.4710       5.3939       5.5411
   2933.7000      12.5859      62.3043       0.0028      77.5000     102.4327    -999.2500    -999.2500      84.2198      82.6142       4.0000       0.1730       4.0234       0.0298       2.4812       5.4371       5.5883
   2933.8523      12.6797      63.4215       0.0102      81.5000     104.1906    -999.2500    -999.2500      79.6223      75.9933     178.6250       0.1646       4.1523       0.0302       2.5170       5.5766       5.6775
   2934.0049      12.6953      60.4861       0.0086      85.0000     100.0219    -999.2500    -999.2500     191.5982     163.6748     283.7500       0.1583       4.3867       0.0288       2.5354       5.3049       5.5057
   2934.1572      12.6328      50.5924       0.0072      80.2000      87.5013    -999.2500    -999.2500     145.4692     133.3417     232.1250       0.1583       4.3125       0.0219       2.5276       5.4069       5.1399
   2934.3096      12.6016      48.8533       0.0061      77.9000      85.1317    -999.2500    -999.2500     133.4406     121.8109      17.6719       0.1698       4.4063       0.0213       2.5089       5.1587       5.0521
   2934.4619      12.5547      50.8660       0.0077      78.5000      88.4140    -999.2500    -999.2500     126.1142     115.6540     309.2500       0.1764       4.3477       0.0219       2.5092       5.4721       5.2289
   2934.6145      12.5625      42.2545       0.0087      77.9000      79.3316    -999.2500    -999.2500     146.8131     128.6036     329.2500       0.1661       4.4375       0.0155       2.5178       5.7045       5.1634
   2934.7668      12.4453      41.3314       0.0122      79.3000      63.7408    -999.2500    -999.2500     273.9097     215.4171     600.5000       0.1661       4.5039       0.0184       2.5351       4.1962       3.1207
   2934.9192      12.5156      45.5101       0.0109      79.6000      69.1681    -999.2500    -999.2500     391.2002     281.5164     683.5000       0.1680       4.5469       0.0202       2.5353       4.6492       3.2946
   2935.0715      12.5313      47.1330       0.0129      77.5000      71.3921    -999.2500    -999.2500     406.7753     285.0818     760.0000       0.1698       4.6602       0.0209       2.5592       4.7993       3.3783
   2935.2239      12.5625      43.8288       0.0114      77.4000      59.6866    -999.2500    -999.2500     418.8802     294.9673     628.0000       0.1318       4.9961       0.0181       2.5808       5.0490       2.2083
   2935.3765      12.5313      41.7970       0.0085      76.9000      48.8606    -999.2500    -999.2500     444.2790     295.7175    1795.0000       0.0845       5.1953       0.0159       2.6226       5.3818       0.9837
   2935.5288      12.5547      39.8208       0.0066      70.3000      44.2568    -999.2500    -999.2500     320.3428     238.7925    1612.0000       0.0543       5.3711       0.0152       2.6430       5.1173       0.6178
   2935.6812      12.4297      38.9005       0.0060      67.9000      37.2844    -999.2500    -999.2500     302.5178     230.4005     497.2500       0.0496       4.5625       0.0136       2.6721       5.5224      -0.2251
   2935.8335      12.4063      38.3388       0.0088      61.3000      36.2443    -999.2500    -999.2500     257.9654     204.4257    1675.0000       0.0532       4.2734       0.0131       2.6653       5.5875      -0.2917
   2935.9861      12.4141      41.7571       0.0086      57.5000      48.9526    -999.2500    -999.2500     230.7301     187.2262    1006.5000       0.1048       3.8359       0.0140       2.6057       6.1889       1.0020
   2936.1384      12.8828      45.0575       0.0063      60.6000      72.9412    -999.2500    -999.2500     184.3485     152.8537     172.2500       0.1473       3.9707       0.0160       2.5273       6.3318       3.8831
   2936.2908      12.8203      49.8223       0.0025      66.2000      91.6181    -999.2500    -999.2500     166.4830     140.4119      14.1250       0.1749       4.0039       0.0169       2.4801       7.3087       5.8205
   2936.4431      12.6953      48.7766       0.0069      72.0000      90.5497    -999.2500    -999.2500     153.9887     129.7543      14.6484       0.1480       4.1836       0.0163       2.4835       7.2619       5.8173
   2936.5957      12.5859      49.6071       0.0073      76.8000      92.1454    -999.2500    -999.2500     197.9213     153.3706     138.0000       0.1452       4.2578       0.0165       2.4944       7.4083       5.9239
   2936.7480      12.5625      49.2376       0.0076      81.2000      92.0472    -999.2500    -999.2500     359.4191     246.9885     214.3750       0.1562       4.3047       0.0161       2.4961       7.4893       5.9616
