#------------------------------------------------------------------------------
#
#   Created by  : [OpenWorks] Log Export Utility (LEXP)
#   Created on  : 2016-05-23 11:55:37
#   Project     : CANT971
#   User        : R5K
#   Interpreter : PEP
#
#------------------------------------------------------------------------------
~VERSION INFORMATION
VERS. 2.0 : CWLS Log ASCII Standard - version 2.0
WRAP.  NO : One line per depth step
~WELL INFORMATION
#MNEMONIC   .UNIT                                           VALUE :DESCRIPTION
#------------------------------------------------------------------------------
STRT        .M                                           299.0628 :START DEPTH
STOP        .M                                          2570.8896 :STOP DEPTH
STEP        .M                                             0.1524 :STEP
NULL        .                                           -999.2500 :NULL VALUE
COMP        .                                   PEMEX EXPL & PROD :COMPANY
WELL        .                                                  31 :WELL
FLD         .                                           CANTARELL :FIELD
LOC         .                                             UNKNOWN :LOCATION
CNTY        .                                      CD. DEL CARMEN :COUNTY
STAT        .                                            CAMPECHE :STATE
CTRY        .                                              MEXICO :COUNTRY
SRVC        .                                             UNKNOWN :SERVICE COMPANY
DATE        .                                             UNKNOWN :LOG DATE
UWI         .                                          3060000157 :UNIQUE WELL ID
XCOORD      .                                       599727.810000 :SURFACE X
YCOORD      .                                      2147216.930000 :SURFACE Y
LAT         .                                           19.417919 :LATITUDE
LON         .                                          -92.050118 :LONGITUDE
ELEV        .M                                            27.8000 :SURFACE ELEV
ELEV_TYPE   .                                                  KB :ELEV TYPE
~CURVE INFORMATION
#MNEMONIC.UNIT        API CODE       : CURVE DESCRIPTION
#------------------------------------------------------------------------------
DEPTH    .M                          : Measured Depth
CALI     .inches      UNKNOWN        : CALI:Import:rC:NONE:v0 (auto-composite)
DRHO     .g/cm3       UNKNOWN        : DRHO:Import:rC:NONE:v0 (auto-composite)
DT       .us/ft       UNKNOWN        : DT:Import:rC:NONE:v0 (auto-composite)
GR       .API         UNKNOWN        : GR:Import:rC:NONE:v0 (auto-composite)
ILD      .ohm.m       UNKNOWN        : ILD:Import:rC:NONE:v0 (auto-composite)
LLD      .ohm.m       UNKNOWN        : LLD:Import:rC:NONE:v0 (auto-composite)
LLS      .ohm.m       UNKNOWN        : LLS:Import:rC:NONE:v0 (auto-composite)
MSFL     .ohm.m       UNKNOWN        : MSFL:Import:rC:NONE:v0 (auto-composite)
NPHI     .v/v_decimal UNKNOWN        : NPHI:Import:rC:NONE:v0 (auto-composite)
RHOB     .g/cm3       UNKNOWN        : RHOB:Import:rC:NONE:v0 (auto-composite)
~A     DEPTH         CALI         DRHO           DT           GR          ILD          LLD          LLS         MSFL         NPHI         RHOB
# ...
   2014.4772       7.0755       0.0890    -999.2500      30.2977    -999.2500     178.8859     127.3366      45.1555       0.1417       2.6269
   2014.6296       7.1224       0.0740    -999.2500      34.3022    -999.2500     160.9448     147.9538      54.4036       0.1532       2.6196
   2014.7820       7.0563       0.0740    -999.2500      36.3676    -999.2500     151.0437     146.2758      53.8715       0.1546       2.6166
   2014.9344       7.0000       0.0757    -999.2500      38.0819    -999.2500     140.6170     143.9145      53.1909       0.1528       2.6131
   2015.0868       7.0000       0.0872    -999.2500      37.7701    -999.2500     127.1574     137.6351      51.6531       0.1529       2.6071
   2015.2393       7.0007       0.0969    -999.2500      36.9881    -999.2500     113.2707     129.1895      49.5966       0.1547       2.5955
   2015.3916       7.0052       0.0964    -999.2500      33.5426    -999.2500      96.9802     108.6244      44.6017       0.1584       2.5519
   2015.5439       7.0228       0.0958    -999.2500      30.6395    -999.2500      81.0822      87.9982      42.1399       0.1665       2.5151
   2015.6964       7.1129       0.0943    -999.2500      30.7341    -999.2500      67.3546      67.0362      53.6809       0.1803       2.5156
   2015.8488       7.1874       0.0915    -999.2500      30.8637    -999.2500      54.5084      47.0981      63.1430       0.1904       2.5166
   2016.0012       7.1774       0.0814    -999.2500      31.1836    -999.2500      46.4477      32.6859      61.3172       0.1900       2.5206
   2016.1536       7.1556       0.0732    -999.2500      31.6524    -999.2500      39.0118      20.6039      58.9149       0.1869       2.5276
   2016.3060       7.0710       0.0747    -999.2500      32.9154    -999.2500      34.8885      20.8036      53.4560       0.1870       2.5507
   2016.4584       7.0000       0.0774    -999.2500      33.8593    -999.2500      30.9946      21.2409      47.9855       0.1881       2.5694
   2016.6108       7.0000       0.0859    -999.2500      33.1404    -999.2500      28.2964      22.9088      42.4545       0.1884       2.5659
   2016.7632       7.0000       0.0928    -999.2500      32.5961    -999.2500      25.3440      24.2414      36.7757       0.1885       2.5633
   2016.9156       7.0000       0.0918    -999.2500      32.9455    -999.2500      21.0893      23.8663      30.3396       0.1887       2.5653
   2017.0680       7.0000       0.0903    -999.2500      33.4425    -999.2500      17.5904      23.0631      25.0806       0.1899       2.5668
   2017.2205       7.0000       0.0863    -999.2500      34.6830    -999.2500      17.8753      20.1287      25.7148       0.1938       2.5652
   2017.3728       7.0000       0.0830    -999.2500      35.7140    -999.2500      18.1120      17.6920      27.0307       0.2064       2.5640
   2017.5251       7.0000       0.0830    -999.2500      35.7140    -999.2500      18.1120      17.6920      31.7021       0.2300       2.5640
   2017.6776       7.0000       0.0798    -999.2500      36.8180    -999.2500      19.0593      18.0544      34.7741       0.2410       2.5592
   2017.8300       7.0000       0.0608    -999.2500      43.2681    -999.2500      24.5934      20.1617      30.1008       0.2244       2.5312
   2017.9824       7.0000       0.0452    -999.2500      48.5946    -999.2500      30.2831      22.5574      26.8858       0.2130       2.5046
   2018.1348       7.0000       0.0462    -999.2500      48.5690    -999.2500      36.7091      26.3118      30.5791       0.2303       2.4851
   2018.2872       7.0000       0.0470    -999.2500      48.8700    -999.2500      44.7274      29.4000      32.7405       0.2557       2.4690
   2018.4396       7.0000       0.0470    -999.2500      50.6926    -999.2500      60.1675      29.4000      27.7617       0.2725       2.4690
   2018.5920       7.0000       0.0489    -999.2500      51.8626    -999.2500      70.0793      34.0238      24.5655       0.2776       2.4607
   2018.7444       7.0000       0.0594    -999.2500      50.0393    -999.2500      54.6331      59.6283      29.5463       0.2687       2.4141
   2018.8969       7.0000       0.0702    -999.2500      48.6846    -999.2500      44.4993      80.1858      34.6186       0.2557       2.3763
   2019.0492       7.0000       0.0822    -999.2500      49.4345    -999.2500      58.2224      78.2005      40.1015       0.2460       2.3778
   2019.2017       7.0000       0.0920    -999.2500      50.3191    -999.2500      69.4140      73.1463      44.5730       0.2412       2.3790
   2019.3540       7.0000       0.0920    -999.2500      51.7993    -999.2500      69.4140      54.5961      44.5730       0.2417       2.3790
   2019.5063       7.0000       0.0915    -999.2500      52.7264    -999.2500      69.9877      43.0346      43.3201       0.2427       2.3851
   2019.6588       7.0000       0.0890    -999.2500      51.2455    -999.2500      73.0458      61.5773      36.6130       0.2407       2.4182
   2019.8112       7.0000       0.0852    -999.2500      49.3336    -999.2500      75.2668      73.4284      31.7355       0.2371       2.4498
   2019.9636       7.0000       0.0757    -999.2500      45.5832    -999.2500      73.9183      56.8906      34.6599       0.2325       2.4754
   2020.1160       7.0000       0.0695    -999.2500      42.6524    -999.2500      72.9351      44.2956      36.9844       0.2242       2.4999
   2020.2684       7.0000       0.0775    -999.2500      43.1640    -999.2500      73.4870      48.1777      36.7891       0.2098       2.5205
   2020.4208       7.0000       0.0838    -999.2500      43.4334    -999.2500      75.2527      55.2565      35.7170       0.1884       2.5409
   2020.5732       7.0000       0.0828    -999.2500      42.7008    -999.2500      82.0156      75.4291      31.0350       0.1611       2.5609
   2020.7256       7.0000       0.0808    -999.2500      42.1275    -999.2500      87.3759      91.3969      27.4048       0.1404       2.5860
   2020.8781       7.0000       0.0748    -999.2500      42.2005    -999.2500      87.0465      90.3942      28.0411       0.1350       2.6315
   2021.0304       6.9987       0.0701    -999.2500      42.4904    -999.2500      86.4556      88.7648      29.9877       0.1366       2.6675
   2021.1829       6.9922       0.0706    -999.2500      43.6468    -999.2500      84.8195      84.6423      37.1725       0.1395       2.6650
   2021.3352       6.9770       0.0711    -999.2500      46.6012    -999.2500      81.8359      78.2288      42.7379       0.1433       2.6618
   2021.4875       6.9280       0.0716    -999.2500      56.6395    -999.2500      73.5697      62.8788      41.9550       0.1481       2.6558
   2021.6400       6.8890       0.0720    -999.2500      64.6140    -999.2500      67.0030      50.6970      40.2201       0.1544       2.6510
   2021.7924       6.8890       0.0720    -999.2500      64.6140    -999.2500      67.0030      50.6970      34.8067       0.1616       2.6510
   2021.9448       6.8890       0.0727    -999.2500      61.4269    -999.2500      68.2934      53.8746      31.6451       0.1642       2.6476
   2022.0972       6.8890       0.0762    -999.2500      46.0995    -999.2500      74.4991      69.0980      37.0606       0.1593       2.6311
   2022.2496       6.8890       0.0800    -999.2500      33.9988    -999.2500      79.3542      80.8198      40.6643       0.1539       2.6158
   2022.4020       6.8890       0.0851    -999.2500      34.0168    -999.2500      79.1610      79.5163      37.4961       0.1535       2.6053
   2022.5544       6.8890       0.0890    -999.2500      34.0310    -999.2500      79.0090      78.4920      37.1453       0.1574       2.5928
   2022.7068       6.8890       0.0890    -999.2500      34.0310    -999.2500      79.0090      78.4920      47.1791       0.1640       2.5733
   2022.8593       6.8951       0.0856    -999.2500      34.2642    -999.2500      77.1622      74.0058      52.8823       0.1667       2.5622
