#------------------------------------------------------------------------------
#
#   Created by  : [OpenWorks] Log Export Utility (LEXP)
#   Created on  : 2016-05-12 17:18:19
#   Project     : CANT971
#   User        : R5K
#   Interpreter : PEP
#
#------------------------------------------------------------------------------
~VERSION INFORMATION
VERS. 2.0 : CWLS Log ASCII Standard - version 2.0
WRAP.  NO : One line per depth step
~WELL INFORMATION
#MNEMONIC   .UNIT                                           VALUE :DESCRIPTION
#------------------------------------------------------------------------------
STRT        .M                                           134.7982 :START DEPTH
STOP        .M                                          2692.2227 :STOP DEPTH
STEP        .M                                             0.1524 :STEP
NULL        .                                           -999.2500 :NULL VALUE
COMP        .                                   PEMEX EXPL & PROD :COMPANY
WELL        .                                                 57A :WELL
FLD         .                                           CANTARELL :FIELD
LOC         .                                             UNKNOWN :LOCATION
CNTY        .                                      CD. DEL CARMEN :COUNTY
STAT        .                                            CAMPECHE :STATE
CTRY        .                                              MEXICO :COUNTRY
SRVC        .                                             UNKNOWN :SERVICE COMPANY
DATE        .                                             UNKNOWN :LOG DATE
UWI         .                                          3060000169 :UNIQUE WELL ID
XCOORD      .                                       602151.210000 :SURFACE X
YCOORD      .                                      2147168.830000 :SURFACE Y
LAT         .                                           19.417362 :LATITUDE
LON         .                                          -92.027041 :LONGITUDE
ELEV        .M                                            28.1700 :SURFACE ELEV
ELEV_TYPE   .                                                  KB :ELEV TYPE
~CURVE INFORMATION
#MNEMONIC.UNIT        API CODE       : CURVE DESCRIPTION
#------------------------------------------------------------------------------
DEPTH    .M                          : Measured Depth
CALI     .inches      UNKNOWN        : CALI:UNKNOWN:r1:MAIN:v1 
DRHO     .UNKNOWN     UNKNOWN        : DRHO:UNKNOWN:r1:MAIN:v1 
DT       .us/ft       UNKNOWN        : DT:UNKNOWN:r1:MAIN:v1 
GR       .API         UNKNOWN        : GR:GR:r1:MAIN:v1 
ILD      .UNKNOWN     UNKNOWN        : ILD:UNKNOWN:r1:MAIN:v1 
LLD      .UNKNOWN     UNKNOWN        : LLD:UNKNOWN:r1:MAIN:v1 
LLS      .UNKNOWN     UNKNOWN        : LLS:UNKNOWN:r1:MAIN:v1 
MSFL     .UNKNOWN     UNKNOWN        : MSFL:UNKNOWN:r1:MAIN:v1 
NORM     .UNKNOWN     UNKNOWN        : NORM:NORM-Load:r1:MAIN:v1 
NPHI     .v/v_decimal UNKNOWN        : NPHI:UNKNOWN:r1:MAIN:v1 
RHOB     .UNKNOWN     UNKNOWN        : RHOB:UNKNOWN:r1:MAIN:v1 
SP       .mV          UNKNOWN        : SP:PETROWORKS:rC:NONE:v1 
~A     DEPTH         CALI         DRHO           DT           GR          ILD          LLD          LLS         MSFL         NORM         NPHI         RHOB           SP
# ...
   1948.9678       9.2096       0.0310      74.8841      59.4353       0.2000      14.9551      14.1171       7.8481    -999.2500       0.1914       2.5722     151.8567
   1949.1202       9.3194       0.0250      74.2722      58.6054       0.2000      14.3856      13.4167       9.1008    -999.2500       0.1970       2.5979     151.9937
   1949.2726       9.3585       0.0144      73.0919      58.3457       0.2000      14.9159      12.9481      10.3858    -999.2500       0.2035       2.6275     152.0844
   1949.4250       9.2511       0.0152      72.1111      58.2380       0.2000      14.9516      12.7153      10.3692    -999.2500       0.2117       2.6276     152.4308
   1949.5774       9.0365       0.0242      71.2762      58.2415       0.2000      14.6252      12.6551       9.3995    -999.2500       0.2213       2.6060     152.8284
   1949.7299       9.0606       0.0330      73.8571      59.0662       0.2000      12.9002      11.2492       7.9115    -999.2500       0.2271       2.5920     152.8471
   1949.8822       9.2556       0.0415      78.8825      60.4785       0.2000      10.1742       8.8800       6.0526    -999.2500       0.2302       2.5835     152.7932
   1950.0347       9.3988       0.0435      81.5062      61.4213       0.2000       9.1469       7.9033       5.6519    -999.2500       0.2298       2.5806     152.3164
   1950.1870       9.5055       0.0410      82.4443      62.0345       0.2000       9.3119       7.9038       6.2746    -999.2500       0.2268       2.5816     151.7619
   1950.3395       9.6010       0.0376      81.5707      62.4232       0.2000       9.4067       8.0120       6.2675    -999.2500       0.2226       2.5799     151.5861
   1950.4918       9.6888       0.0336      79.4543      62.6578       0.2000       9.4533       8.1940       5.8283    -999.2500       0.2175       2.5764     151.4774
   1950.6442       9.7357       0.0398      77.9572      61.7984       0.2000       9.7129       8.3348       5.7273    -999.2500       0.2158       2.5843     152.0744
   1950.7966       9.7552       0.0528      76.8751      60.2057       0.2000      10.1154       8.4481       5.8531    -999.2500       0.2164       2.5998     152.7911
   1950.9490       9.6335       0.0580      74.6047      58.2458       0.2000      10.3047       8.6110       6.9644    -999.2500       0.2153       2.6196     153.5388
   1951.1014       9.4189       0.0580      71.5532      56.0447       0.2000      10.3538       8.8065       8.7232    -999.2500       0.2132       2.6422     154.2915
   1951.2538       9.0852       0.0604      70.7209      53.8206       0.2000      10.2619       8.7636       9.0947    -999.2500       0.2138       2.6504     154.7601
   1951.4062       8.6751       0.0645      71.3135      51.5818       0.2000      10.0794       8.5676       8.5752    -999.2500       0.2161       2.6494     155.1845
   1951.5586       8.5290       0.0660      73.1469      51.0456       0.2000       9.9154       8.4446       7.7726    -999.2500       0.2182       2.6453     155.3454
   1951.7111       8.5486       0.0660      75.7586      51.5811       0.2000       9.7630       8.3674       6.7923    -999.2500       0.2202       2.6393     155.4672
   1951.8634       8.8702       0.0635      75.6563      52.7767       0.2000       9.6656       8.3383       6.6637    -999.2500       0.2234       2.6289     155.2321
   1952.0159       9.3776       0.0595      73.8854      54.3781       0.2000       9.6019       8.3388       7.0588    -999.2500       0.2273       2.6159     154.9462
   1952.1682       9.6347       0.0524      71.9612      56.3599       0.2000       9.3507       8.2012       7.4913    -999.2500       0.2316       2.5938     154.4172
   1952.3207       9.7415       0.0433      69.9449      58.5700       0.2000       8.9868       7.9807       7.9464    -999.2500       0.2361       2.5662     153.8553
   1952.4730       9.7135       0.0492      69.8501      59.9888       0.2000       8.3473       7.4347       7.3382    -999.2500       0.2388       2.5314     153.1472
   1952.6254       9.6062       0.0637      70.8860      60.9436       0.2000       7.5456       6.6971       6.1043    -999.2500       0.2406       2.4923     152.4204
   1952.7778       9.4925       0.0658      74.4247      60.9570       0.2000       6.8540       5.9844       4.7557    -999.2500       0.2435       2.4783     151.7000
   1952.9302       9.3752       0.0608      79.4015      60.4296       0.2000       6.2258       5.2860       3.3413    -999.2500       0.2470       2.4788     150.9805
   1953.0826       9.3455       0.0532      79.4883      59.7802       0.2000       6.6194       5.0539       3.1782    -999.2500       0.2514       2.4934     151.1271
   1953.2350       9.3651       0.0442      76.8320      59.0625       0.2000       7.5862       5.0835       3.7169    -999.2500       0.2563       2.5160     151.3732
   1953.3875       9.5924       0.0355      74.4293      57.5836       0.2000       8.4422       5.5050       4.6092    -999.2500       0.2565       2.5489     152.2773
   1953.5398       9.9338       0.0270      72.1661      55.6863       0.2000       9.2374       6.1417       5.6957    -999.2500       0.2542       2.5875     153.2531
   1953.6923      10.0148       0.0393      72.1465      53.5919       0.2000       9.5444       6.6430       6.4258    -999.2500       0.2502       2.6193     153.8858
   1953.8446       9.9562       0.0629      73.3303      51.3918       0.2000       9.5895       7.0717       6.9648    -999.2500       0.2453       2.6474     154.4834
   1953.9971       9.5070       0.0713      74.3523      52.1856       0.2000       9.5208       7.1338       6.6081    -999.2500       0.2430       2.6603     154.6418
   1954.1494       8.8534       0.0718      75.2895      54.5462       0.2000       9.3925       7.0040       5.7827    -999.2500       0.2420       2.6653     154.7581
   1954.3018       8.7159       0.0684      76.1613      56.8077       0.2000       9.2406       6.7992       5.2202    -999.2500       0.2468       2.6527     154.6384
   1954.4542       8.8427       0.0628      76.9996      59.0183       0.2000       9.0766       6.5560       4.7925    -999.2500       0.2547       2.6312     154.4974
   1954.6066       8.9238       0.0490      77.5759      59.6564       0.2000       8.7134       6.2527       4.2686    -999.2500       0.2582       2.6126     154.3970
   1954.7590       8.9819       0.0309      78.0211      59.5086       0.2000       8.2507       5.9193       3.6965    -999.2500       0.2596       2.5956     154.3000
   1954.9114       8.9879       0.0237      78.3998      58.4422       0.2000       8.0026       5.8457       3.7957    -999.2500       0.2628       2.5866     154.4389
   1955.0638       8.9683       0.0216      78.7462      56.9265       0.2000       7.8593       5.8988       4.2223    -999.2500       0.2669       2.5816     154.5960
   1955.2162       8.9885       0.0274      82.8606      55.4359       0.2000       7.5693       5.3678       4.0005    -999.2500       0.2763       2.5698     154.7602
   1955.3687       9.0276       0.0370      88.7725      53.9573       0.2000       7.2093       4.5580       3.4695    -999.2500       0.2882       2.5548     154.9248
   1955.5210       9.0930       0.0427      93.8767      52.2717       0.2000       6.2668       3.8234       2.6787    -999.2500       0.2988       2.5373     154.8923
   1955.6735       9.1707       0.0467      98.6055      50.4897       0.2000       5.0534       3.1238       1.7671    -999.2500       0.3088       2.5188     154.8469
   1955.8258       9.1281       0.0494      98.4602      49.3346       0.2000       4.2922       3.2382       1.7046    -999.2500       0.3231       2.4899     154.5527
   1955.9783       9.0309       0.0514      96.0976      48.4635       0.2000       3.7366       3.7231       2.0285    -999.2500       0.3394       2.4563     154.2438
   1956.1306       8.8252       0.0583      90.4935      48.2505       0.2000       5.0258       4.6828       3.0107    -999.2500       0.3303       2.4255     153.7664
