#------------------------------------------------------------------------------
#
#   Created by  : [OpenWorks] Log Export Utility (LEXP)
#   Created on  : 2016-05-12 17:01:20
#   Project     : CANT971
#   User        : R5K
#   Interpreter : PEP
#
#------------------------------------------------------------------------------
~VERSION INFORMATION
VERS. 2.0 : CWLS Log ASCII Standard - version 2.0
WRAP.  NO : One line per depth step
~WELL INFORMATION
#MNEMONIC   .UNIT                                           VALUE :DESCRIPTION
#------------------------------------------------------------------------------
STRT        .M                                           993.9530 :START DEPTH
STOP        .M                                          2371.9539 :STOP DEPTH
STEP        .M                                             0.1524 :STEP
NULL        .                                           -999.2500 :NULL VALUE
COMP        .                                   PEMEX EXPL & PROD :COMPANY
WELL        .                                                  55 :WELL
FLD         .                                           CANTARELL :FIELD
LOC         .                                             UNKNOWN :LOCATION
CNTY        .                                      CD. DEL CARMEN :COUNTY
STAT        .                                            CAMPECHE :STATE
CTRY        .                                              MEXICO :COUNTRY
SRVC        .                                             UNKNOWN :SERVICE COMPANY
DATE        .                                             UNKNOWN :LOG DATE
UWI         .                                          3060000168 :UNIQUE WELL ID
XCOORD      .                                       602149.520000 :SURFACE X
YCOORD      .                                      2147170.290000 :SURFACE Y
LAT         .                                           19.417375 :LATITUDE
LON         .                                          -92.027057 :LONGITUDE
ELEV        .M                                            28.1700 :SURFACE ELEV
ELEV_TYPE   .                                                  KB :ELEV TYPE
~CURVE INFORMATION
#MNEMONIC.UNIT        API CODE       : CURVE DESCRIPTION
#------------------------------------------------------------------------------
DEPTH    .M                          : Measured Depth
CALI     .inches      UNKNOWN        : CALI:CALI-Load:rC:NONE:v0 (auto-composite)
DRHO     .UNKNOWN     UNKNOWN        : DRHO:DRHO-Load:rC:NONE:v0 (auto-composite)
DT       .us/ft       UNKNOWN        : DT:DT:rC:NONE:v0 (auto-composite)
GR       .UNKNOWN     UNKNOWN        : GR:GR-Load:rC:NONE:v0 (auto-composite)
ILD      .UNKNOWN     UNKNOWN        : ILD:ILD-Load:rC:NONE:v0 (auto-composite)
LLD      .UNKNOWN     UNKNOWN        : LLD:LLD-Load:rC:NONE:v0 (auto-composite)
LLS      .UNKNOWN     UNKNOWN        : LLS:LLS-Load:rC:NONE:v0 (auto-composite)
MSFL     .UNKNOWN     UNKNOWN        : MSFL:MSFL-Load:rC:NONE:v0 (auto-composite)
NPHI     .v/v_decimal UNKNOWN        : NPHI:NPHI:rC:NONE:v0 (auto-composite)
RHOB     .UNKNOWN     UNKNOWN        : RHOB:RHOB-Load:rC:NONE:v0 (auto-composite)
SP       .UNKNOWN     UNKNOWN        : SP:SP-Load:rC:NONE:v0 (auto-composite)
~A     DEPTH         CALI         DRHO           DT           GR          ILD          LLD          LLS         MSFL         NPHI         RHOB           SP
# ...
   1096.9755    -999.2500       0.0020    -999.2500      48.9370       0.9720    -999.2500    -999.2500    -999.2500      42.7400       2.1400     105.7900
   1097.1278    -999.2500       0.0060    -999.2500      47.2642       0.9575    -999.2500    -999.2500    -999.2500      42.5234       2.1500     105.7900
   1097.2802    -999.2500       0.0100    -999.2500      45.5900       0.9430    -999.2500    -999.2500    -999.2500      42.3070       2.1600     105.7900
   1097.4326    -999.2500       0.0070    -999.2500      45.6310       0.9430    -999.2500    -999.2500    -999.2500      41.5968       2.1550     105.7900
   1097.5850    -999.2500       0.0040    -999.2500      45.6720       0.9430    -999.2500    -999.2500    -999.2500      40.8870       2.1500     105.7900
   1097.7374    -999.2500       0.0060    -999.2500      47.6057       0.9430    -999.2500    -999.2500    -999.2500      40.5729       2.1650     105.8060
   1097.8898    -999.2500       0.0080    -999.2500      49.5400       0.9430    -999.2500    -999.2500    -999.2500      40.2590       2.1800     105.8220
   1098.0422    -999.2500       0.0080    -999.2500      48.8149       0.9410    -999.2500    -999.2500    -999.2500      39.8794       2.1750     105.9640
   1098.1946    -999.2500       0.0080    -999.2500      48.0900       0.9390    -999.2500    -999.2500    -999.2500      39.5000       2.1700     106.1060
   1098.3470    -999.2500       0.0075    -999.2500      48.3280       0.9395    -999.2500    -999.2500    -999.2500      39.7700       2.1700     106.3995
   1098.4994    -999.2500       0.0070    -999.2500      48.5660       0.9400    -999.2500    -999.2500    -999.2500      40.0400       2.1700     106.6930
   1098.6519    -999.2500       0.0010    -999.2500      49.5556       0.9415    -999.2500    -999.2500    -999.2500      40.9871       2.1700     106.7815
   1098.8042    -999.2500      -0.0050    -999.2500      50.5450       0.9430    -999.2500    -999.2500    -999.2500      41.9340       2.1700     106.8700
   1098.9565    -999.2500      -0.0030    -999.2500      51.5475       0.9425    -999.2500    -999.2500    -999.2500      42.6420       2.1700     106.8225
   1099.1090    -999.2500      -0.0010    -999.2500      52.5500       0.9420    -999.2500    -999.2500    -999.2500      43.3500       2.1700     106.7750
   1099.2614    -999.2500      -0.0030    -999.2500      52.2240       0.9385    -999.2500    -999.2500    -999.2500      43.2635       2.1685     106.5225
   1099.4138    -999.2500      -0.0050    -999.2500      51.8980       0.9350    -999.2500    -999.2500    -999.2500      43.1770       2.1670     106.2700
   1099.5662    -999.2500      -0.0050    -999.2500      50.7766       0.9295    -999.2500    -999.2500    -999.2500      42.8110       2.1585     106.2700
   1099.7186    -999.2500      -0.0050    -999.2500      49.6550       0.9240    -999.2500    -999.2500    -999.2500      42.4450       2.1500     106.2700
   1099.8710    -999.2500      -0.0030    -999.2500      48.9226       0.9165    -999.2500    -999.2500    -999.2500      40.6529       2.1525     106.2700
   1100.0234    -999.2500      -0.0010    -999.2500      48.1900       0.9090    -999.2500    -999.2500    -999.2500      38.8600       2.1550     106.2700
   1100.1758    -999.2500       0.0035    -999.2500      48.4444       0.9095    -999.2500    -999.2500    -999.2500      39.4698       2.1640     106.2545
   1100.3282    -999.2500       0.0080    -999.2500      48.6990       0.9100    -999.2500    -999.2500    -999.2500      40.0800       2.1730     106.2390
   1100.4806    -999.2500       0.0090    -999.2500      50.5239       0.9145    -999.2500    -999.2500    -999.2500      40.0775       2.1780     106.1300
   1100.6331    -999.2500       0.0100    -999.2500      52.3500       0.9190    -999.2500    -999.2500    -999.2500      40.0750       2.1830     106.0210
   1100.7854    -999.2500       0.0125    -999.2500      52.1201       0.9315    -999.2500    -999.2500    -999.2500      38.9975       2.1880     105.7356
   1100.9377    -999.2500       0.0150    -999.2500      51.8900       0.9440    -999.2500    -999.2500    -999.2500      37.9200       2.1930     105.4500
   1101.0902    -999.2500       0.0145    -999.2500      51.9780       0.9665    -999.2500    -999.2500    -999.2500      38.0545       2.1965     104.9552
   1101.2426    -999.2500       0.0140    -999.2500      52.0660       0.9890    -999.2500    -999.2500    -999.2500      38.1890       2.2000     104.4600
   1101.3950    -999.2500       0.0105    -999.2500      52.3579       1.0195    -999.2500    -999.2500    -999.2500      39.1448       2.1950     104.4910
   1101.5474    -999.2500       0.0070    -999.2500      52.6500       1.0500    -999.2500    -999.2500    -999.2500      40.1000       2.1900     104.5220
   1101.6998    -999.2500       0.0075    -999.2500      52.6365       1.0820    -999.2500    -999.2500    -999.2500      40.0165       2.1925     104.6585
   1101.8522    -999.2500       0.0080    -999.2500      52.6230       1.1140    -999.2500    -999.2500    -999.2500      39.9330       2.1950     104.7950
   1102.0046    -999.2500       0.0075    -999.2500      52.1809       1.1355    -999.2500    -999.2500    -999.2500      39.5129       2.2025     104.9275
   1102.1570    -999.2500       0.0070    -999.2500      51.7390       1.1570    -999.2500    -999.2500    -999.2500      39.0930       2.2100     105.0600
   1102.3094    -999.2500       0.0050    -999.2500      50.4589       1.1740    -999.2500    -999.2500    -999.2500      38.1114       2.2100     105.1200
   1102.4618    -999.2500       0.0030    -999.2500      49.1790       1.1910    -999.2500    -999.2500    -999.2500      37.1300       2.2100     105.1800
   1102.6143    -999.2500       0.0035    -999.2500      48.7185       1.2045    -999.2500    -999.2500    -999.2500      37.2375       2.2125     105.1200
   1102.7666    -999.2500       0.0040    -999.2500      48.2580       1.2180    -999.2500    -999.2500    -999.2500      37.3450       2.2150     105.0600
   1102.9189    -999.2500       0.0045    -999.2500      47.5740       1.2150    -999.2500    -999.2500    -999.2500      37.7980       2.2275     105.0915
   1103.0714    -999.2500       0.0050    -999.2500      46.8900       1.2120    -999.2500    -999.2500    -999.2500      38.2510       2.2400     105.1230
   1103.2238    -999.2500       0.0060    -999.2500      46.9345       1.2010    -999.2500    -999.2500    -999.2500      39.1504       2.2385     105.2585
   1103.3762    -999.2500       0.0070    -999.2500      46.9790       1.1900    -999.2500    -999.2500    -999.2500      40.0500       2.2370     105.3940
   1103.5286    -999.2500       0.0080    -999.2500      47.3999       1.1765    -999.2500    -999.2500    -999.2500      39.3801       2.2285     105.5805
   1103.6810    -999.2500       0.0090    -999.2500      47.8210       1.1630    -999.2500    -999.2500    -999.2500      38.7100       2.2200     105.7670
   1103.8334    -999.2500       0.0070    -999.2500      48.9238       1.1450    -999.2500    -999.2500    -999.2500      38.7210       2.2200     105.9485
   1103.9858    -999.2500       0.0050    -999.2500      50.0270       1.1270    -999.2500    -999.2500    -999.2500      38.7320       2.2200     106.1300
   1104.1382    -999.2500       0.0055    -999.2500      51.1552       1.1270    -999.2500    -999.2500    -999.2500      39.0784       2.2175     106.2925
   1104.2906    -999.2500       0.0060    -999.2500      52.2840       1.1270    -999.2500    -999.2500    -999.2500      39.4250       2.2150     106.4550
   1104.4430    -999.2500       0.0075    -999.2500      53.3666       1.1255    -999.2500    -999.2500    -999.2500      40.3176       2.2060     106.5755
   1104.5955    -999.2500       0.0090    -999.2500      54.4500       1.1240    -999.2500    -999.2500    -999.2500      41.2100       2.1970     106.6960
   1104.7478    -999.2500       0.0045    -999.2500      54.2966       1.1185    -999.2500    -999.2500    -999.2500      40.6248       2.1910     106.8484
