#------------------------------------------------------------------------------
#
#   Created by  : [OpenWorks] Log Export Utility (LEXP)
#   Created on  : 2016-05-23 11:50:23
#   Project     : CANT971
#   User        : R5K
#   Interpreter : PEP
#
#------------------------------------------------------------------------------
~VERSION INFORMATION
VERS. 2.0 : CWLS Log ASCII Standard - version 2.0
WRAP.  NO : One line per depth step
~WELL INFORMATION
#MNEMONIC   .UNIT                                           VALUE :DESCRIPTION
#------------------------------------------------------------------------------
STRT        .M                                           790.6004 :START DEPTH
STOP        .M                                          2649.8804 :STOP DEPTH
STEP        .M                                             0.1524 :STEP
NULL        .                                           -999.2500 :NULL VALUE
COMP        .                                             UNKNOWN :COMPANY
WELL        .                                               1012D :WELL
FLD         .                                             UNKNOWN :FIELD
LOC         .                                             UNKNOWN :LOCATION
CNTY        .                                             UNKNOWN :COUNTY
STAT        .                                             UNKNOWN :STATE
CTRY        .                                             UNKNOWN :COUNTRY
SRVC        .                                             UNKNOWN :SERVICE COMPANY
DATE        .                                             UNKNOWN :LOG DATE
UWI         .                                               1012D :UNIQUE WELL ID
XCOORD      .                                       594334.990000 :SURFACE X
YCOORD      .                                      2152041.060000 :SURFACE Y
LAT         .                                           19.461774 :LATITUDE
LON         .                                          -92.101239 :LONGITUDE
ELEV        .M                                             0.0000 :SURFACE ELEV
ELEV_TYPE   .                                                  KB :ELEV TYPE
~CURVE INFORMATION
#MNEMONIC.UNIT        API CODE       : CURVE DESCRIPTION
#------------------------------------------------------------------------------
DEPTH    .M                          : Measured Depth
DT       .us/ft       UNKNOWN        : DT:UNKNOWN:rC:NONE:v0 (auto-composite)
GR       .API         UNKNOWN        : GR:PETROWORKS:rC:NONE:v1 
GR-LWD   .API         UNKNOWN        : GR-LWD:PETROWORKS:rC:NONE:v1 
ILD      .ohm.m       UNKNOWN        : ILD:resistivos:rC:NONE:v0 (auto-composite)
ILD-LWD  .ohm.m       UNKNOWN        : ILD-LWD:PETROWORKS:rC:NONE:v1 
ILM      .ohm.m       UNKNOWN        : ILM:resistivos:rC:NONE:v0 (auto-composite)
ILM-LWD  .ohm.m       UNKNOWN        : ILM-LWD:PETROWORKS:rC:NONE:v1 
~A     DEPTH           DT           GR       GR-LWD          ILD      ILD-LWD          ILM      ILM-LWD
# ...
   2363.0637      91.9046      28.3468      62.4463    -999.2500       1.6245    -999.2500       1.6276
   2363.2161      94.7415      29.2070      63.8063    -999.2500       1.5812    -999.2500       1.5842
   2363.3684      93.5348      29.7905      61.0313    -999.2500       1.5939    -999.2500       1.5909
   2363.5208      90.9307      29.3619      58.3847    -999.2500       1.5949    -999.2500       1.5748
   2363.6731      91.0861      29.1289      58.8721    -999.2500       1.6402    -999.2500       1.5984
   2363.8257      92.1434      28.7404      59.8963    -999.2500       1.7059    -999.2500       1.6631
   2363.9780      92.5346      29.1365      61.1653    -999.2500       1.7264    -999.2500       1.7166
   2364.1304      92.3337      29.2711      60.0092    -999.2500       1.7388    -999.2500       1.7394
   2364.2827      92.1374      29.6285      59.0099    -999.2500       1.8098    -999.2500       1.7758
   2364.4353      93.5314      28.4600      59.6146    -999.2500       1.8946    -999.2500       1.8396
   2364.5876      95.2913      29.0413      64.3700    -999.2500       1.6468    -999.2500       1.6415
   2364.7400      98.4250      33.5984      72.4205    -999.2500       1.1061    -999.2500       1.1584
   2364.8923     101.4943      39.4469      81.6188    -999.2500       1.2368    -999.2500       1.2044
   2365.0449     103.2263      41.5238      86.5074    -999.2500       0.9772    -999.2500       0.9628
   2365.1973     104.1909      38.3379      86.6134    -999.2500       0.8712    -999.2500       0.8767
   2365.3496     104.4885      34.9337      86.6880    -999.2500       0.8811    -999.2500       0.8853
   2365.5020     104.9172      33.9273      86.6880    -999.2500       0.8949    -999.2500       0.9014
   2365.6543     105.2558      34.7723      86.5653    -999.2500       0.9027    -999.2500       0.9108
   2365.8069     104.9491      36.7575      86.1159    -999.2500       0.8948    -999.2500       0.9019
   2365.9592     102.1609      37.7683      84.6335    -999.2500       0.9053    -999.2500       0.9047
   2366.1116      95.4334      40.3886      82.7219    -999.2500       0.9323    -999.2500       0.9199
   2366.2639      93.3690      39.2156      80.6466    -999.2500       0.9751    -999.2500       0.9455
   2366.4165      95.5500      36.0475      78.4644    -999.2500       1.0281    -999.2500       0.9778
   2366.5688     103.4052      33.8633      77.5208    -999.2500       1.0462    -999.2500       0.9919
   2366.7212     104.0241      30.4993      77.3845    -999.2500       1.0413    -999.2500       0.9941
   2366.8735     102.9924      30.9391      78.4840    -999.2500       1.0228    -999.2500       0.9922
   2367.0261     102.9725      28.3850      79.9762    -999.2500       1.0013    -999.2500       0.9888
   2367.1785     103.1840      33.2980      80.4509    -999.2500       1.0149    -999.2500       1.0174
   2367.3308     108.3900      35.1640      80.6075    -999.2500       1.0767    -999.2500       1.0871
   2367.4832     108.4100      38.2900      80.4575    -999.2500       1.3470    -999.2500       1.3119
   2367.6355     106.6670      39.5060      78.6573    -999.2500       1.7794    -999.2500       1.6388
   2367.7881     100.1440      37.9430      74.9420    -999.2500       2.2062    -999.2500       1.9263
   2367.9404     102.4150      36.9660      72.7570    -999.2500       2.3037    -999.2500       1.9817
   2368.0928     109.7278      35.6728      72.5252    -999.2500       1.9809    -999.2500       1.7406
   2368.2451     111.3600      39.1580      73.8025    -999.2500       1.0786    -999.2500       1.0486
   2368.3977     112.8020      38.1820      79.9376    -999.2500       0.8834    -999.2500       0.8643
   2368.5500     108.6710      37.5950      81.5465    -999.2500       0.9356    -999.2500       0.9082
   2368.7024     119.7330      35.7500      79.9098    -999.2500       0.9324    -999.2500       0.9046
   2368.8547     129.8360      38.4850      78.3378    -999.2500       1.0030    -999.2500       0.9447
   2369.0073     135.4900      46.3430      76.1744    -999.2500       1.1069    -999.2500       1.0194
   2369.1597     142.0816      48.2483      79.7306    -999.2500       0.7927    -999.2500       0.7892
   2369.3120     147.7377      47.5100      81.5986    -999.2500       0.7456    -999.2500       0.7490
   2369.4644     153.3923      39.9009      81.3781    -999.2500       0.7903    -999.2500       0.7675
   2369.6167     159.0407      38.5550      87.3979    -999.2500       0.6960    -999.2500       0.6718
   2369.7693     164.6959      36.6244      90.2424    -999.2500       0.6239    -999.2500       0.6068
   2369.9216     169.3150      36.6237      89.4427    -999.2500       0.5660    -999.2500       0.5579
   2370.0740     168.7740      34.4894      89.2195    -999.2500       0.5509    -999.2500       0.5406
   2370.2263     167.1039      32.5768      89.8965    -999.2500       0.6721    -999.2500       0.6377
   2370.3789     160.2674      31.3570      89.5245    -999.2500       0.7429    -999.2500       0.7082
   2370.5312     153.4309      31.9582      87.3151    -999.2500       0.6515    -999.2500       0.6551
   2370.6836     146.5944      32.3555      79.1000    -999.2500       1.2390    -999.2500       1.1362
   2370.8359     139.7597      31.7639      71.3911    -999.2500       1.9928    -999.2500       1.7399
   2370.9883     131.7928      30.2356      64.7069    -999.2500       1.6065    -999.2500       1.5393
   2371.1409     124.9563      27.2579      68.3287    -999.2500       0.9860    -999.2500       1.0732
   2371.2932     118.1198      23.1903      75.5223    -999.2500       0.8657    -999.2500       0.9707
   2371.4456     112.4245      19.7675      76.3347    -999.2500       1.3674    -999.2500       1.3851
   2371.5979     104.4574      18.5286      69.5992    -999.2500       3.6423    -999.2500       3.3069
   2371.7505      97.6202      18.5420      53.4514    -999.2500       3.9950    -999.2500       3.6753
   2371.9028      90.7837      17.8663      45.1177    -999.2500       4.0333    -999.2500       4.3280
   2372.0552      84.5196      18.4331      40.5629    -999.2500       4.3061    -999.2500       4.9163
   2372.2075      77.1216      20.6924      37.9983    -999.2500       4.7812    -999.2500       5.0359
   2372.3601      73.3622      22.2646      33.6566    -999.2500       5.0333    -999.2500       5.3443
   2372.5125      77.9983      21.0386      32.0658    -999.2500       4.4431    -999.2500       4.5620
   2372.6648      86.0769      18.1170      32.5040    -999.2500       3.5048    -999.2500       3.4511
   2372.8171      93.3442      17.3326      34.4434    -999.2500       2.8806    -999.2500       2.9946
   2372.9695     100.5103      17.8955      38.1995    -999.2500       2.3350    -999.2500       2.5161
   2373.1221     106.4312      18.1471      42.0483    -999.2500       3.0197    -999.2500       2.9966
   2373.2744     109.8380      19.0031      40.4104    -999.2500       3.6990    -999.2500       3.5277
   2373.4268     111.0035      21.4439      37.7172    -999.2500       3.6663    -999.2500       3.5870
   2373.5791     110.5557      26.9298      35.4660    -999.2500       3.5233    -999.2500       3.6087
   2373.7317     110.8103      30.0850      38.9034    -999.2500       3.1421    -999.2500       3.5134
   2373.8840     110.7102      32.0366      48.0134    -999.2500       2.5813    -999.2500       2.7818
   2374.0364     110.6367      33.9920      58.8234    -999.2500       1.6605    -999.2500       1.6339
   2374.1887     110.7202      35.9078      65.9763    -999.2500       1.1539    -999.2500       1.1261
   2374.3413     110.7493      37.0540      73.4928    -999.2500       0.7888    -999.2500       0.7815
   2374.4937     110.7636      35.8810      76.2008    -999.2500       0.7616    -999.2500       0.7634
   2374.6460     111.9257      33.9711      75.7651    -999.2500       0.7346    -999.2500       0.7300
