#------------------------------------------------------------------------------
#
#   Created by  : [OpenWorks] Log Export Utility (LEXP)
#   Created on  : 2016-05-12 17:01:19
#   Project     : CANT971
#   User        : R5K
#   Interpreter : PEP
#
#------------------------------------------------------------------------------
~VERSION INFORMATION
VERS. 2.0 : CWLS Log ASCII Standard - version 2.0
WRAP.  NO : One line per depth step
~WELL INFORMATION
#MNEMONIC   .UNIT                                           VALUE :DESCRIPTION
#------------------------------------------------------------------------------
STRT        .M                                           300.0760 :START DEPTH
STOP        .M                                          2081.9368 :STOP DEPTH
STEP        .M                                             0.1524 :STEP
NULL        .                                           -999.2500 :NULL VALUE
COMP        .                                   PEMEX EXPL & PROD :COMPANY
WELL        .                                                  37 :WELL
FLD         .                                           CANTARELL :FIELD
LOC         .                                             UNKNOWN :LOCATION
CNTY        .                                      CD. DEL CARMEN :COUNTY
STAT        .                                            CAMPECHE :STATE
CTRY        .                                              MEXICO :COUNTRY
SRVC        .                                             UNKNOWN :SERVICE COMPANY
DATE        .                                             UNKNOWN :LOG DATE
UWI         .                                          3060000160 :UNIQUE WELL ID
XCOORD      .                                       602154.560000 :SURFACE X
YCOORD      .                                      2147169.070000 :SURFACE Y
LAT         .                                           19.417364 :LATITUDE
LON         .                                          -92.027009 :LONGITUDE
ELEV        .M                                            28.1700 :SURFACE ELEV
ELEV_TYPE   .                                                  KB :ELEV TYPE
~CURVE INFORMATION
#MNEMONIC.UNIT        API CODE       : CURVE DESCRIPTION
#------------------------------------------------------------------------------
DEPTH    .M                          : Measured Depth
CALI     .inches      UNKNOWN        : CALI:Import:rC:NONE:v0 (auto-composite)
DRHO     .g/cm3       UNKNOWN        : DRHO:Import:rC:NONE:v0 (auto-composite)
DT       .us/ft       UNKNOWN        : DT:Import:rC:NONE:v0 (auto-composite)
GR       .API         UNKNOWN        : GR:Import:rC:NONE:v0 (auto-composite)
ILD      .ohm.m       UNKNOWN        : ILD:Import:rC:NONE:v0 (auto-composite)
NPHI     .v/v_decimal UNKNOWN        : NPHI:Import:rC:NONE:v0 (auto-composite)
RHOB     .g/cm3       UNKNOWN        : RHOB:Import:rC:NONE:v0 (auto-composite)
~A     DEPTH         CALI         DRHO           DT           GR          ILD         NPHI         RHOB
# ...
   1954.6827       6.2430       0.0080      73.6316      43.2847      24.9617      19.4012       2.4455
   1954.8352       6.2430       0.0060      69.0890      44.9880      24.5030      19.6810       2.4580
   1954.9875       6.2430       0.0035      69.9828      47.5867      27.1192      19.5994       2.4820
   1955.1400       6.2430       0.0010      70.8740      50.1820      29.7320      19.5180       2.5060
   1955.2924       6.2685       0.0030      74.0735      52.1287      35.1813      18.2883       2.5000
   1955.4448       6.2940       0.0050      77.2640      54.0730      40.6240      17.0600       2.4940
   1955.5972       6.2685      -0.0015      76.6497      54.3768      40.2518      16.7302       2.4740
   1955.7496       6.2430      -0.0080      76.0370      54.6800      39.8800      16.4010       2.4540
   1955.9020       6.2685      -0.0110      77.9119      58.4293      38.4673      17.2821       2.4720
   1956.0544       6.2940      -0.0140      79.7820      62.1690      37.0560      18.1610       2.4900
   1956.2068       6.2940      -0.0110      78.3723      56.9151      40.5935      18.1004       2.4860
   1956.3591       6.2940      -0.0080      76.9660      51.6740      44.1280      18.0400       2.4820
   1956.5116       6.2685      -0.0035      74.0667      52.9750      38.4925      17.5394       2.4670
   1956.6639       6.2430       0.0010      71.1740      54.2730      32.8610      17.0400       2.4520
   1956.8164       6.2430      -0.0060      72.5590      53.0682      26.0688      15.8392       2.4690
   1956.9688       6.2430      -0.0130      73.9410      51.8660      19.2860      14.6410       2.4860
   1957.1212       6.2430      -0.0030      75.9846      49.0186      17.8921      14.7031       2.5120
   1957.2736       6.2430       0.0070      78.0240      46.1770      16.5010      14.7650       2.5380
   1957.4260       6.2430       0.0020      78.8128      47.8876      15.4370      17.7389       2.5185
   1957.5784       6.2430      -0.0030      79.6000      49.5950      14.3750      20.7070       2.4990
   1957.7308       6.2685       0.0015      79.5515      55.5874      13.5658      21.8655       2.4860
   1957.8832       6.2940       0.0060      79.5030      61.5690      12.7580      23.0220       2.4730
   1958.0356       6.2685       0.0100      80.6625      60.8174      13.3125      22.3715       2.4560
   1958.1880       6.2430       0.0140      81.8200      60.0670      13.8660      21.7220       2.4390
   1958.3403       6.2430       0.0045      79.8477      58.0635      17.0440      22.1323       2.4791
   1958.4928       6.2430      -0.0050      77.8800      56.0630      20.2170      22.5420       2.5190
   1958.6451       6.4238      -0.0080      75.5670      54.1662      26.2548      21.8280       2.4900
   1958.7976       6.6040      -0.0110      73.2610      52.2720      32.2840      21.1150       2.4610
   1958.9500       6.3712      -0.0025      71.7323      49.6698      32.4366      19.2643       2.4966
   1959.1024       6.1390       0.0060      70.2080      47.0710      32.5890      17.4160       2.5320
   1959.2548       6.1390       0.0120      67.0822      41.2231      39.2214      14.8835       2.5665
   1959.4072       6.1390       0.0180      63.9650      35.3820      45.8460      12.3540       2.6010
   1959.5596       6.1390       0.0175      62.8095      35.8825      72.9481      10.1455       2.6260
   1959.7120       6.1390       0.0170      61.6570      36.3820     100.0220       7.9410       2.6510
   1959.8644       6.1390       0.0075      61.1914      37.5830     145.1822       8.0637       2.6375
   1960.0168       6.1390      -0.0020      60.7270      38.7810     190.3010       8.1860       2.6240
   1960.1692       6.1395      -0.0105      62.5051      38.6769     135.9375      10.4602       2.5814
   1960.3215       6.1400      -0.0190      64.2790      38.5730      81.6170      12.7290       2.5390
   1960.4740       6.1916      -0.0185      65.4864      35.8749      61.8594      13.9269       2.5390
   1960.6263       6.2430      -0.0180      66.6910      33.1830      42.1150      15.1220       2.5390
   1960.7788       6.1909      -0.0120      68.0990      33.9914      33.8800      15.5620       2.4704
   1960.9312       6.1390      -0.0060      69.5040      34.7980      25.6560      16.0010       2.4020
   1961.0836       6.1911      -0.0135      70.8323      38.9422      26.1365      15.8799       2.4691
   1961.2360       6.2430      -0.0210      72.1580      43.0780      26.6160      15.7590       2.5360
   1961.3884       6.2430      -0.0200      71.2466      41.0276      24.6892      14.2586       2.5525
   1961.5408       6.2430      -0.0190      70.3370      38.9810      22.7660      12.7610       2.5690
   1961.6932       6.2430      -0.0060      69.8476      46.1483      23.4161      12.7615       2.5645
   1961.8456       6.2430       0.0070      69.3590      53.3030      24.0650      12.7620       2.5600
   1961.9980       6.1909       0.0040      69.3590      64.9420      28.6347      12.9316       2.5575
   1962.1504       6.1390       0.0010      69.3590      76.5620      33.1970      13.1010       2.5550
   1962.3027       6.1390      -0.0010      68.3248      76.4054      36.1823      12.3775       2.5615
   1962.4552       6.1390      -0.0030      67.2930      76.2490      39.1630      11.6550       2.5680
   1962.6075       6.1911       0.0025      65.5940      67.0416      41.4476       9.5165       2.5985
   1962.7600       6.2430       0.0080      63.9000      57.8470      43.7290       7.3810       2.6290
   1962.9124       6.2430       0.0025      62.9181      52.2580      44.5455       7.7027       2.6225
   1963.0648       6.2430      -0.0030      61.9390      46.6760      45.3610       8.0240       2.6160
   1963.2172       6.1909      -0.0145      63.1517      45.4263      37.5210       9.6874       2.5800
   1963.3696       6.1390      -0.0260      64.3610      44.1780      29.6900      11.3490       2.5440
   1963.5220       6.1390      -0.0180      66.9999      45.0828      22.8685      14.3777       2.5235
   1963.6744       6.1390      -0.0100      69.6320      45.9860      16.0540      17.4010       2.5030
   1963.8268       6.1395      -0.0060      73.4773      48.8335      16.1280      18.6460       2.4800
   1963.9792       6.1400      -0.0020      77.3130      51.6740      16.2020      19.8880       2.4570
   1964.1316       6.1916      -0.0075      79.3049      51.8747      15.4192      20.9462       2.4610
   1964.2839       6.2430      -0.0130      81.2920      52.0750      14.6370      22.0020       2.4650
   1964.4364       6.2430      -0.0085      78.5104      53.1752      12.6251      20.8402       2.5271
   1964.5887       6.2430      -0.0040      75.7350      54.2730      10.6160      19.6810       2.5890
   1964.7412       6.2430       0.0085      78.4228      48.5199      10.7652      21.3733       2.5775
   1964.8936       6.2430       0.0210      81.1050      42.7790      10.9140      23.0620       2.5660
   1965.0460       6.2685       0.0140      81.0780      48.8420      11.1703      19.8483       2.5550
   1965.1984       6.2940       0.0070      81.0510      54.8930      11.4260      16.6410       2.5440
   1965.3508       6.2685       0.0100      77.1409      62.1357      11.1688      15.9103       2.5530
   1965.5032       6.2430       0.0130      73.2380      69.3650      10.9120      15.1810       2.5620
   1965.6556       6.2430       0.0070      74.5496      62.9129      10.7153      15.3737       2.5580
   1965.8080       6.2430       0.0010      75.8590      56.4720      10.5190      15.5660       2.5540
   1965.9604       6.2430       0.0035      81.9879      57.3752      10.6661      18.2316       2.5124
   1966.1128       6.2430       0.0060      88.1070      58.2770      10.8130      20.8930       2.4710
   1966.2651       6.2430       0.0125      87.8338      65.8256      10.7134      23.5995       2.4299
