#------------------------------------------------------------------------------
#
#   Created by  : [OpenWorks] Log Export Utility (LEXP)
#   Created on  : 2016-05-23 11:55:55
#   Project     : CANT971
#   User        : R5K
#   Interpreter : PEP
#
#------------------------------------------------------------------------------
~VERSION INFORMATION
VERS. 2.0 : CWLS Log ASCII Standard - version 2.0
WRAP.  NO : One line per depth step
~WELL INFORMATION
#MNEMONIC   .UNIT                                           VALUE :DESCRIPTION
#------------------------------------------------------------------------------
STRT        .M                                          1803.5016 :START DEPTH
STOP        .M                                          3154.9849 :STOP DEPTH
STEP        .M                                             0.1524 :STEP
NULL        .                                           -999.2500 :NULL VALUE
COMP        .                                             UNKNOWN :COMPANY
WELL        .                                             418D-ST :WELL
FLD         .                                             UNKNOWN :FIELD
LOC         .                                             UNKNOWN :LOCATION
CNTY        .                                             UNKNOWN :COUNTY
STAT        .                                             UNKNOWN :STATE
CTRY        .                                             UNKNOWN :COUNTRY
SRVC        .                                             UNKNOWN :SERVICE COMPANY
DATE        .                                             UNKNOWN :LOG DATE
UWI         .                                             418D-ST :UNIQUE WELL ID
XCOORD      .                                       597130.010000 :SURFACE X
YCOORD      .                                      2144879.410000 :SURFACE Y
LAT         .                                           19.396924 :LATITUDE
LON         .                                          -92.074978 :LONGITUDE
ELEV        .M                                             0.0000 :SURFACE ELEV
ELEV_TYPE   .                                                  NA :ELEV TYPE
~CURVE INFORMATION
#MNEMONIC.UNIT        API CODE       : CURVE DESCRIPTION
#------------------------------------------------------------------------------
DEPTH    .M                          : Measured Depth
CALI     .inches      UNKNOWN        : CALI:PETROWORKS:rC:NONE:v1 
CGR      .API         UNKNOWN        : CGR:PETROWORKS:rC:NONE:v1 
DRHO     .g/cm3       UNKNOWN        : DRHO:PETROWORKS:rC:NONE:v1 
DT       .us/ft       UNKNOWN        : DT:PETROWORKS:rC:NONE:v1 
GR       .API         UNKNOWN        : GR:PETROWORKS:rC:NONE:v3 
ILD      .ohm.m       UNKNOWN        : ILD:registros:rC:NONE:v0 (auto-composite)
ILM      .ohm.m       UNKNOWN        : ILM:registros:rC:NONE:v0 (auto-composite)
LLD      .ohm.m       UNKNOWN        : LLD:PETROWORKS:rC:NONE:v2 
LLS      .ohm.m       UNKNOWN        : LLS:PETROWORKS:rC:NONE:v2 
MSFL     .ohm.m       UNKNOWN        : MSFL:PETROWORKS:rC:NONE:v1 
NPHI     .v/v_decimal UNKNOWN        : NPHI:PETROWORKS:rC:NONE:v1 
PEF      .b/elec      UNKNOWN        : PEF:PETROWORKS:rC:NONE:v1 
POTA     .wtpercent   UNKNOWN        : POTA:PETROWORKS:rC:NONE:v1 
RHOB     .g/cm3       UNKNOWN        : RHOB:PETROWORKS:rC:NONE:v1 
THOR     .ppm         UNKNOWN        : THOR:PETROWORKS:rC:NONE:v1 
URAN     .ppm         UNKNOWN        : URAN:PETROWORKS:rC:NONE:v1 
~A     DEPTH         CALI          CGR         DRHO           DT           GR          ILD          ILM          LLD          LLS         MSFL         NPHI          PEF         POTA         RHOB         THOR         URAN
# ...
   1938.8328      19.5156      10.8907       0.0103    -999.2500      39.5126    -999.2500    -999.2500     232.9058      15.5997     295.0000       0.0607       4.0938       0.0044       2.7352       1.2375       3.9016
   1938.9852      19.4844       7.5226      -0.0016    -999.2500      35.3262    -999.2500    -999.2500     179.3926      21.7997     394.0000       0.0614       3.9492       0.0022       2.7313       1.2111       3.7901
   1939.1376      18.0781       8.1991      -0.0156    -999.2500      37.0139    -999.2500    -999.2500     231.6860      21.3707      44.1250       0.0631       3.9648       0.0023       2.7100       1.3884       3.9279
   1939.2900      18.0781       6.6121      -0.0184    -999.2500      34.9396    -999.2500    -999.2500     260.6906      21.9034      52.2813       0.0423       3.7715       0.0018       2.7150       1.1357       3.8615
   1939.4424      18.0781       5.2062      -0.0168    -999.2500      32.8262    -999.2500    -999.2500     299.2584      23.2112     142.7500       0.0237       3.7090       0.0016       2.7052       0.8065       3.7650
   1939.5947      18.2344       6.3313      -0.0162    -999.2500      35.1693    -999.2500    -999.2500     491.8579      25.1234     158.7500       0.0185       3.6582       0.0020       2.7068       0.9828       3.9311
   1939.7472      18.3750       6.8513      -0.0107    -999.2500      36.6707    -999.2500    -999.2500     403.1270      24.9376     257.7500       0.0229       3.6836       0.0019       2.7168       1.1512       4.0649
   1939.8995      18.4375       8.2520      -0.0041    -999.2500      39.3401    -999.2500    -999.2500     335.0314      24.8385     152.5000       0.0267       3.7129       0.0022       2.7407       1.4482       4.2378
   1940.0520      18.1094       9.3005       0.0004    -999.2500      41.7738    -999.2500    -999.2500     276.8749      24.5993      85.8750       0.0194       3.7520       0.0024       2.7637       1.6747       4.4266
   1940.2043      18.1406       9.2018      -0.0009    -999.2500      42.3258    -999.2500    -999.2500     259.2885      23.1512      55.1875       0.0153       3.7070       0.0023       2.7812       1.6655       4.5153
   1940.3568      19.4219       9.3778       0.0019    -999.2500      42.9850    -999.2500    -999.2500     288.0636      23.4293     102.5000       0.0111       3.8301       0.0024       2.7948       1.6611       4.5812
   1940.5092      18.7969       8.7773      -0.0016    -999.2500      42.5818    -999.2500    -999.2500     317.9910      23.5203      92.1250       0.0136       3.7012       0.0022       2.7930       1.5833       4.6081
   1940.6616      17.8906       8.3614      -0.0047    -999.2500      41.9050    -999.2500    -999.2500     441.6401      25.4904      92.2500       0.0160       3.7031       0.0019       2.7842       1.6158       4.5725
   1940.8140      17.9063       9.2688      -0.0043    -999.2500      42.9579    -999.2500    -999.2500     342.0803      27.2077     458.5000       0.0167       3.7344       0.0020       2.7859       1.8060       4.5924
   1940.9664      17.9844       4.4758      -0.0009    -999.2500      34.3332    -999.2500    -999.2500     490.7869      28.5730      47.4688       0.0217       3.8125       0.0019       2.7914       0.4511       4.0700
   1941.1188      18.1719       2.4691      -0.0029    -999.2500      31.2299    -999.2500    -999.2500     475.0116      28.7505      90.5625       0.0297       3.7344       0.0011       2.7812       0.2174       3.9205
   1941.2712      18.0156       2.6123      -0.0013    -999.2500      32.0723    -999.2500    -999.2500     454.6913      28.6829     133.3750       0.0391       3.5254       0.0011       2.7607       0.2862       4.0159
   1941.4236      17.8906       7.5217      -0.0018    -999.2500      38.3917    -999.2500    -999.2500     415.1975      28.2374     154.7500       0.0432       3.5605       0.0027       2.7200       0.9897       4.2081
   1941.5759      17.8438       5.0335      -0.0040    -999.2500      33.8573    -999.2500    -999.2500     191.3443      21.6752      68.5625       0.0321       3.7129       0.0019       2.6948       0.6513       3.9291
   1941.7284      17.8438       5.6498      -0.0069    -999.2500      34.5939    -999.2500    -999.2500     363.0759      20.1184      70.5000       0.0256       3.8086       0.0022       2.6689       0.6792       3.9455
   1941.8807      17.6250       4.1467       0.0198    -999.2500      32.5995    -999.2500    -999.2500     286.8141      21.0255      42.8438       0.0517       3.8047       0.0016       2.6104       0.5036       3.8786
   1942.0332      17.6406       2.1170       0.0780    -999.2500      28.5939    -999.2500    -999.2500     216.0359      20.7750      69.8750       0.1065       3.5898       0.0015       2.5508      -0.0569       3.6092
   1942.1855      18.1719       3.4842       0.0646    -999.2500      30.8731    -999.2500    -999.2500     237.6537      20.0138       5.0430       0.1180       3.4375       0.0020       2.5178       0.1414       3.7335
   1942.3380      18.1719       4.8346       0.0779    -999.2500      32.7362    -999.2500    -999.2500     229.3380      21.7264       2.9531       0.0863       3.3535       0.0026       2.6070       0.2726       3.8034
   1942.4904      17.7188      11.9198       0.1195    -999.2500      44.9153    -999.2500    -999.2500     210.4314      12.5292      18.3750       0.0362       3.5625       0.0041       2.8208       1.6728       4.4978
   1942.6428      17.7813      11.2749       0.0705    -999.2500      43.6791    -999.2500    -999.2500     304.0251      18.8356      82.1875       0.0256       3.6797       0.0039       2.8519       1.5787       4.4172
   1942.7952      17.8906      10.2124      -0.0062    -999.2500      41.8724    -999.2500    -999.2500     284.7914      19.8150     201.1250       0.0316       3.5566       0.0036       2.7826       1.3943       4.3158
   1942.9476      17.8906       8.4369      -0.0092    -999.2500      37.5392    -999.2500    -999.2500     232.1902      19.9855     151.3750       0.0452       3.3672       0.0039       2.7340       0.7427       3.9671
   1943.1000      17.8906       7.2879      -0.0049    -999.2500      35.5521    -999.2500    -999.2500     159.3126      17.1995      98.3125       0.0493       3.3184       0.0036       2.7127       0.5598       3.8529
   1943.2524      17.7031       8.6092      -0.0007    -999.2500      37.4701    -999.2500    -999.2500     161.6535      13.8551      39.1250       0.0484       3.3926       0.0038       2.7106       0.8265       3.9342
   1943.4048      18.0781       4.9905       0.0047    -999.2500      32.1706    -999.2500    -999.2500     164.5930      15.3601      50.1250       0.0455       3.5762       0.0026       2.7174       0.3076       3.7051
   1943.5571      19.1406       7.1102       0.0082    -999.2500      35.3095    -999.2500    -999.2500     138.6142      13.1914      46.6250       0.0466       3.5898       0.0034       2.7119       0.5921       3.8440
   1943.7096      18.6719       6.5687       0.0063    -999.2500      34.6549    -999.2500    -999.2500     156.2422      13.9860      47.3750       0.0444       3.6445       0.0029       2.6966       0.6348       3.8286
   1943.8619      18.2656       7.3789       0.0042    -999.2500      35.7402    -999.2500    -999.2500     150.8258      13.4289      35.7188       0.0340       3.6074       0.0032       2.7190       0.7381       3.8661
   1944.0144      18.4844       7.7187       0.0058    -999.2500      36.1649    -999.2500    -999.2500     150.5974      13.2525      48.5313       0.0320       3.6875       0.0033       2.7419       0.8227       3.8777
   1944.1667      18.5000       6.1783       0.0060    -999.2500      33.7219    -999.2500    -999.2500     149.3444      11.7643      61.3750       0.0465       3.6758       0.0025       2.7529       0.7247       3.7546
   1944.3192      18.2500       7.6244      -0.0036    -999.2500      36.1660    -999.2500    -999.2500     118.1324      10.0792      59.1563       0.0556       3.7266       0.0027       2.7060       1.0235       3.8907
