#------------------------------------------------------------------------------
#
#   Created by  : [OpenWorks] Log Export Utility (LEXP)
#   Created on  : 2016-05-23 11:51:57
#   Project     : CANT971
#   User        : R5K
#   Interpreter : PEP
#
#------------------------------------------------------------------------------
~VERSION INFORMATION
VERS. 2.0 : CWLS Log ASCII Standard - version 2.0
WRAP. YES : Mulitple lines per depth step
~WELL INFORMATION
#MNEMONIC   .UNIT                                           VALUE :DESCRIPTION
#------------------------------------------------------------------------------
STRT        .M                                           782.8787 :START DEPTH
STOP        .M                                          2966.0088 :STOP DEPTH
STEP        .M                                             0.1524 :STEP
NULL        .                                           -999.2500 :NULL VALUE
COMP        .                                   PEMEX EXPL & PROD :COMPANY
WELL        .                                                 178 :WELL
FLD         .                                           CANTARELL :FIELD
LOC         .                                             UNKNOWN :LOCATION
CNTY        .                                      CD. DEL CARMEN :COUNTY
STAT        .                                            CAMPECHE :STATE
CTRY        .                                              MEXICO :COUNTRY
SRVC        .                                             UNKNOWN :SERVICE COMPANY
DATE        .                                             UNKNOWN :LOG DATE
UWI         .                                          3060000702 :UNIQUE WELL ID
XCOORD      .                                       602144.590000 :SURFACE X
YCOORD      .                                      2147185.340000 :SURFACE Y
LAT         .                                           19.417512 :LATITUDE
LON         .                                          -92.027103 :LONGITUDE
ELEV        .M                                            28.1700 :SURFACE ELEV
ELEV_TYPE   .                                                  KB :ELEV TYPE
~CURVE INFORMATION
#MNEMONIC.UNIT        API CODE       : CURVE DESCRIPTION
#------------------------------------------------------------------------------
DEPTH    .M                          : Measured Depth
CALI     .inches      UNKNOWN        : CALI:registros:rC:NONE:v0 (auto-composite)
CGR      .API         UNKNOWN        : CGR:registros:rC:NONE:v0 (auto-composite)
DRHO     .g/cm3       UNKNOWN        : DRHO:registros:rC:NONE:v0 (auto-composite)
DT       .UNKNOWN     UNKNOWN        : DT:registros:rC:NONE:v0 (auto-composite)
GR       .API         UNKNOWN        : GR:registros:rC:NONE:v0 (auto-composite)
GR-LWD   .UNKNOWN     UNKNOWN        : GR-LWD:registros:rC:NONE:v0 (auto-composite)
ILD      .ohm.m       UNKNOWN        : ILD:registros:rC:NONE:v0 (auto-composite)
ILM      .ohm.m       UNKNOWN        : ILM:registros:rC:NONE:v0 (auto-composite)
LLD      .ohm.m       UNKNOWN        : LLD:registros:rC:NONE:v0 (auto-composite)
LLD-LWD  .UNKNOWN     UNKNOWN        : LLD-LWD:registros:rC:NONE:v0 (auto-composite)
LLS      .ohm.m       UNKNOWN        : LLS:registros:rC:NONE:v0 (auto-composite)
LLS-LWD  .UNKNOWN     UNKNOWN        : LLS-LWD:registros:rC:NONE:v0 (auto-composite)
MSFL     .ohm.m       UNKNOWN        : MSFL:registros:rC:NONE:v0 (auto-composite)
MSFL-LWD .UNKNOWN     UNKNOWN        : MSFL-LWD:registros:rC:NONE:v0 (auto-composite)
NPHI     .v/v_decimal UNKNOWN        : NPHI:registros:rC:NONE:v0 (auto-composite)
PEF      .b/elec      UNKNOWN        : PEF:registros:rC:NONE:v0 (auto-composite)
POTA     .wtpercent   UNKNOWN        : POTA:registros:rC:NONE:v0 (auto-composite)
RHOB     .g/cm3       UNKNOWN        : RHOB:registros:rC:NONE:v0 (auto-composite)
THOR     .ppm         UNKNOWN        : THOR:registros:rC:NONE:v0 (auto-composite)
URAN     .ppm         UNKNOWN        : URAN:registros:rC:NONE:v0 (auto-composite)
~A
# ...
   2453.4875
       8.2787      47.6781       0.0069      75.3021      86.1750    -999.2500
    -999.2500    -999.2500      88.0963    -999.2500     119.8270    -999.2500
      53.2428    -999.2500       0.1059       4.0154       0.0190       2.5618
       5.1007       5.2966
   2453.6399
       8.2870      52.1354       0.0116      75.0876      91.0102    -999.2500
    -999.2500    -999.2500      50.3951    -999.2500      71.9105    -999.2500
      50.1153    -999.2500       0.1099       4.0563       0.0209       2.5650
       5.3871       5.0521
   2453.7922
       8.2865      55.6427       0.0071      75.6505      96.5494    -999.2500
    -999.2500    -999.2500      39.5907    -999.2500      56.9042    -999.2500
      42.3575    -999.2500       0.1142       3.5558       0.0223       2.5650
       5.6649       5.2546
   2453.9448
       8.2860      59.0551       0.0044      76.2353     102.0383    -999.2500
    -999.2500    -999.2500      29.3230    -999.2500      42.5818    -999.2500
      35.0729    -999.2500       0.1196       3.1010       0.0233       2.5642
       5.9054       5.4670
   2454.0972
       8.2855      61.1278       0.0219      77.0866     106.7213    -999.2500
    -999.2500    -999.2500      25.8051    -999.2500      36.9276    -999.2500
      33.2509    -999.2500       0.1328       3.1885       0.0239       2.5542
       5.6989       5.7784
   2454.2495
       8.2850      62.5685       0.0384      77.9570     110.6417    -999.2500
    -999.2500    -999.2500      23.8023    -999.2500      33.1435    -999.2500
      31.6310    -999.2500       0.1466       3.2767       0.0238       2.5446
       5.4654       6.0745
   2454.4019
       8.2845      56.7134       0.0434      79.0817     105.1969    -999.2500
    -999.2500    -999.2500      39.5366    -999.2500      51.3016    -999.2500
      32.2854    -999.2500       0.1612       3.3720       0.0227       2.5401
       4.9392       6.1796
   2454.5544
       8.2840      51.2451       0.0469      80.1684      99.9678    -999.2500
    -999.2500    -999.2500      63.8287    -999.2500      79.2784    -999.2500
      33.0374    -999.2500       0.1817       3.4532       0.0216       2.5332
       4.4572       6.2558
   2454.7068
       8.2835      50.6592       0.0334      80.8859      97.4182    -999.2500
    -999.2500    -999.2500     185.6194    -999.2500     219.1120    -999.2500
      34.9288    -999.2500       0.2388       3.3688       0.0211       2.4982
       4.5226       5.9908
   2454.8591
       8.2830      50.3496       0.0209      81.5889      94.7705    -999.2500
    -999.2500    -999.2500     310.4836    -999.2500     362.5735    -999.2500
      36.7861    -999.2500       0.3097       3.3021       0.0211       2.4656
       4.6339       5.6866
   2455.0115
       8.2825      53.2175       0.0199      82.1564      90.9087    -999.2500
    -999.2500    -999.2500     463.2917    -999.2500     539.2474    -999.2500
      38.2724    -999.2500       0.4522       3.4398       0.0217       2.4601
       5.2647       4.9512
   2455.1638
       8.2820      56.0381       0.0187      82.6875      87.4344    -999.2500
    -999.2500    -999.2500     608.3340    -999.2500     706.8137    -999.2500
      39.7883    -999.2500       0.5826       3.5691       0.0225       2.4558
       5.8623       4.2521
   2455.3164
       8.2815      58.0923       0.0147      82.8308      88.6451    -999.2500
    -999.2500    -999.2500     652.1475    -999.2500     755.8557    -999.2500
      41.6815    -999.2500       0.6100       3.5951       0.0232       2.4658
       6.0290       4.0281
   2455.4688
       8.2810      60.0518       0.0111      82.9285      90.0346    -999.2500
    -999.2500    -999.2500     683.3580    -999.2500     791.6557    -999.2500
      43.3119    -999.2500       0.6268       3.6150       0.0238       2.4748
       6.1302       3.8453
   2455.6211
       8.2815      60.8067       0.0121      82.5132      93.4612    -999.2500
    -999.2500    -999.2500     568.1766    -999.2500     673.4557    -999.2500
      41.9593    -999.2500       0.6201       3.5657       0.0241       2.4723
       5.4756       4.1462
   2455.7734
       8.2818      61.0438       0.0118      82.0683      96.2510    -999.2500
    -999.2500    -999.2500     457.0855    -999.2500     559.0436    -999.2500
      40.8817    -999.2500       0.6099       3.5250       0.0239       2.4711
       4.8435       4.4359
   2455.9260
       8.2798      55.2490      -0.0037      81.2573      91.2169    -999.2500
    -999.2500    -999.2500     402.3886    -999.2500     497.7781    -999.2500
      42.9463    -999.2500       0.5886       3.5880       0.0226       2.4851
       4.5232       4.5732
   2456.0784
       8.2776      49.7084      -0.0167      80.4634      86.4071    -999.2500
    -999.2500    -999.2500     400.2885    -999.2500     482.9934    -999.2500
      45.0780    -999.2500       0.5661       3.6500       0.0210       2.4976
       4.2421       4.7034
   2456.2307
       8.2721      47.4397      -0.0007      79.8358      84.2963    -999.2500
    -999.2500    -999.2500    1002.5557    -999.2500    1003.1196    -999.2500
      47.9833    -999.2500       0.5418       3.6994       0.0195       2.4921
       4.4291       4.7453
   2456.3831
       8.2671      45.1605       0.0146      79.2083      82.2476    -999.2500
    -999.2500    -999.2500    1571.3639    -999.2500    1495.3615    -999.2500
      50.2378    -999.2500       0.5176       3.7440       0.0180       2.4885
       4.6200       4.7919
   2456.5356
       8.2681      42.8688       0.0221      78.5596      80.9299    -999.2500
    -999.2500    -999.2500    1703.6355    -999.2500    1622.2893    -999.2500
      45.1908    -999.2500       0.4950       3.7315       0.0163       2.5070
       4.8455       4.8917
   2456.6880
       8.2691      40.5951       0.0282      77.9471      79.6388    -999.2500
    -999.2500    -999.2500    1905.5475    -999.2500    1770.0309    -999.2500
      40.7908    -999.2500       0.4727       3.7315       0.0148       2.5241
       5.0406       4.9957
   2456.8403
       8.2706      38.6803       0.0177      77.7371      78.6804    -999.2500
    -999.2500    -999.2500    2895.3254    -999.2500    2147.4346    -999.2500
      43.7848    -999.2500       0.4517       3.8749       0.0138       2.5256
       4.8745       5.1413
   2456.9927
       8.2719      36.6346       0.0077      77.6053      77.6240    -999.2500
    -999.2500    -999.2500    3879.1599    -999.2500    2525.5515    -999.2500
      46.8229    -999.2500       0.4314       3.9942       0.0133       2.5265
       4.6591       5.3031
   2457.1450
       8.2709      33.1709       0.0037      78.3479      75.4204    -999.2500
    -999.2500    -999.2500    4760.3384    -999.2500    2899.0159    -999.2500
      50.4076    -999.2500       0.4139       3.8329       0.0130       2.5205
       3.8810       5.6438
   2457.2976
       8.2700      30.4009       0.0005      79.0350      74.4241    -999.2500
    -999.2500    -999.2500    5485.6694    -999.2500    3218.8337    -999.2500
      53.5624    -999.2500       0.3996       3.6787       0.0133       2.5139
       3.1902       6.0189
   2457.4500
       8.2700      35.8199       0.0070      79.1092      87.7501    -999.2500
    -999.2500    -999.2500    4379.0659    -999.2500    2904.3933    -999.2500
      51.7868    -999.2500       0.4029       3.6128       0.0146       2.4999
       3.5538       6.7655
   2457.6023
       8.2700      41.0241       0.0130      79.2229     100.4437    -999.2500
    -999.2500    -999.2500    3317.6082    -999.2500    2594.6833    -999.2500
      49.6916    -999.2500       0.4072       3.5672       0.0159       2.4876
       3.9115       7.4721
   2457.7546
       8.2695      43.4440       0.0135      79.7893     105.5626    -999.2500
    -999.2500    -999.2500    2820.5654    -999.2500    2351.4497    -999.2500
      43.9476    -999.2500       0.4100       3.7580       0.0167       2.4951
       4.1823       7.6746
