#------------------------------------------------------------------------------
#
#   Created by  : [OpenWorks] Log Export Utility (LEXP)
#   Created on  : 2016-05-12 17:01:14
#   Project     : CANT971
#   User        : R5K
#   Interpreter : PEP
#
#------------------------------------------------------------------------------
~VERSION INFORMATION
VERS. 2.0 : CWLS Log ASCII Standard - version 2.0
WRAP.  NO : One line per depth step
~WELL INFORMATION
#MNEMONIC   .UNIT                                           VALUE :DESCRIPTION
#------------------------------------------------------------------------------
STRT        .M                                          1708.0991 :START DEPTH
STOP        .M                                          2834.0303 :STOP DEPTH
STEP        .M                                             0.1524 :STEP
NULL        .                                           -999.2500 :NULL VALUE
COMP        .                                             UNKNOWN :COMPANY
WELL        .                                                3016 :WELL
FLD         .                                           CANTARELL :FIELD
LOC         .                                             UNKNOWN :LOCATION
CNTY        .                                             UNKNOWN :COUNTY
STAT        .                                            CAMPECHE :STATE
CTRY        .                                              MEXICO :COUNTRY
SRVC        .                                             UNKNOWN :SERVICE COMPANY
DATE        .                                             UNKNOWN :LOG DATE
UWI         .                                                3016 :UNIQUE WELL ID
XCOORD      .                                       192548.498000 :SURFACE X
YCOORD      .                                        92151.948000 :SURFACE Y
LAT         .                                            0.832805 :LATITUDE
LON         .                                          -95.762171 :LONGITUDE
ELEV        .M                                            46.0000 :SURFACE ELEV
ELEV_TYPE   .                                                  KB :ELEV TYPE
~CURVE INFORMATION
#MNEMONIC.UNIT        API CODE       : CURVE DESCRIPTION
#------------------------------------------------------------------------------
DEPTH    .M                          : Measured Depth
CALI     .inches      UNKNOWN        : CALI:litodensidad:rC:NONE:v0 (auto-composite)
CGR      .API         UNKNOWN        : CGR:Espectrometria:rC:NONE:v0 (auto-composite)
DRHO     .g/cm3       UNKNOWN        : DRHO:litodensidad:rC:NONE:v0 (auto-composite)
DT       .us/ft       UNKNOWN        : DT:DT-Load:rC:NONE:v0 (auto-composite)
GR       .API         UNKNOWN        : GR:PETROWORKS:rC:NONE:v1 
GR-LWD   .API         UNKNOWN        : GR-LWD:PETROWORKS:rC:NONE:v1 
ILD-LWD  .ohm.m       UNKNOWN        : ILD-LWD:PETROWORKS:rC:NONE:v1 
ILM-LWD  .ohm.m       UNKNOWN        : ILM-LWD:PETROWORKS:rC:NONE:v1 
LLD      .ohm.m       UNKNOWN        : LLD:Resistivos:rC:NONE:v0 (auto-composite)
LLS      .ohm.m       UNKNOWN        : LLS:Resistivos:rC:NONE:v0 (auto-composite)
MSFL     .ohm.m       UNKNOWN        : MSFL:Resistivos:rC:NONE:v0 (auto-composite)
NPHI     .v/v_decimal UNKNOWN        : NPHI:Porosidad:rC:NONE:v0 (auto-composite)
PEF      .UNKNOWN     UNKNOWN        : PEF:litodensidad:rC:NONE:v0 (auto-composite)
POTA     .wtpercent   UNKNOWN        : POTA:Espectrometria:rC:NONE:v0 (auto-composite)
RHOB     .g/cm3       UNKNOWN        : RHOB:litodensidad:rC:NONE:v0 (auto-composite)
SP       .mV          UNKNOWN        : SP:SP-Load:rC:NONE:v0 (auto-composite)
THOR     .ppm         UNKNOWN        : THOR:Espectrometria:rC:NONE:v0 (auto-composite)
URAN     .ppm         UNKNOWN        : URAN:Espectrometria:rC:NONE:v0 (auto-composite)
~A     DEPTH         CALI          CGR         DRHO           DT           GR       GR-LWD      ILD-LWD      ILM-LWD          LLD          LLS         MSFL         NPHI          PEF         POTA         RHOB           SP         THOR         URAN
# ...
   2382.0120    -999.2500       3.3368    -999.2500    -999.2500      10.0116      10.0554      57.2422      53.2325    -999.2500    -999.2500    -999.2500       0.1199    -999.2500       0.0008    -999.2500    -233.8125       0.6208       0.9394
   2382.1643    -999.2500       4.7459    -999.2500    -999.2500      11.7736      10.6191      60.3195      56.6430    -999.2500    -999.2500    -999.2500       0.1534    -999.2500       0.0012    -999.2500    -233.8125       0.8063       0.9856
   2382.3167    -999.2500       5.1571    -999.2500    -999.2500      13.0746      11.0398      60.1858      56.2035    -999.2500    -999.2500    -999.2500       0.2135    -999.2500       0.0015    -999.2500    -232.6875       0.8017       1.0700
   2382.4692    -999.2500       5.2386    -999.2500    -999.2500      14.6645      11.6970      58.0618      54.6610    -999.2500    -999.2500    -999.2500       0.2442    -999.2500       0.0016    -999.2500    -232.2500       0.7746       1.2974
   2382.6216    -999.2500       4.3831    -999.2500    -999.2500      15.3896      12.8339      64.2054      60.5410    -999.2500    -999.2500    -999.2500       0.2324    -999.2500       0.0016    -999.2500    -231.8750       0.4806       1.4450
   2382.7739    -999.2500       3.7546    -999.2500    -999.2500      15.7239      13.9228      81.7869      77.9536    -999.2500    -999.2500    -999.2500       0.2043    -999.2500       0.0015    -999.2500    -232.3125       0.3037       1.5629
   2382.9263    -999.2500       3.2593    -999.2500    -999.2500      14.9277      13.8622      77.5226      70.4949    -999.2500    -999.2500    -999.2500       0.1764    -999.2500       0.0013    -999.2500    -232.4375       0.3069       1.5453
   2383.0786    -999.2500       2.5087    -999.2500    -999.2500      12.7666      13.4855      66.4468      62.5154    -999.2500    -999.2500    -999.2500       0.1447    -999.2500       0.0009    -999.2500    -233.7500       0.2812       1.3439
   2383.2312    -999.2500       2.1780    -999.2500    -999.2500      10.5612      13.0279     119.0683     119.7025    -999.2500    -999.2500    -999.2500       0.1050    -999.2500       0.0009    -999.2500    -233.8125       0.1976       1.0600
   2383.3835    -999.2500       1.7713    -999.2500    -999.2500      10.0233      13.2791     153.1075     153.2502    -999.2500    -999.2500    -999.2500       0.0852    -999.2500       0.0006    -999.2500    -233.8125       0.2239       1.0630
   2383.5359    -999.2500       1.9106    -999.2500    -999.2500      11.0593      13.0234     144.5955     148.4826    -999.2500    -999.2500    -999.2500       0.0764    -999.2500       0.0006    -999.2500    -233.8125       0.2391       1.1292
   2383.6882    -999.2500       2.3966    -999.2500    -999.2500      11.3377      13.1862     126.7284     150.5752    -999.2500    -999.2500    -999.2500       0.0881    -999.2500       0.0006    -999.2500    -233.8125       0.4088       1.1014
   2383.8408    -999.2500       2.4687    -999.2500    -999.2500      11.0661      12.7282     196.3476     201.9657    -999.2500    -999.2500    -999.2500       0.0856    -999.2500       0.0006    -999.2500    -233.8125       0.4425       1.0433
   2383.9932    -999.2500       1.9602    -999.2500    -999.2500       9.8100      12.5857     175.1471     181.0275    -999.2500    -999.2500    -999.2500       0.0875    -999.2500       0.0004    -999.2500    -233.8125       0.3907       0.9489
   2384.1455    -999.2500       2.1950    -999.2500    -999.2500      10.1174      12.3256     221.1295     229.0107    -999.2500    -999.2500    -999.2500       0.0818    -999.2500       0.0006    -999.2500    -233.8125       0.3702       0.9349
   2384.2979    -999.2500       2.6898    -999.2500    -999.2500      10.8932      12.3603     235.5403     248.2715    -999.2500    -999.2500    -999.2500       0.0883    -999.2500       0.0007    -999.2500    -233.8125       0.4332       0.9771
   2384.4504    -999.2500       3.3607    -999.2500    -999.2500      11.7643      12.2067     285.0744     305.0364    -999.2500    -999.2500    -999.2500       0.0925    -999.2500       0.0010    -999.2500    -232.8750       0.4922       0.9928
   2384.6028    -999.2500       3.3470    -999.2500    -999.2500      11.0124      12.0749     271.1702     275.5469    -999.2500    -999.2500    -999.2500       0.1002    -999.2500       0.0011    -999.2500    -231.3750       0.4440       0.8838
   2384.7551    -999.2500       3.2658    -999.2500    -999.2500      10.5686      12.4448     334.2495     340.2081    -999.2500    -999.2500    -999.2500       0.1042    -999.2500       0.0010    -999.2500    -233.0000       0.4506       0.8573
   2384.9075    -999.2500       2.7211    -999.2500    -999.2500      10.1064      12.9370     340.7595     357.4943    -999.2500    -999.2500    -999.2500       0.1021    -999.2500       0.0008    -999.2500    -233.8125       0.4148       0.8638
   2385.0598    -999.2500       3.8667    -999.2500    -999.2500      12.8292      13.2502     359.0610     360.3691    -999.2500    -999.2500    -999.2500       0.1020    -999.2500       0.0009    -999.2500    -233.7500       0.6946       1.0816
   2385.2124    -999.2500       4.0461    -999.2500    -999.2500      13.2492      13.2595     445.0306     481.8451    -999.2500    -999.2500    -999.2500       0.1087    -999.2500       0.0010    -999.2500    -233.8125       0.7088       1.1129
   2385.3647    -999.2500       4.4136    -999.2500    -999.2500      14.2356      15.7694     427.3423     447.9155    -999.2500    -999.2500    -999.2500       0.1212    -999.2500       0.0011    -999.2500    -233.1875       0.7653       1.1639
   2385.5171    -999.2500       3.9658    -999.2500    -999.2500      14.8478      17.3268     485.2575     538.7173    -999.2500    -999.2500    -999.2500       0.1257    -999.2500       0.0010    -999.2500    -231.9375       0.6633       1.3001
   2385.6694    -999.2500       5.1695    -999.2500    -999.2500      16.7267      19.7694     525.7000     621.9466    -999.2500    -999.2500    -999.2500       0.1195    -999.2500       0.0014    -999.2500    -232.6875       0.8483       1.3558
   2385.8220    -999.2500       6.0299    -999.2500    -999.2500      18.7953      20.1770     477.1862     517.4415    -999.2500    -999.2500    -999.2500       0.1150    -999.2500       0.0017    -999.2500    -233.8125       0.9613       1.5311
   2385.9744    -999.2500       4.9954    -999.2500    -999.2500      17.4800      21.3686     492.6563     522.1261    -999.2500    -999.2500    -999.2500       0.1220    -999.2500       0.0013    -999.2500    -233.8125       0.8185       1.4563
   2386.1267    -999.2500       4.2608    -999.2500    -999.2500      16.5961      21.2694     527.7366     686.9016    -999.2500    -999.2500    -999.2500       0.1315    -999.2500       0.0011    -999.2500    -233.8125       0.7499       1.4568
   2386.2791    -999.2500       3.5466    -999.2500    -999.2500      14.4329      20.4339     480.9951     564.2405    -999.2500    -999.2500    -999.2500       0.1303    -999.2500       0.0008    -999.2500    -233.8125       0.6568       1.2969
   2386.4316    -999.2500       3.3993    -999.2500    -999.2500      14.0751      19.0130     684.4453     520.5316    -999.2500    -999.2500    -999.2500       0.1134    -999.2500       0.0009    -999.2500    -233.8125       0.5933       1.3165
   2386.5840    -999.2500       2.9025    -999.2500    -999.2500      13.0230      17.6998     680.4656     808.2465    -999.2500    -999.2500    -999.2500       0.1022    -999.2500       0.0007    -999.2500    -233.6875       0.5218       1.2626
   2386.7363    -999.2500       2.1354    -999.2500    -999.2500      12.5588      16.4871     527.6450     718.7686    -999.2500    -999.2500    -999.2500       0.0924    -999.2500       0.0006    -999.2500    -231.9375       0.3212       1.3391
   2386.8887    -999.2500       2.2234    -999.2500    -999.2500      11.5104      15.8481     531.9017     596.5841    -999.2500    -999.2500    -999.2500       0.0827    -999.2500       0.0006    -999.2500    -231.2500       0.3595       1.1815
