#------------------------------------------------------------------------------
#
#   Created by  : [OpenWorks] Log Export Utility (LEXP)
#   Created on  : 2016-05-23 11:50:40
#   Project     : CANT971
#   User        : R5K
#   Interpreter : PEP
#
#------------------------------------------------------------------------------
~VERSION INFORMATION
VERS. 2.0 : CWLS Log ASCII Standard - version 2.0
WRAP.  NO : One line per depth step
~WELL INFORMATION
#MNEMONIC   .UNIT                                           VALUE :DESCRIPTION
#------------------------------------------------------------------------------
STRT        .M                                           697.2303 :START DEPTH
STOP        .M                                          3650.8948 :STOP DEPTH
STEP        .M                                             0.1524 :STEP
NULL        .                                           -999.2500 :NULL VALUE
COMP        .                                   PEMEX EXPL & PROD :COMPANY
WELL        .                                                1026 :WELL
FLD         .                                           CANTARELL :FIELD
LOC         .                                             UNKNOWN :LOCATION
CNTY        .                                      CD. DEL CARMEN :COUNTY
STAT        .                                            CAMPECHE :STATE
CTRY        .                                              MEXICO :COUNTRY
SRVC        .                                             UNKNOWN :SERVICE COMPANY
DATE        .                                             UNKNOWN :LOG DATE
UWI         .                                          3060000491 :UNIQUE WELL ID
XCOORD      .                                       596159.330000 :SURFACE X
YCOORD      .                                      2150607.710000 :SURFACE Y
LAT         .                                           19.448735 :LATITUDE
LON         .                                          -92.083932 :LONGITUDE
ELEV        .M                                            30.0000 :SURFACE ELEV
ELEV_TYPE   .                                                  KB :ELEV TYPE
~CURVE INFORMATION
#MNEMONIC.UNIT        API CODE       : CURVE DESCRIPTION
#------------------------------------------------------------------------------
DEPTH    .M                          : Measured Depth
CALI     .inches      UNKNOWN        : CALI:registros:rC:NONE:v0 (auto-composite)
DRHO     .g/cm3       UNKNOWN        : DRHO:registros:rC:NONE:v0 (auto-composite)
DT       .us/ft       UNKNOWN        : DT:registros:rC:NONE:v0 (auto-composite)
GR       .API         UNKNOWN        : GR:registros:rC:NONE:v0 (auto-composite)
ILD      .ohm.m       UNKNOWN        : ILD:registros:rC:NONE:v0 (auto-composite)
ILM      .ohm.m       UNKNOWN        : ILM:registros:rC:NONE:v0 (auto-composite)
LLD      .ohm.m       UNKNOWN        : LLD:registros:rC:NONE:v0 (auto-composite)
LLS      .ohm.m       UNKNOWN        : LLS:registros:rC:NONE:v0 (auto-composite)
MSFL     .ohm.m       UNKNOWN        : MSFL:registros:rC:NONE:v0 (auto-composite)
NPHI     .v/v_decimal UNKNOWN        : NPHI:registros:rC:NONE:v0 (auto-composite)
PEF      .b/elec      UNKNOWN        : PEF:registros:rC:NONE:v0 (auto-composite)
RHOB     .g/cm3       UNKNOWN        : RHOB:registros:rC:NONE:v0 (auto-composite)
~A     DEPTH         CALI         DRHO           DT           GR          ILD          ILM          LLD          LLS         MSFL         NPHI          PEF         RHOB
# ...
   3550.1582       9.6720       0.0465      53.0072      65.8022    -999.2500    -999.2500      17.0700      23.6889      21.4894       0.1309       3.5146       2.6650
   3550.3108       9.6720       0.0460      53.9640      73.5390    -999.2500    -999.2500      17.1130      23.7410      19.2940       0.1355       3.3810       2.6440
   3550.4631       9.6765       0.0380      61.6296     108.9135    -999.2500    -999.2500      17.7812      24.5586      18.0390       0.1109       3.4140       2.6465
   3550.6155       9.6810       0.0300      69.3130     144.3130    -999.2500    -999.2500      18.4510      25.3780      16.7810       0.0834       3.4470       2.6490
   3550.7678       9.7284       0.0365      65.1616     143.7342    -999.2500    -999.2500      23.0704      31.3253      22.6803       0.0768       3.4170       2.7009
   3550.9202       9.7760       0.0430      61.0000     143.1550    -999.2500    -999.2500      27.7010      37.2870      28.5940       0.0786       3.3870       2.7530
   3551.0728       9.8140       0.0400      61.2072     107.0948    -999.2500    -999.2500      27.2765      36.7117      27.7001       0.0841       3.5019       2.7295
   3551.2251       9.8520       0.0370      61.4150      71.0000    -999.2500    -999.2500      26.8510      36.1350      26.8040       0.0932       3.6170       2.7060
   3551.3774       9.8285       0.0385      63.4098      71.7456    -999.2500    -999.2500      22.5803      30.2337      20.6343       0.1092       3.4512       2.7060
   3551.5298       9.8050       0.0400      65.4100      72.4920    -999.2500    -999.2500      18.3050      24.3260      14.4580       0.1220       3.2850       2.7060
   3551.6824       9.8479       0.0330      66.1070      80.3063    -999.2500    -999.2500      21.2307      27.8973      13.7404       0.1185       3.2940       2.7080
   3551.8347       9.8910       0.0260      66.8060      88.1300    -999.2500    -999.2500      24.1600      31.4730      13.0220       0.1114       3.3030       2.7100
   3551.9871       9.8890       0.0265      69.0687      98.0898    -999.2500    -999.2500      24.0006      31.2886      12.3200       0.1102       3.4248       2.6760
   3552.1394       9.8870       0.0270      71.3380     108.0630    -999.2500    -999.2500      23.8410      31.1040      11.6170       0.1131       3.5470       2.6420
   3552.2920       9.8461       0.0455      73.8217      98.4136    -999.2500    -999.2500      22.2602      29.2618       9.9767       0.1214       3.3693       2.6430
   3552.4443       9.8050       0.0640      76.3130      88.7500    -999.2500    -999.2500      20.6770      27.4170       8.3340       0.1332       3.1910       2.6440
   3552.5967       9.8050       0.0635      76.0948      89.3910    -999.2500    -999.2500      18.3618      24.5698       8.0622       0.1494       3.2050       2.6525
   3552.7490       9.8050       0.0630      75.8760      90.0330    -999.2500    -999.2500      16.0430      21.7180       7.7900       0.1652       3.2190       2.6610
   3552.9014       9.8065       0.0635      67.4834      97.1774    -999.2500    -999.2500      16.9897      22.9864       4.5618       0.1752       3.4258       2.6550
   3553.0540       9.8080       0.0640      59.0630     104.3340    -999.2500    -999.2500      17.9380      24.2570       1.3280       0.1871       3.6330       2.6490
   3553.2063       9.8220       0.0725      59.4169     118.0074    -999.2500    -999.2500      17.8566      24.1656       3.6658       0.2107       3.3927       2.5356
   3553.3586       9.8360       0.0810      59.7720     131.7060    -999.2500    -999.2500      17.7750      24.0740       6.0080       0.2318       3.1520       2.4220
   3553.5110       9.9024       0.1209      63.8767     138.0652    -999.2500    -999.2500      16.6276      22.8117       5.6528       0.2338       3.1615       2.4250
   3553.6636       9.9690       0.1610      67.9960     144.4370    -999.2500    -999.2500      15.4780      21.5470       5.2970       0.2311       3.1710       2.4280
   3553.8159       9.9570       0.1600      77.2534     143.7732    -999.2500    -999.2500      15.4995      21.5964       3.5413       0.2342       3.3658       2.4635
   3553.9683       9.9450       0.1590      86.5450     143.1080    -999.2500    -999.2500      15.5210      21.6460       1.7820       0.2359       3.5610       2.4990
   3554.1206       9.9450       0.1470      89.6101     137.1843    -999.2500    -999.2500      15.7213      22.1240       1.5917       0.2277       3.5520       2.5514
   3554.2732       9.9450       0.1350      92.6870     131.2570    -999.2500    -999.2500      15.9220      22.6030       1.4010       0.2184       3.5430       2.6040
   3554.4255       9.9021       0.1190      92.6261     127.7308    -999.2500    -999.2500      16.1457      23.2358       1.5284       0.2161       3.4661       2.6125
   3554.5779       9.8590       0.1030      92.5650     124.2020    -999.2500    -999.2500      16.3700      23.8700       1.6560       0.2252       3.3890       2.6210
   3554.7302       9.8710       0.1125      91.5023     119.8529    -999.2500    -999.2500      16.9952      25.0116       4.0935       0.2591       3.3500       2.6155
   3554.8826       9.8830       0.1220      90.4370     115.5000    -999.2500    -999.2500      17.6220      26.1560       6.5370       0.2926       3.3110       2.6100
   3555.0352       9.7776       0.1200      98.3957     116.6174    -999.2500    -999.2500      18.8664      28.0585       7.0209       0.2999       3.3195       2.5381
   3555.1875       9.6720       0.1180     106.3750     117.7360    -999.2500    -999.2500      20.1140      29.9660       7.5060       0.2917       3.3280       2.4660
   3555.3398       9.6720       0.1010      96.2013     132.0785    -999.2500    -999.2500      21.4802      31.9689       9.2325       0.2668       3.4254       2.4815
   3555.4922       9.6720       0.0840      86.0000     146.4370    -999.2500    -999.2500      22.8480      33.9740      10.9610       0.2456       3.5230       2.4970
   3555.6448       9.6660       0.0600      87.9972     145.7259    -999.2500    -999.2500      26.6611      39.6350      12.4016       0.2516       3.4796       2.4930
   3555.7971       9.6600       0.0360      90.0000     145.0140    -999.2500    -999.2500      30.4790      45.3030      13.8440       0.2636       3.4360       2.4890
   3555.9495       9.6146       0.0415      89.8307     138.9352    -999.2500    -999.2500      40.1784      59.7651      16.7095       0.2652       3.4385       2.4551
   3556.1018       9.5690       0.0470      89.6610     132.8480    -999.2500    -999.2500      49.8910      74.2470      19.5790       0.2596       3.4410       2.4210
   3556.2544       9.5500       0.0465      84.8694     122.6191    -999.2500    -999.2500      77.1916     116.1902      23.5211       0.2451       3.4695       2.4215
   3556.4067       9.5310       0.0460      80.0630     112.3750    -999.2500    -999.2500     104.5330     158.1960      27.4690       0.2299       3.4980       2.4220
   3556.5591       9.5310       0.0385      87.3013     113.5301    -999.2500    -999.2500     100.3214     154.5689      26.0716       0.2221       3.4900       2.4305
   3556.7114       9.5310       0.0310      94.5630     114.6870    -999.2500    -999.2500      96.1030     150.9360      24.6720       0.2152       3.4820       2.4390
   3556.8638       9.5315       0.0440      88.9474     114.6685    -999.2500    -999.2500      96.7599     152.1080      24.7639       0.2030       3.3651       2.4660
   3557.0164       9.5320       0.0570      83.3130     114.6500    -999.2500    -999.2500      97.4180     153.2820      24.8560       0.1846       3.2480       2.4930
   3557.1687       9.5365       0.0565      94.6683     113.0820    -999.2500    -999.2500     104.8970     166.9747      28.5341       0.1546       3.2500       2.5385
   3557.3210       9.5410       0.0560     106.0630     111.5110    -999.2500    -999.2500     112.3900     180.6930      32.2190       0.1276       3.2520       2.5840
