#------------------------------------------------------------------------------
#
#   Created by  : [OpenWorks] Log Export Utility (LEXP)
#   Created on  : 2016-05-23 11:51:27
#   Project     : CANT971
#   User        : R5K
#   Interpreter : PEP
#
#------------------------------------------------------------------------------
~VERSION INFORMATION
VERS. 2.0 : CWLS Log ASCII Standard - version 2.0
WRAP.  NO : One line per depth step
~WELL INFORMATION
#MNEMONIC   .UNIT                                           VALUE :DESCRIPTION
#------------------------------------------------------------------------------
STRT        .M                                           294.1315 :START DEPTH
STOP        .M                                          1758.8479 :STOP DEPTH
STEP        .M                                             0.1524 :STEP
NULL        .                                           -999.2500 :NULL VALUE
COMP        .                                   PEMEX EXPL & PROD :COMPANY
WELL        .                                                1084 :WELL
FLD         .                                           CANTARELL :FIELD
LOC         .                                             UNKNOWN :LOCATION
CNTY        .                                      CD. DEL CARMEN :COUNTY
STAT        .                                            CAMPECHE :STATE
CTRY        .                                              MEXICO :COUNTRY
SRVC        .                                             UNKNOWN :SERVICE COMPANY
DATE        .                                             UNKNOWN :LOG DATE
UWI         .                                          3060000213 :UNIQUE WELL ID
XCOORD      .                                       596992.320000 :SURFACE X
YCOORD      .                                      2148289.820000 :SURFACE Y
LAT         .                                           19.427749 :LATITUDE
LON         .                                          -92.076116 :LONGITUDE
ELEV        .M                                            27.5000 :SURFACE ELEV
ELEV_TYPE   .                                                  KB :ELEV TYPE
~CURVE INFORMATION
#MNEMONIC.UNIT        API CODE       : CURVE DESCRIPTION
#------------------------------------------------------------------------------
DEPTH    .M                          : Measured Depth
CALI     .in          UNKNOWN        : CALI:registros:rC:NONE:v0 (auto-composite)
DRHO     .g/cm3       UNKNOWN        : DRHO:registros:rC:NONE:v0 (auto-composite)
DT       .us/ft       UNKNOWN        : DT:registros:rC:NONE:v0 (auto-composite)
GR       .api         UNKNOWN        : GR:registros:rC:NONE:v0 (auto-composite)
ILD      .ohmm        UNKNOWN        : ILD:registros:rC:NONE:v0 (auto-composite)
NPHI     .v/v_decimal UNKNOWN        : NPHI:registros:rC:NONE:v0 (auto-composite)
RHOB     .g/cm3       UNKNOWN        : RHOB:registros:rC:NONE:v0 (auto-composite)
~A     DEPTH         CALI         DRHO           DT           GR          ILD         NPHI         RHOB
# ...
   1420.6722      15.5800       0.2830     118.6600      65.6500       1.7940    -999.2500       2.4900
   1420.8247      15.6000       0.2865     119.4008      65.7982       1.8360    -999.2500       2.4950
   1420.9771      15.6200       0.2900     120.1400      65.9470       1.8780    -999.2500       2.5000
   1421.1295      15.5495       0.2885     119.5649      66.8067       1.9240    -999.2500       2.4950
   1421.2819      15.4790       0.2870     118.9910      67.6700       1.9700    -999.2500       2.4900
   1421.4343      15.1959       0.2810     116.2873      67.6675       1.9685    -999.2500       2.4900
   1421.5867      14.9130       0.2750     113.5890      67.6650       1.9670    -999.2500       2.4900
   1421.7391      14.4214       0.2625     108.3976      67.6550       1.9500    -999.2500       2.4885
   1421.8915      13.9300       0.2500     103.2200      67.6450       1.9330    -999.2500       2.4870
   1422.0439      13.9620       0.2515     104.2898      67.5228       1.8860    -999.2500       2.4820
   1422.1963      13.9940       0.2530     105.3560      67.4000       1.8390    -999.2500       2.4770
   1422.3488      14.1410       0.2605     109.1967      66.7164       1.8000    -999.2500       2.4720
   1422.5011      14.2880       0.2680     113.0250      66.0300       1.7610    -999.2500       2.4670
   1422.6534      14.5420       0.2840     116.0231      64.8210       1.7280    -999.2500       2.4620
   1422.8059      14.7960       0.3000     119.0120      63.6080       1.6950    -999.2500       2.4570
   1422.9583      15.2155       0.2950     121.9854      62.7130       1.6700    -999.2500       2.4510
   1423.1107      15.6350       0.2900     124.9500      61.8150       1.6450    -999.2500       2.4450
   1423.2631      16.1274       0.2725     123.5730      60.7095       1.6325    -999.2500       2.4335
   1423.4155      16.6200       0.2550     122.2000      59.6000       1.6200    -999.2500       2.4220
   1423.5679      16.6065       0.2425     122.9140      59.7153       1.5910    -999.2500       2.4030
   1423.7203      16.5930       0.2300     123.6260      59.8310       1.5620    -999.2500       2.3840
   1423.8727      16.1813       0.2355     126.2754      60.4294       1.4710    -999.2500       2.3570
   1424.0251      15.7700       0.2410     128.9180      61.0300       1.3800    -999.2500       2.3300
   1424.1775      15.8140       0.2655     131.9527      61.0200       1.3800    -999.2500       2.3355
   1424.3300      15.8580       0.2900     134.9800      61.0100       1.3800    -999.2500       2.3410
   1424.4823      16.4642       0.2860     134.4684      61.0893       1.4120    -999.2500       2.3635
   1424.6346      17.0700       0.2820     133.9580      61.1690       1.4440    -999.2500       2.3860
   1424.7871      17.0275       0.2610     131.2920      61.7268       1.5674    -999.2500       2.4120
   1424.9395      16.9850       0.2400     128.6320      62.2870       1.6910    -999.2500       2.4380
   1425.0919      16.6914       0.2400     116.0629      64.8530       1.7904    -999.2500       2.4505
   1425.2443      16.3980       0.2400     103.5200      67.4300       1.8900    -999.2500       2.4630
   1425.3967      15.7079       0.2440     103.8199      67.3113       1.8845    -999.2500       2.4715
   1425.5491      15.0180       0.2480     104.1190      67.1920       1.8790    -999.2500       2.4800
   1425.7015      14.3539       0.2630     106.1024      66.6991       1.8550    -999.2500       2.4750
   1425.8539      13.6900       0.2780     108.0790      66.2040       1.8310    -999.2500       2.4700
   1426.0063      13.7175       0.2905     114.4696      65.3241       1.7905    -999.2500       2.4715
   1426.1587      13.7450       0.3030     120.8390      64.4400       1.7500    -999.2500       2.4730
   1426.3112      13.8875       0.3065     131.5656      64.5558       1.7580    -999.2500       2.4915
   1426.4635      14.0300       0.3100     142.2580      64.6720       1.7660    -999.2500       2.5100
   1426.6158      14.2800       0.3075     149.4951      65.7093       1.8279    -999.2500       2.5060
   1426.7683      14.5300       0.3050     156.7100      66.7500       1.8900    -999.2500       2.5020
   1426.9207      14.5020       0.2960     155.3330      66.7086       1.8885    -999.2500       2.4855
   1427.0731      14.4740       0.2870     153.9600      66.6670       1.8870    -999.2500       2.4690
   1427.2255      14.3605       0.2785     154.6395      65.8100       1.8785    -999.2500       2.4530
   1427.3779      14.2470       0.2700     155.3170      64.9500       1.8700    -999.2500       2.4370
   1427.5303      13.9985       0.2700     161.0362      65.5289       1.8740    -999.2500       2.4285
   1427.6827      13.7500       0.2700     166.7400      66.1100       1.8780    -999.2500       2.4200
   1427.8351      13.7850       0.2700     164.7244      66.0686       1.8915    -999.2500       2.4200
   1427.9875      13.8200       0.2700     162.7140      66.0270       1.9050    -999.2500       2.4200
   1428.1399      13.8175       0.2700     153.6875      65.4596       1.9125    -999.2500       2.4225
   1428.2924      13.8150       0.2700     144.6830      64.8900       1.9200    -999.2500       2.4250
   1428.4447      13.7855       0.2750     135.0053      65.1744       1.9250    -999.2500       2.4475
   1428.5970      13.7560       0.2800     125.3500      65.4600       1.9300    -999.2500       2.4700
   1428.7495      13.6830       0.2785     123.0375      65.4575       1.9275    -999.2500       2.4600
   1428.9019      13.6100       0.2770     120.7300      65.4550       1.9250    -999.2500       2.4500
   1429.0543      13.6370       0.2635     121.7911      65.4076       1.8975    -999.2500       2.4500
   1429.2067      13.6640       0.2500     122.8500      65.3600       1.8700    -999.2500       2.4500
   1429.3591      13.7685       0.2540     127.0272      65.2438       1.8700    -999.2500       2.4500
   1429.5115      13.8730       0.2580     131.1930      65.1270       1.8700    -999.2500       2.4500
   1429.6639      14.1615       0.2840     134.5237      65.0078       1.8685    -999.2500       2.4525
   1429.8163      14.4500       0.3100     137.8430      64.8880       1.8670    -999.2500       2.4550
   1429.9688      14.4015       0.3060     148.6743      64.4715       1.8570    -999.2500       2.4665
   1430.1211      14.3530       0.3020     159.4700      64.0530       1.8470    -999.2500       2.4780
   1430.2736      14.1465       0.2885     150.5559      63.5278       1.8245    -999.2500       2.4890
   1430.4259      13.9400       0.2750     141.6700      63.0000       1.8020    -999.2500       2.5000
   1430.5782      13.9400       0.2575     144.6746      63.1133       1.7845    -999.2500       2.5100
   1430.7307      13.9400       0.2400     147.6700      63.2270       1.7670    -999.2500       2.5200
   1430.8831      13.8600       0.2450     145.5800      63.8274       1.7420    -999.2500       2.5175
   1431.0355      13.7800       0.2500     143.4960      64.4300       1.7170    -999.2500       2.5150
   1431.1879      13.7880       0.2800     135.3702      63.8361       1.6885    -999.2500       2.4925
   1431.3403      13.7960       0.3100     127.2670      63.2400       1.6600    -999.2500       2.4700
   1431.4927      13.8715       0.3070     121.0092      63.3184       1.6680    -999.2500       2.4700
   1431.6451      13.9470       0.3040     114.7680      63.3970       1.6760    -999.2500       2.4700
   1431.7975      14.1021       0.2945     111.7887      64.0323       1.7125    -999.2500       2.4715
   1431.9500      14.2570       0.2850     108.8170      64.6700       1.7490    -999.2500       2.4730
   1432.1023      14.3115       0.2625     107.0649      64.6650       1.8295    -999.2500       2.4780
   1432.2548      14.3660       0.2400     105.3170      64.6600       1.9100    -999.2500       2.4830
