#------------------------------------------------------------------------------
#
#   Created by  : [OpenWorks] Log Export Utility (LEXP)
#   Created on  : 2016-05-23 11:57:14
#   Project     : CANT971
#   User        : R5K
#   Interpreter : PEP
#
#------------------------------------------------------------------------------
~VERSION INFORMATION
VERS. 2.0 : CWLS Log ASCII Standard - version 2.0
WRAP.  NO : One line per depth step
~WELL INFORMATION
#MNEMONIC   .UNIT                                           VALUE :DESCRIPTION
#------------------------------------------------------------------------------
STRT        .M                                           551.2302 :START DEPTH
STOP        .M                                          2435.9609 :STOP DEPTH
STEP        .M                                             0.1524 :STEP
NULL        .                                           -999.2500 :NULL VALUE
COMP        .                                   PEMEX EXPL & PROD :COMPANY
WELL        .                                                  76 :WELL
FLD         .                                           CANTARELL :FIELD
LOC         .                                             UNKNOWN :LOCATION
CNTY        .                                      CD. DEL CARMEN :COUNTY
STAT        .                                            CAMPECHE :STATE
CTRY        .                                              MEXICO :COUNTRY
SRVC        .                                             UNKNOWN :SERVICE COMPANY
DATE        .                                             UNKNOWN :LOG DATE
UWI         .                                          3060000416 :UNIQUE WELL ID
XCOORD      .                                       599729.570000 :SURFACE X
YCOORD      .                                      2147218.620000 :SURFACE Y
LAT         .                                           19.417934 :LATITUDE
LON         .                                          -92.050101 :LONGITUDE
ELEV        .M                                            27.8000 :SURFACE ELEV
ELEV_TYPE   .                                                  KB :ELEV TYPE
~CURVE INFORMATION
#MNEMONIC.UNIT        API CODE       : CURVE DESCRIPTION
#------------------------------------------------------------------------------
DEPTH    .M                          : Measured Depth
CAL      .inches      UNKNOWN        : CAL:UNKNOWN:rC:NONE:v0 (auto-composite)
DRHO     .UNKNOWN     UNKNOWN        : DRHO:UNKNOWN:rC:NONE:v0 (auto-composite)
DT       .us/ft       UNKNOWN        : DT:DT:rC:NONE:v0 (auto-composite)
GR       .UNKNOWN     UNKNOWN        : GR:GR-Load:rC:NONE:v0 (auto-composite)
ILD      .UNKNOWN     UNKNOWN        : ILD:ILD-Load:rC:NONE:v0 (auto-composite)
LLD      .UNKNOWN     UNKNOWN        : LLD:UNKNOWN:rC:NONE:v0 (auto-composite)
LLS      .UNKNOWN     UNKNOWN        : LLS:UNKNOWN:rC:NONE:v0 (auto-composite)
NPHI     .v/v_decimal UNKNOWN        : NPHI:NPHI:rC:NONE:v0 (auto-composite)
RHOB     .UNKNOWN     UNKNOWN        : RHOB:UNKNOWN:rC:NONE:v0 (auto-composite)
~A     DEPTH          CAL         DRHO           DT           GR          ILD          LLD          LLS         NPHI         RHOB
# ...
   1297.6854       0.0000       0.0000    -999.2500      49.1157       0.9640       0.0000       0.2000    -999.2500       1.9500
   1297.8378       0.0000       0.0000    -999.2500      51.0150       0.9110       0.0000       0.2000    -999.2500       1.9500
   1297.9902       0.0000       0.0000    -999.2500      50.7786       0.9135       0.0000       0.2000    -999.2500       1.9500
   1298.1426       0.0000       0.0000    -999.2500      50.5420       0.9160       0.0000       0.2000    -999.2500       1.9500
   1298.2950       0.0000       0.0000    -999.2500      47.6530       0.9380       0.0000       0.2000    -999.2500       1.9500
   1298.4474       0.0000       0.0000    -999.2500      44.7610       0.9600       0.0000       0.2000    -999.2500       1.9500
   1298.5999       0.0000       0.0000    -999.2500      44.7820       0.9985       0.0000       0.2000    -999.2500       1.9500
   1298.7522       0.0000       0.0000    -999.2500      44.8030       1.0370       0.0000       0.2000    -999.2500       1.9500
   1298.9047       0.0000       0.0000    -999.2500      46.2676       1.0785       0.0000       0.2000    -999.2500       1.9500
   1299.0570       0.0000       0.0000    -999.2500      47.7330       1.1200       0.0000       0.2000    -999.2500       1.9500
   1299.2095       0.0000       0.0000    -999.2500      47.6790       1.1910       0.0000       0.2000    -999.2500       1.9500
   1299.3618       0.0000       0.0000    -999.2500      47.6250       1.2620       0.0000       0.2000    -999.2500       1.9500
   1299.5143       0.0000       0.0000    -999.2500      47.1510       1.2615       0.0000       0.2000    -999.2500       1.9500
   1299.6666       0.0000       0.0000    -999.2500      46.6770       1.2610       0.0000       0.2000    -999.2500       1.9500
   1299.8190       0.0000       0.0000    -999.2500      45.6165       1.2540       0.0000       0.2000    -999.2500       1.9500
   1299.9714       0.0000       0.0000    -999.2500      44.5560       1.2470       0.0000       0.2000    -999.2500       1.9500
   1300.1238       0.0000       0.0000    -999.2500      42.8537       1.2220       0.0000       0.2000    -999.2500       1.9500
   1300.2762       0.0000       0.0000    -999.2500      41.1510       1.1970       0.0000       0.2000    -999.2500       1.9500
   1300.4286       0.0000       0.0000    -999.2500      44.0985       1.1720       0.0000       0.2000    -999.2500       1.9500
   1300.5811       0.0000       0.0000    -999.2500      47.0470       1.1470       0.0000       0.2000    -999.2500       1.9500
   1300.7334       0.0000       0.0000    -999.2500      46.9745       1.0875       0.0000       0.2000    -999.2500       1.9500
   1300.8859       0.0000       0.0000    -999.2500      46.9020       1.0280       0.0000       0.2000    -999.2500       1.9500
   1301.0382       0.0000       0.0000    -999.2500      46.2367       1.0280       0.0000       0.2000    -999.2500       1.9500
   1301.1907       0.0000       0.0000    -999.2500      45.5710       1.0280       0.0000       0.2000    -999.2500       1.9500
   1301.3430       0.0000       0.0000    -999.2500      41.2480       1.0280       0.0000       0.2000    -999.2500       1.9500
   1301.4955       0.0000       0.0000    -999.2500      36.9220       1.0280       0.0000       0.2000    -999.2500       1.9500
   1301.6478       0.0000       0.0000    -999.2500      37.2913       1.0280       0.0000       0.2000    -999.2500       1.9500
   1301.8002       0.0000       0.0000    -999.2500      37.6610       1.0280       0.0000       0.2000    -999.2500       1.9500
   1301.9526       0.0000       0.0000    -999.2500      40.2043       1.0240       0.0000       0.2000    -999.2500       1.9500
   1302.1050       0.0000       0.0000    -999.2500      42.7500       1.0200       0.0000       0.2000    -999.2500       1.9500
   1302.2574       0.0000       0.0000    -999.2500      45.9857       0.9985       0.0000       0.2000    -999.2500       1.9500
   1302.4098       0.0000       0.0000    -999.2500      49.2250       0.9770       0.0000       0.2000    -999.2500       1.9500
   1302.5623       0.0000       0.0000    -999.2500      49.0631       0.9295       0.0000       0.2000    -999.2500       1.9500
   1302.7146       0.0000       0.0000    -999.2500      48.9010       0.8820       0.0000       0.2000    -999.2500       1.9500
   1302.8671       0.0000       0.0000    -999.2500      47.9922       0.8845       0.0000       0.2000    -999.2500       1.9500
   1303.0194       0.0000       0.0000    -999.2500      47.0830       0.8870       0.0000       0.2000    -999.2500       1.9500
   1303.1719       0.0000       0.0000    -999.2500      46.3114       0.9065       0.0000       0.2000    -999.2500       1.9500
   1303.3242       0.0000       0.0000    -999.2500      45.5400       0.9260       0.0000       0.2000    -999.2500       1.9500
   1303.4767       0.0000       0.0000    -999.2500      45.7925       0.9735       0.0000       0.2000    -999.2500       1.9500
   1303.6290       0.0000       0.0000    -999.2500      46.0450       1.0210       0.0000       0.2000    -999.2500       1.9500
   1303.7814       0.0000       0.0000    -999.2500      47.5009       1.0175       0.0000       0.2000    -999.2500       1.9500
   1303.9338       0.0000       0.0000    -999.2500      48.9570       1.0140       0.0000       0.2000    -999.2500       1.9500
   1304.0862       0.0000       0.0000    -999.2500      48.6150       0.9905       0.0000       0.2000    -999.2500       1.9500
   1304.2386       0.0000       0.0000    -999.2500      48.2730       0.9670       0.0000       0.2000    -999.2500       1.9500
   1304.3910       0.0000       0.0000    -999.2500      45.2480       0.9270       0.0000       0.2000    -999.2500       1.9500
   1304.5435       0.0000       0.0000    -999.2500      42.2220       0.8870       0.0000       0.2000    -999.2500       1.9500
   1304.6958       0.0000       0.0000    -999.2500      42.2735       0.8910       0.0000       0.2000    -999.2500       1.9500
   1304.8483       0.0000       0.0000    -999.2500      42.3250       0.8950       0.0000       0.2000    -999.2500       1.9500
   1305.0006       0.0000       0.0000    -999.2500      42.9183       0.9195       0.0000       0.2000    -999.2500       1.9500
   1305.1531       0.0000       0.0000    -999.2500      43.5120       0.9440       0.0000       0.2000    -999.2500       1.9500
   1305.3054       0.0000       0.0000    -999.2500      46.5924       0.9680       0.0000       0.2000    -999.2500       1.9500
   1305.4578       0.0000       0.0000    -999.2500      49.6750       0.9920       0.0000       0.2000    -999.2500       1.9500
   1305.6102       0.0000       0.0000    -999.2500      48.1906       1.0075       0.0000       0.2000    -999.2500       1.9500
   1305.7626       0.0000       0.0000    -999.2500      46.7050       1.0230       0.0000       0.2000    -999.2500       1.9500
   1305.9150       0.0000       0.0000    -999.2500      46.8199       1.0255       0.0000       0.2000    -999.2500       1.9500
   1306.0674       0.0000       0.0000    -999.2500      46.9350       1.0280       0.0000       0.2000    -999.2500       1.9500
   1306.2198       0.0000       0.0000    -999.2500      47.7146       1.0280       0.0000       0.2000    -999.2500       1.9500
   1306.3722       0.0000       0.0000    -999.2500      48.4950       1.0280       0.0000       0.2000    -999.2500       1.9500
   1306.5247       0.0000       0.0000    -999.2500      49.6198       1.0270       0.0000       0.2000    -999.2500       1.9500
   1306.6770       0.0000       0.0000    -999.2500      50.7460       1.0260       0.0000       0.2000    -999.2500       1.9500
   1306.8295       0.0000       0.0000    -999.2500      51.2674       1.0100       0.0000       0.2000    -999.2500       1.9500
   1306.9818       0.0000       0.0000    -999.2500      51.7890       0.9940       0.0000       0.2000    -999.2500       1.9500
