#------------------------------------------------------------------------------
#
#   Created by  : [OpenWorks] Log Export Utility (LEXP)
#   Created on  : 2016-05-23 11:55:46
#   Project     : CANT971
#   User        : R5K
#   Interpreter : PEP
#
#------------------------------------------------------------------------------
~VERSION INFORMATION
VERS. 2.0 : CWLS Log ASCII Standard - version 2.0
WRAP.  NO : One line per depth step
~WELL INFORMATION
#MNEMONIC   .UNIT                                           VALUE :DESCRIPTION
#------------------------------------------------------------------------------
STRT        .M                                           325.5260 :START DEPTH
STOP        .M                                          2414.9299 :STOP DEPTH
STEP        .M                                             0.1524 :STEP
NULL        .                                           -999.2500 :NULL VALUE
COMP        .                                   PEMEX EXPL & PROD :COMPANY
WELL        .                                                   4 :WELL
FLD         .                                           CANTARELL :FIELD
LOC         .                                             UNKNOWN :LOCATION
CNTY        .                                      CD. DEL CARMEN :COUNTY
STAT        .                                            CAMPECHE :STATE
CTRY        .                                              MEXICO :COUNTRY
SRVC        .                                             UNKNOWN :SERVICE COMPANY
DATE        .                                             UNKNOWN :LOG DATE
UWI         .                                          3060000140 :UNIQUE WELL ID
XCOORD      .                                       598455.270000 :SURFACE X
YCOORD      .                                      2145027.190000 :SURFACE Y
LAT         .                                           19.398194 :LATITUDE
LON         .                                          -92.062351 :LONGITUDE
ELEV        .M                                            26.5400 :SURFACE ELEV
ELEV_TYPE   .                                                  KB :ELEV TYPE
~CURVE INFORMATION
#MNEMONIC.UNIT        API CODE       : CURVE DESCRIPTION
#------------------------------------------------------------------------------
DEPTH    .M                          : Measured Depth
CALI     .inches      UNKNOWN        : CALI:Import:rC:NONE:v0 (auto-composite)
CGR      .API         UNKNOWN        : CGR:Import:rC:NONE:v0 (auto-composite)
DRHO     .g/cm3       UNKNOWN        : DRHO:Import:rC:NONE:v0 (auto-composite)
DT       .us/ft       UNKNOWN        : DT:Import:rC:NONE:v0 (auto-composite)
GR       .API         UNKNOWN        : GR:Import:rC:NONE:v0 (auto-composite)
ILD      .ohm.m       UNKNOWN        : ILD:Import:rC:NONE:v0 (auto-composite)
LLD      .ohm.m       UNKNOWN        : LLD:Import:rC:NONE:v0 (auto-composite)
LLS      .ohm.m       UNKNOWN        : LLS:Import:rC:NONE:v0 (auto-composite)
MSFL     .ohm.m       UNKNOWN        : MSFL:Import:rC:NONE:v0 (auto-composite)
NPHI     .v/v_decimal UNKNOWN        : NPHI:Import:rC:NONE:v0 (auto-composite)
POTA     .wtpercent   UNKNOWN        : POTA:Import:rC:NONE:v0 (auto-composite)
RHOB     .g/cm3       UNKNOWN        : RHOB:Import:rC:NONE:v0 (auto-composite)
THOR     .ppm         UNKNOWN        : THOR:Import:rC:NONE:v0 (auto-composite)
URAN     .ppm         UNKNOWN        : URAN:Import:rC:NONE:v0 (auto-composite)
~A     DEPTH         CALI          CGR         DRHO           DT           GR          ILD          LLD          LLS         MSFL         NPHI         POTA         RHOB         THOR         URAN
# ...
   1906.5236      10.3990    -999.2500       0.0210     113.9240      38.4500    -999.2500     376.4380     137.5420     124.3950       0.0493    -999.2500       2.7150    -999.2500    -999.2500
   1906.6760      10.4281    -999.2500       0.0125     123.9504      40.7580    -999.2500     388.7281     146.0198      77.7174       0.0566    -999.2500       2.7015    -999.2500    -999.2500
   1906.8284      10.4570    -999.2500       0.0040     133.9320      43.0630    -999.2500     400.9730     154.4800      31.1370       0.0597    -999.2500       2.6880    -999.2500    -999.2500
   1906.9808      10.6068    -999.2500      -0.0030     129.0379      42.8808    -999.2500     323.0381     126.8700      52.5034       0.0627    -999.2500       2.6840    -999.2500    -999.2500
   1907.1332      10.7560    -999.2500      -0.0100     124.1690      42.6990    -999.2500     245.3800      99.3140      73.8280       0.0650    -999.2500       2.6800    -999.2500    -999.2500
   1907.2856      10.7019    -999.2500      -0.0095     113.2601      39.5561    -999.2500     168.7266      68.5454      62.4591       0.0676    -999.2500       2.6705    -999.2500    -999.2500
   1907.4380      10.6480    -999.2500      -0.0090     102.4060      36.4190    -999.2500      92.3360      37.8330      51.1110       0.0715    -999.2500       2.6610    -999.2500    -999.2500
   1907.5905      10.5378    -999.2500      -0.0035     112.7363      36.7308    -999.2500     107.0142      42.0598      36.1227       0.0743    -999.2500       2.6715    -999.2500    -999.2500
   1907.7428      10.4280    -999.2500       0.0020     123.0160      37.0420    -999.2500     121.6440      46.2760      21.1720       0.0733    -999.2500       2.6820    -999.2500    -999.2500
   1907.8951      10.5502    -999.2500      -0.0000     114.2115      37.2286    -999.2500     177.0705      65.5732      30.7132       0.0725    -999.2500       2.6790    -999.2500    -999.2500
   1908.0476      10.6720    -999.2500      -0.0020     105.4490      37.4150    -999.2500     232.3210      84.8090      40.2240       0.0727    -999.2500       2.6760    -999.2500    -999.2500
   1908.2000      10.5918    -999.2500      -0.0080      82.7608      35.1699    -999.2500     329.5267     116.0271      45.4229       0.0725    -999.2500       2.6800    -999.2500    -999.2500
   1908.3524      10.5120    -999.2500      -0.0140      60.1780      32.9280    -999.2500     426.3580     147.1500      50.6060       0.0707    -999.2500       2.6840    -999.2500    -999.2500
   1908.5048      10.5947    -999.2500      -0.0105      60.3208      31.0262    -999.2500     488.1076     164.9330      63.0672       0.0689    -999.2500       2.6945    -999.2500    -999.2500
   1908.6572      10.6770    -999.2500      -0.0070      60.4630      29.1270    -999.2500     549.5780     182.6640      75.4920       0.0670    -999.2500       2.7050    -999.2500    -999.2500
   1908.8096      10.7727    -999.2500      -0.0105      60.5537      27.1758    -999.2500     532.3135     174.4034      72.9625       0.0650    -999.2500       2.6970    -999.2500    -999.2500
   1908.9620      10.8680    -999.2500      -0.0140      60.6440      25.2270    -999.2500     515.1250     166.1660      70.4400       0.0630    -999.2500       2.6890    -999.2500    -999.2500
   1909.1144      10.7738    -999.2500      -0.0095      60.1575      25.2290    -999.2500     496.5308     152.3750      56.2210       0.0614    -999.2500       2.6675    -999.2500    -999.2500
   1909.2668      10.6800    -999.2500      -0.0050      59.6730      25.2310    -999.2500     478.0160     138.6210      42.0400       0.0620    -999.2500       2.6460    -999.2500    -999.2500
   1909.4192      10.6409    -999.2500      -0.0015      58.7701      28.2820    -999.2500     502.7633     141.4686      25.1685       0.0647    -999.2500       2.5929    -999.2500    -999.2500
   1909.5717      10.6020    -999.2500       0.0020      57.8710      31.3300    -999.2500     527.4080     144.3090       8.3400       0.0762    -999.2500       2.5400    -999.2500    -999.2500
   1909.7240      10.7177    -999.2500      -0.0040      57.5013      34.2037    -999.2500     587.5770     158.8491      15.8571       0.0865    -999.2500       2.5550    -999.2500    -999.2500
   1909.8763      10.8330    -999.2500      -0.0100      57.1330      37.0750    -999.2500     647.5040     173.3540      23.3560       0.0916    -999.2500       2.5700    -999.2500    -999.2500
   1910.0288      10.8786    -999.2500      -0.0065      56.9231      35.8196    -999.2500     773.9725     203.4661      47.7736       0.0925    -999.2500       2.6166    -999.2500    -999.2500
   1910.1812      10.9240    -999.2500      -0.0030      56.7140      34.5650    -999.2500     899.9480     233.5090      72.1350       0.0761    -999.2500       2.6630    -999.2500    -999.2500
   1910.3336      10.7246    -999.2500      -0.0020      55.7928      28.2612    -999.2500    1044.2522     269.6103      62.1557       0.0598    -999.2500       2.6956    -999.2500    -999.2500
   1910.4860      10.5260    -999.2500      -0.0010      54.8750      21.9610    -999.2500    1188.0120     305.6330      52.1980       0.0442    -999.2500       2.7280    -999.2500    -999.2500
   1910.6384      10.5490    -999.2500       0.0040      53.8923      23.9903    -999.2500    1279.3785     329.8293     216.7051       0.0307    -999.2500       2.7370    -999.2500    -999.2500
   1910.7908      10.5720    -999.2500       0.0090      52.9140      26.0170    -999.2500    1370.4120     353.9760     380.8750       0.0266    -999.2500       2.7460    -999.2500    -999.2500
   1910.9432      10.6797    -999.2500       0.0145      53.6308      33.0388    -999.2500    1531.9905     392.3374     230.8617       0.0250    -999.2500       2.7265    -999.2500    -999.2500
   1911.0956      10.7870    -999.2500       0.0200      54.3440      40.0470    -999.2500    1693.0000     430.6250      81.1370       0.0344    -999.2500       2.7070    -999.2500    -999.2500
   1911.2480      10.8661    -999.2500       0.0120      55.9926      39.2458    -999.2500    1497.7579     388.7403      56.3197       0.0435    -999.2500       2.6945    -999.2500    -999.2500
   1911.4004      10.9450    -999.2500       0.0040      57.6330      38.4460    -999.2500    1303.1790     346.9310      31.5470       0.0513    -999.2500       2.6820    -999.2500    -999.2500
   1911.5529      10.8258    -999.2500       0.0075      67.0454      35.7688    -999.2500    1166.6787     311.5257      44.1661       0.0587    -999.2500       2.6910    -999.2500    -999.2500
   1911.7052      10.7070    -999.2500       0.0110      76.4120      33.0960    -999.2500    1030.6250     276.2080      56.7540       0.0643    -999.2500       2.7000    -999.2500    -999.2500
   1911.8575      10.7416    -999.2500       0.0050      81.5502      32.0557    -999.2500    1157.6097     305.0574      50.0459       0.0703    -999.2500       2.6860    -999.2500    -999.2500
   1912.0100      10.7760    -999.2500      -0.0010      86.6640      31.0170    -999.2500    1284.1949     333.8160      43.3590       0.0785    -999.2500       2.6720    -999.2500    -999.2500
   1912.1624      10.7940    -999.2500      -0.0100      89.1693      30.0623    -999.2500    1338.7332     346.0204      46.2278       0.0832    -999.2500       2.6444    -999.2500    -999.2500
   1912.3148      10.8120    -999.2500      -0.0190      91.6630      29.1090    -999.2500    1393.0630     358.1880      49.0880       0.0724    -999.2500       2.6170    -999.2500    -999.2500
   1912.4672      10.9017    -999.2500      -0.0185      97.8168      27.9713    -999.2500    1350.2323     346.4545     103.4667       0.0611    -999.2500       2.6360    -999.2500    -999.2500
   1912.6196      10.9910    -999.2500      -0.0180     103.9430      26.8350    -999.2500    1307.5940     334.7550     157.6880       0.0471    -999.2500       2.6550    -999.2500    -999.2500
   1912.7720      10.9254    -999.2500      -0.0110      98.7707      27.6925    -999.2500    1317.2526     336.1064     125.1544       0.0370    -999.2500       2.6831    -999.2500    -999.2500
