#------------------------------------------------------------------------------
#
#   Created by  : [OpenWorks] Log Export Utility (LEXP)
#   Created on  : 2016-05-23 11:55:46
#   Project     : CANT971
#   User        : R5K
#   Interpreter : PEP
#
#------------------------------------------------------------------------------
~VERSION INFORMATION
VERS. 2.0 : CWLS Log ASCII Standard - version 2.0
WRAP.  NO : One line per depth step
~WELL INFORMATION
#MNEMONIC   .UNIT                                           VALUE :DESCRIPTION
#------------------------------------------------------------------------------
STRT        .M                                           325.5260 :START DEPTH
STOP        .M                                          2414.9299 :STOP DEPTH
STEP        .M                                             0.1524 :STEP
NULL        .                                           -999.2500 :NULL VALUE
COMP        .                                   PEMEX EXPL & PROD :COMPANY
WELL        .                                                   4 :WELL
FLD         .                                           CANTARELL :FIELD
LOC         .                                             UNKNOWN :LOCATION
CNTY        .                                      CD. DEL CARMEN :COUNTY
STAT        .                                            CAMPECHE :STATE
CTRY        .                                              MEXICO :COUNTRY
SRVC        .                                             UNKNOWN :SERVICE COMPANY
DATE        .                                             UNKNOWN :LOG DATE
UWI         .                                          3060000140 :UNIQUE WELL ID
XCOORD      .                                       598455.270000 :SURFACE X
YCOORD      .                                      2145027.190000 :SURFACE Y
LAT         .                                           19.398194 :LATITUDE
LON         .                                          -92.062351 :LONGITUDE
ELEV        .M                                            26.5400 :SURFACE ELEV
ELEV_TYPE   .                                                  KB :ELEV TYPE
~CURVE INFORMATION
#MNEMONIC.UNIT        API CODE       : CURVE DESCRIPTION
#------------------------------------------------------------------------------
DEPTH    .M                          : Measured Depth
CALI     .inches      UNKNOWN        : CALI:Import:rC:NONE:v0 (auto-composite)
CGR      .API         UNKNOWN        : CGR:Import:rC:NONE:v0 (auto-composite)
DRHO     .g/cm3       UNKNOWN        : DRHO:Import:rC:NONE:v0 (auto-composite)
DT       .us/ft       UNKNOWN        : DT:Import:rC:NONE:v0 (auto-composite)
GR       .API         UNKNOWN        : GR:Import:rC:NONE:v0 (auto-composite)
ILD      .ohm.m       UNKNOWN        : ILD:Import:rC:NONE:v0 (auto-composite)
LLD      .ohm.m       UNKNOWN        : LLD:Import:rC:NONE:v0 (auto-composite)
LLS      .ohm.m       UNKNOWN        : LLS:Import:rC:NONE:v0 (auto-composite)
MSFL     .ohm.m       UNKNOWN        : MSFL:Import:rC:NONE:v0 (auto-composite)
NPHI     .v/v_decimal UNKNOWN        : NPHI:Import:rC:NONE:v0 (auto-composite)
POTA     .wtpercent   UNKNOWN        : POTA:Import:rC:NONE:v0 (auto-composite)
RHOB     .g/cm3       UNKNOWN        : RHOB:Import:rC:NONE:v0 (auto-composite)
THOR     .ppm         UNKNOWN        : THOR:Import:rC:NONE:v0 (auto-composite)
URAN     .ppm         UNKNOWN        : URAN:Import:rC:NONE:v0 (auto-composite)
~A     DEPTH         CALI          CGR         DRHO           DT           GR          ILD          LLD          LLS         MSFL         NPHI         POTA         RHOB         THOR         URAN
# ...
   1816.9124      10.1370    -999.2500      -0.0030      65.9930      33.1750    -999.2500     736.1090     164.3690      94.4220       0.1055    -999.2500       2.6480    -999.2500    -999.2500
   1817.0648      10.1836    -999.2500       0.0035      64.5211      34.1023    -999.2500     749.3298     158.5883     109.5618       0.1007    -999.2500       2.6695    -999.2500    -999.2500
   1817.2172      10.2300    -999.2500       0.0100      63.0560      35.0290    -999.2500     762.5010     152.8200     124.6690       0.0982    -999.2500       2.6910    -999.2500    -999.2500
   1817.3696      10.2475    -999.2500       0.0095      66.3777      36.0571    -999.2500     797.4785     158.9753     182.9803       0.0974    -999.2500       2.6825    -999.2500    -999.2500
   1817.5220      10.2650    -999.2500       0.0090      69.6820      37.0840    -999.2500     832.3290     165.1180     241.1730       0.0978    -999.2500       2.6740    -999.2500    -999.2500
   1817.6744      10.2239    -999.2500       0.0035      67.7390      37.3643    -999.2500     974.1321     200.1104     313.3718       0.0982    -999.2500       2.6555    -999.2500    -999.2500
   1817.8268      10.1830    -999.2500      -0.0020      65.8060      37.6440    -999.2500    1115.4380     235.0080     385.3750       0.0985    -999.2500       2.6370    -999.2500    -999.2500
   1817.9792      10.2341    -999.2500      -0.0075      67.4566      34.9281    -999.2500    1056.8961     221.2257     228.7567       0.0958    -999.2500       2.6315    -999.2500    -999.2500
   1818.1316      10.2850    -999.2500      -0.0130      69.0990      32.2170    -999.2500     998.5990     207.4900      72.6680       0.0910    -999.2500       2.6260    -999.2500    -999.2500
   1818.2841      10.9887    -999.2500      -0.0145      73.3393      32.4397    -999.2500     791.8519     164.7940      46.0366       0.0876    -999.2500       2.6315    -999.2500    -999.2500
   1818.4364      11.6890    -999.2500      -0.0160      77.5590      32.6620    -999.2500     586.1080     122.2370      19.4920       0.0852    -999.2500       2.6370    -999.2500    -999.2500
   1818.5887      11.6850    -999.2500      -0.0175      73.6914      34.3558    -999.2500     449.9432      93.9307      45.8423       0.0836    -999.2500       2.6440    -999.2500    -999.2500
   1818.7412      11.6810    -999.2500      -0.0190      69.8420      36.0470    -999.2500     314.4220      65.7130      72.1100       0.0824    -999.2500       2.6510    -999.2500    -999.2500
   1818.8936      11.2054    -999.2500      -0.0140      66.5154      35.6087    -999.2500     351.8521      71.8763     103.3755       0.0828    -999.2500       2.6550    -999.2500    -999.2500
   1819.0460      10.7320    -999.2500      -0.0090      63.2040      35.1710    -999.2500     389.1100      78.0210     134.5470       0.0844    -999.2500       2.6590    -999.2500    -999.2500
   1819.1984      10.5095    -999.2500       0.0005      62.4162      34.0188    -999.2500     429.6202      85.5283      90.2111       0.0871    -999.2500       2.6710    -999.2500    -999.2500
   1819.3508      10.2880    -999.2500       0.0100      61.6320      32.8680    -999.2500     469.9490      93.0140      46.0030       0.0906    -999.2500       2.6830    -999.2500    -999.2500
   1819.5032      10.2489    -999.2500       0.0205      61.0973      33.1877    -999.2500     489.2871      95.0808      36.5725       0.0936    -999.2500       2.6945    -999.2500    -999.2500
   1819.6556      10.2100    -999.2500       0.0310      60.5650      33.5070    -999.2500     508.5410      97.1420      27.1680       0.0964    -999.2500       2.7060    -999.2500    -999.2500
   1819.8080      10.2265    -999.2500       0.0255      59.6501      34.5931    -999.2500     535.4514      99.1296      31.7335       0.0985    -999.2500       2.6990    -999.2500    -999.2500
   1819.9604      10.2430    -999.2500       0.0200      58.7390      35.6780    -999.2500     562.2480     101.1120      36.2870       0.1002    -999.2500       2.6920    -999.2500    -999.2500
   1820.1128      10.2210    -999.2500       0.0065      58.9078      36.6870    -999.2500     552.2926      97.6552      35.3023       0.1013    -999.2500       2.6810    -999.2500    -999.2500
   1820.2653      10.1990    -999.2500      -0.0070      59.0760      37.6950    -999.2500     542.3780      94.2070      34.3200       0.1020    -999.2500       2.6700    -999.2500    -999.2500
   1820.4176      10.2000    -999.2500      -0.0040      61.7022      37.3639    -999.2500     563.4694      99.4613      52.0326       0.1005    -999.2500       2.6635    -999.2500    -999.2500
   1820.5699      10.2010    -999.2500      -0.0010      64.3180      37.0330    -999.2500     584.4770     104.7030      69.7030       0.0974    -999.2500       2.6570    -999.2500    -999.2500
   1820.7224      10.2185    -999.2500       0.0035      66.8474      35.3289    -999.2500     578.3657     103.7539      54.2386       0.0964    -999.2500       2.6620    -999.2500    -999.2500
   1820.8748      10.2360    -999.2500       0.0080      69.3670      33.6260    -999.2500     572.2780     102.8070      38.8090       0.0970    -999.2500       2.6670    -999.2500    -999.2500
   1821.0272      10.6057    -999.2500       0.0095      71.6437      32.5377    -999.2500     492.0175      90.2426      42.4123       0.0961    -999.2500       2.6780    -999.2500    -999.2500
   1821.1796      10.9740    -999.2500       0.0110      73.9100      31.4500    -999.2500     412.0560      77.7050      46.0080       0.0941    -999.2500       2.6890    -999.2500    -999.2500
   1821.3320      11.9778    -999.2500       0.0110      82.0406      30.5515    -999.2500     317.0434      62.9327      40.4474       0.0941    -999.2500       2.6855    -999.2500    -999.2500
   1821.4844      12.9780    -999.2500       0.0110      90.1290      29.6540    -999.2500     222.3730      48.1900      34.8980       0.0955    -999.2500       2.6820    -999.2500    -999.2500
   1821.6368      12.3907    -999.2500       0.0070      95.5402      30.0264    -999.2500     223.5005      44.8165      43.7539       0.1018    -999.2500       2.6630    -999.2500    -999.2500
   1821.7892      11.8060    -999.2500       0.0030     100.9240      30.3980    -999.2500     224.6240      41.4520      52.5860       0.1117    -999.2500       2.6440    -999.2500    -999.2500
   1821.9417      11.0907    -999.2500       0.0005      97.0685      30.5251    -999.2500     261.4589      48.3661      45.3218       0.1193    -999.2500       2.6335    -999.2500    -999.2500
   1822.0940      10.3790    -999.2500      -0.0020      93.2320      30.6520    -999.2500     298.1410      55.2570      38.0820       0.1253    -999.2500       2.6230    -999.2500    -999.2500
   1822.2465      10.4326    -999.2500      -0.0055      94.8088      30.9287    -999.2500     320.6257      60.0903      50.7089       0.1245    -999.2500       2.6330    -999.2500    -999.2500
   1822.3988      10.4860    -999.2500      -0.0090      96.3780      31.2050    -999.2500     343.0020      64.9080      63.2950       0.1187    -999.2500       2.6430    -999.2500    -999.2500
   1822.5511      10.4524    -999.2500      -0.0105     100.1318      31.8985    -999.2500     375.7258      68.2417      92.6735       0.1134    -999.2500       2.6535    -999.2500    -999.2500
   1822.7036      10.4190    -999.2500      -0.0120     103.8680      32.5910    -999.2500     408.2960      71.5650     121.9610       0.1084    -999.2500       2.6640    -999.2500    -999.2500
   1822.8560      10.2962    -999.2500      -0.0120     106.6143      31.2376    -999.2500     420.3816      74.1048      91.5317       0.1039    -999.2500       2.6570    -999.2500    -999.2500
   1823.0084      10.1740    -999.2500      -0.0120     109.3480      29.8860    -999.2500     432.4120      76.6370      61.1930       0.0998    -999.2500       2.6500    -999.2500    -999.2500
   1823.1608      10.1755    -999.2500      -0.0150     111.8410      31.6666    -999.2500     412.9377      73.3418      42.9024       0.0954    -999.2500       2.6295    -999.2500    -999.2500
