#------------------------------------------------------------------------------
#
#   Created by  : [OpenWorks] Log Export Utility (LEXP)
#   Created on  : 2016-05-23 11:57:09
#   Project     : CANT971
#   User        : R5K
#   Interpreter : PEP
#
#------------------------------------------------------------------------------
~VERSION INFORMATION
VERS. 2.0 : CWLS Log ASCII Standard - version 2.0
WRAP.  NO : One line per depth step
~WELL INFORMATION
#MNEMONIC   .UNIT                                           VALUE :DESCRIPTION
#------------------------------------------------------------------------------
STRT        .M                                           143.0270 :START DEPTH
STOP        .M                                          2096.0330 :STOP DEPTH
STEP        .M                                             0.1524 :STEP
NULL        .                                           -999.2500 :NULL VALUE
COMP        .                                   PEMEX EXPL & PROD :COMPANY
WELL        .                                                   7 :WELL
FLD         .                                           CANTARELL :FIELD
LOC         .                                             UNKNOWN :LOCATION
CNTY        .                                      CD. DEL CARMEN :COUNTY
STAT        .                                            CAMPECHE :STATE
CTRY        .                                              MEXICO :COUNTRY
SRVC        .                                             UNKNOWN :SERVICE COMPANY
DATE        .                                             UNKNOWN :LOG DATE
UWI         .                                            W-C-0007 :UNIQUE WELL ID
XCOORD      .                                       603360.340000 :SURFACE X
YCOORD      .                                      2145093.880000 :SURFACE Y
LAT         .                                           19.398550 :LATITUDE
LON         .                                          -92.015638 :LONGITUDE
ELEV        .M                                            27.1400 :SURFACE ELEV
ELEV_TYPE   .                                                  KB :ELEV TYPE
~CURVE INFORMATION
#MNEMONIC.UNIT        API CODE       : CURVE DESCRIPTION
#------------------------------------------------------------------------------
DEPTH    .M                          : Measured Depth
CAL      .inches      UNKNOWN        : CAL:UNKNOWN:rC:NONE:v0 (auto-composite)
DRHO     .g/cm3       UNKNOWN        : DRHO:UNKNOWN:rC:NONE:v0 (auto-composite)
DT       .us/ft       UNKNOWN        : DT:UNKNOWN:rC:NONE:v0 (auto-composite)
GR       .api         UNKNOWN        : GR:UNKNOWN:rC:NONE:v0 (auto-composite)
ILD      .ohmm        UNKNOWN        : ILD:UNKNOWN:rC:NONE:v0 (auto-composite)
NPHI     .v/v_decimal UNKNOWN        : NPHI:UNKNOWN:rC:NONE:v0 (auto-composite)
RHOB     .g/cm3       UNKNOWN        : RHOB:UNKNOWN:rC:NONE:v0 (auto-composite)
~A     DEPTH          CAL         DRHO           DT           GR          ILD         NPHI         RHOB
# ...
    530.2754       0.0000       0.2500      40.0000       0.0000       1.6414      -0.1500       1.9500
    530.4278       0.0000       0.2500      40.0000       0.0000       1.6545      -0.1500       1.9500
    530.5802       0.0000       0.2500      40.0000       0.0000       1.6615      -0.1500       1.9500
    530.7326       0.0000       0.2500      40.0000       0.0000       1.6625      -0.1500       1.9500
    530.8850       0.0000       0.2500      40.0000       0.0000       1.6556      -0.1500       1.9500
    531.0374       0.0000       0.2500      40.0000       0.0000       1.6391      -0.1500       1.9500
    531.1898       0.0000       0.2500      40.0000       0.0000       1.6234      -0.1500       1.9500
    531.3422       0.0000       0.2500      40.0000       0.0000       1.6088      -0.1500       1.9500
    531.4946       0.0000       0.2500      40.0000       0.0000       1.5850      -0.1500       1.9500
    531.6470       0.0000       0.2500      40.0000       0.0000       1.5418      -0.1500       1.9500
    531.7994       0.0000       0.2500      40.0000       0.0000       1.4870      -0.1500       1.9500
    531.9518       0.0000       0.2500      40.0000       0.0000       1.4001      -0.1500       1.9500
    532.1042       0.0000       0.2500      40.0000       0.0000       1.3188      -0.1500       1.9500
    532.2566       0.0000       0.2500      40.0000       0.0000       1.2591      -0.1500       1.9500
    532.4090       0.0000       0.2500      40.0000       0.0000       1.2067      -0.1500       1.9500
    532.5614       0.0000       0.2500      40.0000       0.0000       1.1974      -0.1500       1.9500
    532.7138       0.0000       0.2500      40.0000       0.0000       1.1901      -0.1500       1.9500
    532.8662       0.0000       0.2500      40.0000       0.0000       1.2032      -0.1500       1.9500
    533.0186       0.0000       0.2500      40.0000       0.0000       1.2163      -0.1500       1.9500
    533.1710       0.0000       0.2500      40.0000       0.0000       1.2299      -0.1500       1.9500
    533.3234       0.0000       0.2500      40.0000       0.0000       1.2435      -0.1500       1.9500
    533.4758       0.0000       0.2500      40.0000       0.0000       1.2758      -0.1500       1.9500
    533.6282       0.0000       0.2500      40.0000       0.0000       1.3088      -0.1500       1.9500
    533.7806       0.0000       0.2500      40.0000       0.0000       1.3409      -0.1500       1.9500
    533.9330       0.0000       0.2500      40.0000       0.0000       1.3729      -0.1500       1.9500
    534.0854       0.0000       0.2500      40.0000       0.0000       1.3829      -0.1500       1.9500
    534.2378       0.0000       0.2500      40.0000       0.0000       1.3887      -0.1500       1.9500
    534.3902       0.0000       0.2500      40.0000       0.0000       1.3904      -0.1500       1.9500
    534.5426       0.0000       0.2500      40.0000       0.0000       1.3909      -0.1500       1.9500
    534.6950       0.0000       0.2500      40.0000       0.0000       1.4008      -0.1500       1.9500
    534.8474       0.0000       0.2500      40.0000       0.0000       1.4144      -0.1500       1.9500
    534.9998       0.0000       0.2500      40.0000       0.0000       1.4306      -0.1500       1.9500
    535.1522       0.0000       0.2500      40.0000       0.0000       1.4480      -0.1500       1.9500
    535.3046       0.0000       0.2500      40.0000       0.0000       1.4780      -0.1500       1.9500
    535.4570       0.0000       0.2500      40.0000       0.0000       1.5164      -0.1500       1.9500
    535.6094       0.0000       0.2500      40.0000       0.0000       1.5710      -0.1500       1.9500
    535.7618       0.0000       0.2500      40.0000       0.0000       1.6394      -0.1500       1.9500
    535.9142       0.0000       0.2500      40.0000       0.0000       1.7130      -0.1500       1.9500
    536.0666       0.0000       0.2500      40.0000       0.0000       1.7921      -0.1500       1.9500
    536.2190       0.0000       0.2500      40.0000       0.0000       1.8523      -0.1500       1.9500
    536.3714       0.0000       0.2500      40.0000       0.0000       1.8862      -0.1500       1.9500
    536.5238       0.0000       0.2500      40.0000       0.0000       1.9171      -0.1500       1.9500
    536.6762       0.0000       0.2500      40.0000       0.0000       1.9423      -0.1500       1.9500
    536.8286       0.0000       0.2500      40.0000       0.0000       1.9567      -0.1500       1.9500
    536.9810       0.0000       0.2500      40.0000       0.0000       1.9455      -0.1500       1.9500
    537.1334       0.0000       0.2500      40.0000       0.0000       1.9258      -0.1500       1.9500
    537.2858       0.0000       0.2500      40.0000       0.0000       1.8787      -0.1500       1.9500
    537.4382       0.0000       0.2500      40.0000       0.0000       1.8327      -0.1500       1.9500
    537.5906       0.0000       0.2500      40.0000       0.0000       1.7914      -0.1500       1.9500
    537.7430       0.0000       0.2500      40.0000       0.0000       1.7526      -0.1500       1.9500
    537.8954       0.0000       0.2500      40.0000       0.0000       1.7322      -0.1500       1.9500
    538.0478       0.0000       0.2500      40.0000       0.0000       1.7120      -0.1500       1.9500
    538.2002       0.0000       0.2500      40.0000       0.0000       1.6945      -0.1500       1.9500
    538.3526       0.0000       0.2500      40.0000       0.0000       1.6770      -0.1500       1.9500
    538.5050       0.0000       0.2500      40.0000       0.0000       1.6625      -0.1500       1.9500
    538.6574       0.0000       0.2500      40.0000       0.0000       1.6479      -0.1500       1.9500
    538.8098       0.0000       0.2500      40.0000       0.0000       1.6275      -0.1500       1.9500
    538.9622       0.0000       0.2500      40.0000       0.0000       1.6066      -0.1500       1.9500
    539.1146       0.0000       0.2500      40.0000       0.0000       1.6036      -0.1500       1.9500
    539.2670       0.0000       0.2500      40.0000       0.0000       1.6031      -0.1500       1.9500
    539.4194       0.0000       0.2500      40.0000       0.0000       1.6921      -0.1500       1.9500
    539.5718       0.0000       0.2500      40.0000       0.0000       1.8013      -0.1500       1.9500
    539.7242       0.0000       0.2500      40.0000       0.0000       1.8566      -0.1500       1.9500
    539.8766       0.0000       0.2500      40.0000       0.0000       1.8945      -0.1500       1.9500
    540.0290       0.0000       0.2500      40.0000       0.0000       1.8719      -0.1500       1.9500
    540.1814       0.0000       0.2500      40.0000       0.0000       1.8229      -0.1500       1.9500
    540.3338       0.0000       0.2500      40.0000       0.0000       1.7551      -0.1500       1.9500
    540.4862       0.0000       0.2500      40.0000       0.0000       1.6765      -0.1500       1.9500
    540.6386       0.0000       0.2500      40.0000       0.0000       1.5984      -0.1500       1.9500
    540.7910       0.0000       0.2500      40.0000       0.0000       1.5207      -0.1500       1.9500
    540.9434       0.0000       0.2500      40.0000       0.0000       1.4333      -0.1500       1.9500
    541.0958       0.0000       0.2500      40.0000       0.0000       1.3367      -0.1500       1.9500
    541.2482       0.0000       0.2500      40.0000       0.0000       1.2648      -0.1500       1.9500
    541.4006       0.0000       0.2500      40.0000       0.0000       1.2226      -0.1500       1.9500
    541.5530       0.0000       0.2500      40.0000       0.0000       1.1936      -0.1500       1.9500
    541.7054       0.0000       0.2500      40.0000       0.0000       1.1848      -0.1500       1.9500
    541.8578       0.0000       0.2500      40.0000       0.0000       1.1788      -0.1500       1.9500
