#------------------------------------------------------------------------------
#
#   Created by  : [OpenWorks] Log Export Utility (LEXP)
#   Created on  : 2016-05-23 11:56:31
#   Project     : CANT971
#   User        : R5K
#   Interpreter : PEP
#
#------------------------------------------------------------------------------
~VERSION INFORMATION
VERS. 2.0 : CWLS Log ASCII Standard - version 2.0
WRAP.  NO : One line per depth step
~WELL INFORMATION
#MNEMONIC   .UNIT                                           VALUE :DESCRIPTION
#------------------------------------------------------------------------------
STRT        .M                                          1639.8856 :START DEPTH
STOP        .M                                          2789.8960 :STOP DEPTH
STEP        .M                                             0.1524 :STEP
NULL        .                                           -999.2500 :NULL VALUE
COMP        .                                             UNKNOWN :COMPANY
WELL        .                                                 477 :WELL
FLD         .                                             UNKNOWN :FIELD
LOC         .                                             UNKNOWN :LOCATION
CNTY        .                                             UNKNOWN :COUNTY
STAT        .                                             UNKNOWN :STATE
CTRY        .                                             UNKNOWN :COUNTRY
SRVC        .                                             UNKNOWN :SERVICE COMPANY
DATE        .                                             UNKNOWN :LOG DATE
UWI         .                                                 477 :UNIQUE WELL ID
XCOORD      .                                       598704.070000 :SURFACE X
YCOORD      .                                      2143268.860000 :SURFACE Y
LAT         .                                           19.382293 :LATITUDE
LON         .                                          -92.060073 :LONGITUDE
ELEV        .M                                             0.0000 :SURFACE ELEV
ELEV_TYPE   .                                                  KB :ELEV TYPE
~CURVE INFORMATION
#MNEMONIC.UNIT        API CODE       : CURVE DESCRIPTION
#------------------------------------------------------------------------------
DEPTH    .M                          : Measured Depth
CALI     .inches      UNKNOWN        : CALI:litodensidad:rC:NONE:v0 (auto-composite)
CGR      .API         UNKNOWN        : CGR:Espectrometria:rC:NONE:v0 (auto-composite)
DRHO     .g/cm3       UNKNOWN        : DRHO:litodensidad:rC:NONE:v0 (auto-composite)
DT       .us/ft       UNKNOWN        : DT:Sonico:rC:NONE:v0 (auto-composite)
GR       .API         UNKNOWN        : GR:Espectrometria:rC:NONE:v0 (auto-composite)
GR-LWD   .API         UNKNOWN        : GR-LWD:resistivos-LWD:rC:NONE:v0 (auto-composite)
LLD      .ohm.m       UNKNOWN        : LLD:resistivos:rC:NONE:v0 (auto-composite)
LLD-LWD  .ohm.m       UNKNOWN        : LLD-LWD:resistivos-LWD:rC:NONE:v0 (auto-composite)
LLS      .ohm.m       UNKNOWN        : LLS:resistivos:rC:NONE:v0 (auto-composite)
LLS-LWD  .ohm.m       UNKNOWN        : LLS-LWD:resistivos-LWD:rC:NONE:v0 (auto-composite)
MSFL     .ohm.m       UNKNOWN        : MSFL:resistivos:rC:NONE:v0 (auto-composite)
MSFL-LWD .ohm.m       UNKNOWN        : MSFL-LWD:resistivos-LWD:rC:NONE:v0 (auto-composite)
NPHI     .UNKNOWN     UNKNOWN        : NPHI:porosidad:rC:NONE:v0 (auto-composite)
PEF      .UNKNOWN     UNKNOWN        : PEF:litodensidad:rC:NONE:v0 (auto-composite)
POTA     .wtpercent   UNKNOWN        : POTA:PETROWORKS:rC:NONE:v1 
RHOB     .g/cm3       UNKNOWN        : RHOB:litodensidad:rC:NONE:v0 (auto-composite)
THOR     .ppm         UNKNOWN        : THOR:Espectrometria:rC:NONE:v0 (auto-composite)
URAN     .ppm         UNKNOWN        : URAN:Espectrometria:rC:NONE:v0 (auto-composite)
~A     DEPTH         CALI          CGR         DRHO           DT           GR       GR-LWD          LLD      LLD-LWD          LLS      LLS-LWD         MSFL     MSFL-LWD         NPHI          PEF         POTA         RHOB         THOR         URAN
# ...
   2022.1049       8.7651       4.2915       0.0010    -999.2500      36.3583    -999.2500     798.6520    -999.2500     602.6836    -999.2500     849.2014    -999.2500       0.0153       3.5116       0.0027       2.7908       0.1349       3.5701
   2022.2572       8.8268       4.1913      -0.0007    -999.2500      37.8608    -999.2500     832.0859    -999.2500     651.5920    -999.2500     918.1668    -999.2500       0.0149       3.5158       0.0016       2.7921       0.5358       3.7486
   2022.4097       8.7367       4.3766      -0.0032    -999.2500      37.5578    -999.2500     836.2549    -999.2500     662.4351    -999.2500     785.3851    -999.2500       0.0144       3.4915       0.0009       2.7907       0.8972       3.6942
   2022.5620       8.7339       4.7888      -0.0017    -999.2500      36.8769    -999.2500     828.2095    -999.2500     654.2439    -999.2500     504.6368    -999.2500       0.0139       3.4500       0.0005       2.7961       1.1493       3.5725
   2022.7145       8.7303       5.1012      -0.0013    -999.2500      37.6217    -999.2500     856.1486    -999.2500     644.4605    -999.2500     377.6993    -999.2500       0.0135       3.4089       0.0007       2.8019       1.1712       3.6206
   2022.8668       8.7251       6.0732       0.0008    -999.2500      41.0340    -999.2500     931.4005    -999.2500     680.4377    -999.2500     318.9002    -999.2500       0.0133       3.3971       0.0011       2.8040       1.2692       3.8923
   2023.0192       8.7298       7.4619       0.0029    -999.2500      47.0225    -999.2500    1059.2159    -999.2500     760.5355    -999.2500     306.0944    -999.2500       0.0143       3.4244       0.0022       2.7926       1.2355       4.4044
   2023.1716       8.7279       9.1973       0.0077    -999.2500      55.6444    -999.2500    1201.3225    -999.2500     920.0754    -999.2500     401.2484    -999.2500       0.0171       3.4809       0.0038       2.7704       1.0908       5.1711
   2023.3240       8.7281      10.4209       0.0122    -999.2500      63.3795    -999.2500    1251.2773    -999.2500    1061.0128    -999.2500     551.3052    -999.2500       0.0202       3.5256       0.0054       2.7457       0.7982       5.8961
   2023.4764       8.7339      10.0832       0.0122    -999.2500      66.4400    -999.2500    1168.0122    -999.2500    1077.9928    -999.2500     454.7527    -999.2500       0.0223       3.5429       0.0061       2.7290       0.4533       6.2744
   2023.6288       8.7335       8.7479       0.0099    -999.2500      64.1447    -999.2500     940.9012    -999.2500     930.5175    -999.2500     456.6284    -999.2500       0.0221       3.5427       0.0059       2.7291       0.1592       6.1675
   2023.7812       8.7278       6.8249       0.0070    -999.2500      60.7774    -999.2500     781.5216    -999.2500     704.5648    -999.2500     207.2333    -999.2500       0.0200       3.5338       0.0048       2.7443       0.0313       6.0067
   2023.9336       8.7304       4.8017       0.0029    -999.2500      60.0426    -999.2500     689.3287    -999.2500     585.6182    -999.2500      81.2597    -999.2500       0.0179       3.5344       0.0033       2.7608       0.0328       6.1502
   2024.0861       8.7324       3.7793      -0.0001    -999.2500      61.6656    -999.2500     669.5469    -999.2500     522.2934    -999.2500      46.4927    -999.2500       0.0170       3.5488       0.0025       2.7672       0.0747       6.4447
   2024.2384       8.7329       4.9880      -0.0025    -999.2500      62.7735    -999.2500     716.7158    -999.2500     543.0337    -999.2500      73.5117    -999.2500       0.0175       3.5645       0.0029       2.7575       0.2578       6.4334
   2024.3909       8.7326       6.7763      -0.0057    -999.2500      61.1401    -999.2500     785.5828    -999.2500     619.0311    -999.2500     235.4362    -999.2500       0.0194       3.5529       0.0038       2.7330       0.4315       6.0525
   2024.5432       8.7210       7.0246      -0.0118    -999.2500      56.2437    -999.2500     851.9113    -999.2500     682.4797    -999.2500     291.1061    -999.2500       0.0212       3.5049       0.0039       2.7056       0.4489       5.4798
   2024.6957       8.7332       6.0245      -0.0125    -999.2500      49.9933    -999.2500     951.4754    -999.2500     744.8142    -999.2500     283.7950    -999.2500       0.0213       3.4589       0.0030       2.6930       0.5350       4.8952
   2024.8480       8.7324       6.3279      -0.0025    -999.2500      44.5056    -999.2500    1055.1425    -999.2500     820.4370    -999.2500     185.7521    -999.2500       0.0199       3.4743       0.0024       2.7054       0.8269       4.2504
   2025.0004       8.7339       6.7527       0.0072    -999.2500      40.4824    -999.2500    1244.2419    -999.2500     929.6540    -999.2500     192.9339    -999.2500       0.0186       3.5305       0.0021       2.7256       1.0742       3.7552
   2025.1528       8.7376       6.6497       0.0055    -999.2500      38.3522    -999.2500    1504.1309    -999.2500    1168.8778    -999.2500     105.6447    -999.2500       0.0182       3.5690       0.0025       2.7368       0.9116       3.5295
   2025.3052       8.7383       6.0689       0.0017    -999.2500      37.6993    -999.2500    1840.2548    -999.2500    1493.2954    -999.2500     129.7650    -999.2500       0.0183       3.5665       0.0028       2.7409       0.6290       3.5216
   2025.4576       8.7344       5.4633       0.0025    -999.2500      38.2180    -999.2500    2361.3411    -999.2500    1930.5880    -999.2500     151.1516    -999.2500       0.0193       3.5525       0.0029       2.7350       0.3959       3.6467
   2025.6100       8.7324       5.3602       0.0072    -999.2500      39.4351    -999.2500    2589.6101    -999.2500    2566.2891    -999.2500     162.0116    -999.2500       0.0209       3.5617       0.0025       2.7240       0.5450       3.7937
   2025.7625       8.7324       5.0453       0.0059    -999.2500      41.4476    -999.2500    3362.6965    -999.2500    3044.8157    -999.2500      40.1699    -999.2500       0.0228       3.5913       0.0017       2.6998       0.7571       4.0528
   2025.9148       8.7324       3.9137      -0.0016    -999.2500      44.7594    -999.2500    3898.1052    -999.2500    4149.2925    -999.2500      32.4101    -999.2500       0.0244       3.6059       0.0006       2.6799       0.8551       4.5475
   2026.0673       8.7324       5.1924      -0.0120    -999.2500      49.0962    -999.2500    4027.2549    -999.2500    4891.9546    -999.2500      62.6320    -999.2500       0.0257       3.6021       0.0008       2.6709       1.1513       4.8879
   2026.2196       8.7324       8.6459      -0.0139    -999.2500      52.9555    -999.2500    3892.4949    -999.2500    4830.7515    -999.2500      76.7334    -999.2500       0.0267       3.6061       0.0024       2.6800       1.4807       4.9331
   2026.3721       8.7324      11.3632      -0.0045    -999.2500      54.5502    -999.2500    3639.1316    -999.2500    4531.1357    -999.2500      79.6420    -999.2500       0.0261       3.6199       0.0048       2.7026       1.3345       4.8082
   2026.5244       8.7297      12.5869       0.0042    -999.2500      54.4262    -999.2500    3302.1580    -999.2500    4061.1023    -999.2500      89.5740    -999.2500       0.0231       3.6217       0.0064       2.7304       1.0474       4.6581
   2026.6769       8.7261      11.8718       0.0017    -999.2500      53.9100    -999.2500    2942.1177    -999.2500    3561.1001    -999.2500     100.7130    -999.2500       0.0191       3.5917       0.0061       2.7573       0.9437       4.6802
   2026.8292       8.7264      12.1443      -0.0072    -999.2500      55.2805    -999.2500    2694.7881    -999.2500    3255.9641    -999.2500     118.4477    -999.2500       0.0159       3.5465       0.0060       2.7787       1.0560       4.8025
   2026.9816       8.7139      11.5593      -0.0111    -999.2500      59.0693    -999.2500    2577.2627    -999.2500    3199.4165    -999.2500     185.5274    -999.2500       0.0145       3.5032       0.0065       2.7922       0.6868       5.2894
