#------------------------------------------------------------------------------
#
#   Created by  : [OpenWorks] Log Export Utility (LEXP)
#   Created on  : 2016-05-23 11:55:58
#   Project     : CANT971
#   User        : R5K
#   Interpreter : PEP
#
#------------------------------------------------------------------------------
~VERSION INFORMATION
VERS. 2.0 : CWLS Log ASCII Standard - version 2.0
WRAP.  NO : One line per depth step
~WELL INFORMATION
#MNEMONIC   .UNIT                                           VALUE :DESCRIPTION
#------------------------------------------------------------------------------
STRT        .M                                           646.6334 :START DEPTH
STOP        .M                                          2755.8494 :STOP DEPTH
STEP        .M                                             0.1524 :STEP
NULL        .                                           -999.2500 :NULL VALUE
COMP        .                                   PEMEX EXPL & PROD :COMPANY
WELL        .                                                  42 :WELL
FLD         .                                           CANTARELL :FIELD
LOC         .                                             UNKNOWN :LOCATION
CNTY        .                                      CD. DEL CARMEN :COUNTY
STAT        .                                            CAMPECHE :STATE
CTRY        .                                              MEXICO :COUNTRY
SRVC        .                                             UNKNOWN :SERVICE COMPANY
DATE        .                                             UNKNOWN :LOG DATE
UWI         .                                          3060000464 :UNIQUE WELL ID
XCOORD      .                                       599690.710000 :SURFACE X
YCOORD      .                                      2143036.470000 :SURFACE Y
LAT         .                                           19.380144 :LATITUDE
LON         .                                          -92.050691 :LONGITUDE
ELEV        .M                                            26.7400 :SURFACE ELEV
ELEV_TYPE   .                                                  KB :ELEV TYPE
~CURVE INFORMATION
#MNEMONIC.UNIT        API CODE       : CURVE DESCRIPTION
#------------------------------------------------------------------------------
DEPTH    .M                          : Measured Depth
CALI     .inches      UNKNOWN        : CALI:Import:rC:NONE:v0 (auto-composite)
DRHO     .g/cm3       UNKNOWN        : DRHO:Import:rC:NONE:v0 (auto-composite)
DT       .us/ft       UNKNOWN        : DT:Import:rC:NONE:v0 (auto-composite)
GR       .API         UNKNOWN        : GR:Import:rC:NONE:v0 (auto-composite)
ILD      .ohm.m       UNKNOWN        : ILD:Import:rC:NONE:v0 (auto-composite)
ILM      .ohm.m       UNKNOWN        : ILM:Import:rC:NONE:v0 (auto-composite)
LLD      .ohm.m       UNKNOWN        : LLD:Import:rC:NONE:v0 (auto-composite)
LLS      .ohm.m       UNKNOWN        : LLS:Import:rC:NONE:v0 (auto-composite)
MSFL     .ohm.m       UNKNOWN        : MSFL:Import:rC:NONE:v0 (auto-composite)
NPHI     .v/v_decimal UNKNOWN        : NPHI:Import:rC:NONE:v0 (auto-composite)
PEF      .b/elec      UNKNOWN        : PEF:Import:rC:NONE:v0 (auto-composite)
RHOB     .g/cm3       UNKNOWN        : RHOB:Import:rC:NONE:v0 (auto-composite)
~A     DEPTH         CALI         DRHO           DT           GR          ILD          ILM          LLD          LLS         MSFL         NPHI          PEF         RHOB
# ...
   2219.4014       9.0750      -0.0005      50.9329      30.8067    -999.2500    -999.2500    4764.0083    2741.3540    -999.2500       0.0164       5.3178       2.7915
   2219.5537       9.0930      -0.0020      51.1450      34.5840    -999.2500    -999.2500    6080.7129    1867.3020    -999.2500       0.0178       5.6130       2.7890
   2219.7061       9.1030      -0.0025      51.0655      36.5348    -999.2500    -999.2500    5138.9409    2387.4561    -999.2500       0.0177       5.5384       2.7880
   2219.8586       9.1130      -0.0030      50.9860      38.4940    -999.2500    -999.2500    4196.1699    2908.1621    -999.2500       0.0173       5.4640       2.7870
   2220.0110       9.1200      -0.0020      49.6343      39.0527    -999.2500    -999.2500    2568.5842    2607.5078    -999.2500       0.0168       5.2722       2.7935
   2220.1633       9.1270      -0.0010      48.2810      39.6130    -999.2500    -999.2500     939.0690    2306.4971    -999.2500       0.0166       5.0810       2.8000
   2220.3157       9.1290      -0.0005      42.3314      40.3649    -999.2500    -999.2500    2194.6387    2089.1921    -999.2500       0.0175       5.0074       2.8055
   2220.4683       9.1310       0.0000      36.3740      41.1190    -999.2500    -999.2500    3451.8560    1871.6021    -999.2500       0.0195       4.9340       2.8110
   2220.6206       9.1160      -0.0040      39.6548      42.6347    -999.2500    -999.2500    4830.7544    3435.5967    -999.2500       0.0252       5.0272       2.7990
   2220.7729       9.1010      -0.0080      42.9350      44.1550    -999.2500    -999.2500    6211.6348    5001.8389    -999.2500       0.0336       5.1200       2.7870
   2220.9253       9.0880      -0.0195      46.7116      44.9527    -999.2500    -999.2500    5337.4336    5573.7588    -999.2500       0.0479       5.3654       2.7479
   2221.0779       9.0750      -0.0310      50.4880      45.7530    -999.2500    -999.2500    4461.8652    6146.5732    -999.2500       0.0602       5.6100       2.7090
   2221.2302       9.0870      -0.0385      52.0004      44.4007    -999.2500    -999.2500    4671.6753    6099.7046    -999.2500       0.0599       5.7287       2.6815
   2221.3826       9.0990      -0.0460      53.5130      43.0440    -999.2500    -999.2500    4881.8398    6052.7568    -999.2500       0.0548       5.8470       2.6540
   2221.5349       9.0915      -0.0445      53.2255      41.2885    -999.2500    -999.2500    4686.0483    5643.2061    -999.2500       0.0445       5.4669       2.6625
   2221.6873       9.0840      -0.0430      52.9380      39.5270    -999.2500    -999.2500    4489.9009    5232.9121    -999.2500       0.0339       5.0880       2.6710
   2221.8398       9.0860      -0.0395      50.6299      40.5237    -999.2500    -999.2500    4138.8975    4193.9956    -999.2500       0.0269       4.9889       2.6865
   2221.9922       9.0880      -0.0360      48.3210      41.5240    -999.2500    -999.2500    3787.7759    3154.7290    -999.2500       0.0216       4.8900       2.7020
   2222.1445       9.0865      -0.0320      48.6319      43.1974    -999.2500    -999.2500    4326.5010    3583.2129    -999.2500       0.0191       4.9901       2.7275
   2222.2969       9.0850      -0.0280      48.9430      44.8770    -999.2500    -999.2500    4865.4751    4011.8950    -999.2500       0.0179       5.0900       2.7530
   2222.4495       9.0835      -0.0235      49.2959      46.9805    -999.2500    -999.2500    4652.2759    4159.0869    -999.2500       0.0190       4.9198       2.7725
   2222.6018       9.0820      -0.0190      49.6490      49.0920    -999.2500    -999.2500    4438.9512    4306.3652    -999.2500       0.0207       4.7500       2.7920
   2222.7542       9.0925      -0.0150      49.8104      50.5062    -999.2500    -999.2500    4133.6289    4135.6870    -999.2500       0.0226       4.6889       2.7970
   2222.9065       9.1030      -0.0110      49.9720      51.9260    -999.2500    -999.2500    3828.0891    3964.8870    -999.2500       0.0244       4.6280       2.8020
   2223.0591       9.1230      -0.0080      50.4543      53.1984    -999.2500    -999.2500    4087.8250    3782.0779    -999.2500       0.0260       4.9784       2.7945
   2223.2114       9.1430      -0.0050      50.9370      54.4760    -999.2500    -999.2500    4347.7788    3599.1150    -999.2500       0.0273       5.3280       2.7870
   2223.3638       9.1545      -0.0055      50.9060      60.3423    -999.2500    -999.2500    5440.9077    2363.4712    -999.2500       0.0282       5.1999       2.7710
   2223.5161       9.1660      -0.0060      50.8750      66.2330    -999.2500    -999.2500    6535.0918    1126.6350    -999.2500       0.0285       5.0720       2.7550
   2223.6685       9.1745      -0.0090      50.6721      64.7522    -999.2500    -999.2500    5746.5430    3196.8469    -999.2500       0.0264       4.6821       2.7400
   2223.8210       9.1830      -0.0120      50.4690      63.2650    -999.2500    -999.2500    4957.1338    5269.3188    -999.2500       0.0237       4.2930       2.7250
   2223.9734       9.1915      -0.0115      50.3300      60.6342    -999.2500    -999.2500    6538.1484    4192.5371    -999.2500       0.0204       4.3556       2.7295
   2224.1257       9.2000      -0.0110      50.1910      57.9960    -999.2500    -999.2500    8121.0859    3114.4451    -999.2500       0.0181       4.4180       2.7340
   2224.2781       9.1945      -0.0070      50.2125      56.8028    -999.2500    -999.2500    6433.0771    4607.8735    -999.2500       0.0206       4.8277       2.7410
   2224.4307       9.1890      -0.0030      50.2340      55.6060    -999.2500    -999.2500    4742.8008    6103.3081    -999.2500       0.0246       5.2360       2.7480
   2224.5830       9.1755      -0.0020      50.7940      56.3364    -999.2500    -999.2500    5411.3770    3825.1230    -999.2500       0.0302       5.8866       2.7460
   2224.7354       9.1620      -0.0010      51.3540      57.0690    -999.2500    -999.2500    6080.9341    1543.5940    -999.2500       0.0348       6.5350       2.7440
   2224.8877       9.1505      -0.0040      50.9800      60.5544    -999.2500    -999.2500    7064.4941    3436.3545    -999.2500       0.0333       6.6312       2.7475
   2225.0403       9.1390      -0.0070      50.6060      64.0510    -999.2500    -999.2500    8049.6230    5332.1338    -999.2500       0.0300       6.7270       2.7510
   2225.1926       9.1455      -0.0125      50.4205      65.4043    -999.2500    -999.2500    7916.3911    7521.0908    -999.2500       0.0259       6.3309       2.7585
   2225.3450       9.1520      -0.0180      50.2350      66.7620    -999.2500    -999.2500    7782.9302    9713.8115    -999.2500       0.0224       5.9360       2.7660
   2225.4973       9.1720      -0.0230      50.9829      67.7703    -999.2500    -999.2500    5297.0020    7891.8779    -999.2500       0.0234       5.7477       2.7625
   2225.6497       9.1920      -0.0280      51.7310      68.7820    -999.2500    -999.2500    2806.4829    6066.5801    -999.2500       0.0252       5.5600       2.7590
   2225.8022       9.1890      -0.0260      53.4192      71.0130    -999.2500    -999.2500    1982.0476    4980.7324    -999.2500       0.0254       5.6281       2.7565
   2225.9546       9.1860      -0.0240      55.1080      73.2520    -999.2500    -999.2500    1157.3090    3894.4851    -999.2500       0.0247       5.6960       2.7540
   2226.1069       9.1705      -0.0190      53.6189      72.4170    -999.2500    -999.2500    1446.9745    4720.7192    -999.2500       0.0215       5.6449       2.7630
   2226.2593       9.1550      -0.0140      52.1290      71.5790    -999.2500    -999.2500    1736.7830    5547.3608    -999.2500       0.0183       5.5940       2.7720
   2226.4119       9.1655      -0.0130      51.9016      68.7849    -999.2500    -999.2500    2293.0867    5941.4731    -999.2500       0.0167       5.6456       2.7710
   2226.5642       9.1760      -0.0120      51.6740      65.9800    -999.2500    -999.2500    2849.7351    6335.8291    -999.2500       0.0159       5.6970       2.7700
