#------------------------------------------------------------------------------
#
#   Created by  : [OpenWorks] Log Export Utility (LEXP)
#   Created on  : 2016-05-23 11:56:01
#   Project     : CANT971
#   User        : R5K
#   Interpreter : PEP
#
#------------------------------------------------------------------------------
~VERSION INFORMATION
VERS. 2.0 : CWLS Log ASCII Standard - version 2.0
WRAP.  NO : One line per depth step
~WELL INFORMATION
#MNEMONIC   .UNIT                                           VALUE :DESCRIPTION
#------------------------------------------------------------------------------
STRT        .M                                          1572.0055 :START DEPTH
STOP        .M                                          3732.1230 :STOP DEPTH
STEP        .M                                             0.1524 :STEP
NULL        .                                           -999.2500 :NULL VALUE
COMP        .                                             UNKNOWN :COMPANY
WELL        .                                               428-V :WELL
FLD         .                                             UNKNOWN :FIELD
LOC         .                                             UNKNOWN :LOCATION
CNTY        .                                             UNKNOWN :COUNTY
STAT        .                                             UNKNOWN :STATE
CTRY        .                                             UNKNOWN :COUNTRY
SRVC        .                                             UNKNOWN :SERVICE COMPANY
DATE        .                                             UNKNOWN :LOG DATE
UWI         .                                               428-V :UNIQUE WELL ID
XCOORD      .                                            0.000000 :SURFACE X
YCOORD      .                                            0.000000 :SURFACE Y
LAT         .                                            0.000000 :LATITUDE
LON         .                                            0.000000 :LONGITUDE
ELEV        .M                                             0.0000 :SURFACE ELEV
ELEV_TYPE   .                                                  KB :ELEV TYPE
~CURVE INFORMATION
#MNEMONIC .UNIT        API CODE       : CURVE DESCRIPTION
#------------------------------------------------------------------------------
DEPTH     .M                          : Measured Depth
CALIH-LWD .inches      UNKNOWN        : CALIH-LWD:PETROWORKS:rC:NONE:v5 
CALIV-LWD .inches      UNKNOWN        : CALIV-LWD:PETROWORKS:rC:NONE:v5 
CGR       .API         UNKNOWN        : CGR:Espectrometria:rC:NONE:v0 (auto-composite)
DRHO-LWD  .g/cm3       UNKNOWN        : DRHO-LWD:PETROWORKS:rC:NONE:v5 
DT        .us/ft       UNKNOWN        : DT:sonico:rC:NONE:v0 (auto-composite)
GR        .API         UNKNOWN        : GR:Espectrometria:rC:NONE:v0 (auto-composite)
GR-LWD    .API         UNKNOWN        : GR-LWD:PETROWORKS:rC:NONE:v3 
ILD-LWD   .ohm.m       UNKNOWN        : ILD-LWD:PETROWORKS:rC:NONE:v2 
ILM-LWD   .ohm.m       UNKNOWN        : ILM-LWD:PETROWORKS:rC:NONE:v2 
LLD-LWD   .ohm.m       UNKNOWN        : LLD-LWD:registros-LWD:rC:NONE:v0 (auto-composite)
LLS-LWD   .ohm.m       UNKNOWN        : LLS-LWD:registros-LWD:rC:NONE:v0 (auto-composite)
MSFL-LWD  .ohm.m       UNKNOWN        : MSFL-LWD:registros-LWD:rC:NONE:v0 (auto-composite)
NPHI-LWD  .v/v_decimal UNKNOWN        : NPHI-LWD:PETROWORKS:rC:NONE:v5 
PEF-LWD   .b/elec      UNKNOWN        : PEF-LWD:PETROWORKS:rC:NONE:v5 
POTA      .wtpercent   UNKNOWN        : POTA:Espectrometria:rC:NONE:v0 (auto-composite)
RHOB-LWD  .g/cm3       UNKNOWN        : RHOB-LWD:PETROWORKS:rC:NONE:v5 
THOR      .UNKNOWN     UNKNOWN        : THOR:Espectrometria:rC:NONE:v0 (auto-composite)
URAN      .UNKNOWN     UNKNOWN        : URAN:Espectrometria:rC:NONE:v0 (auto-composite)
~A     DEPTH    CALIH-LWD    CALIV-LWD          CGR     DRHO-LWD           DT           GR       GR-LWD      ILD-LWD      ILM-LWD      LLD-LWD      LLS-LWD     MSFL-LWD     NPHI-LWD      PEF-LWD         POTA     RHOB-LWD         THOR         URAN
# ...
   2728.7214      10.2160       9.8853    -999.2500       0.0236    -999.2500    -999.2500      47.1730    -999.2500    -999.2500      12.4895      14.3626      10.7314       0.0727       2.7239    -999.2500       2.6926    -999.2500    -999.2500
   2728.8738      10.2388       9.9231    -999.2500       0.0100    -999.2500    -999.2500      48.0617    -999.2500    -999.2500      11.7864      14.1426      11.3778       0.0738       2.7569    -999.2500       2.6887    -999.2500    -999.2500
   2729.0264      10.2118       9.9308    -999.2500       0.0228    -999.2500    -999.2500      50.2193    -999.2500    -999.2500      18.2551      21.1982      23.7991       0.0748       2.7248    -999.2500       2.7008    -999.2500    -999.2500
   2729.1787      10.1362       9.9138    -999.2500       0.0627    -999.2500    -999.2500      51.9796    -999.2500    -999.2500       6.4669       8.3344       8.3913       0.0748       2.6324    -999.2500       2.7203    -999.2500    -999.2500
   2729.3311       9.9715       9.9359    -999.2500       0.1105    -999.2500    -999.2500      51.9906    -999.2500    -999.2500       9.9347      13.0979       8.6060       0.0749       2.5631    -999.2500       2.7061    -999.2500    -999.2500
   2729.4834       9.8114       9.9520    -999.2500       0.1234    -999.2500    -999.2500      49.9358    -999.2500    -999.2500      12.3996      10.1121       8.2462       0.0763       2.5419    -999.2500       2.6882    -999.2500    -999.2500
   2729.6360       9.7364       9.9358    -999.2500       0.0969    -999.2500    -999.2500      45.7813    -999.2500    -999.2500       9.5339      18.0863       7.3631       0.0782       2.5528    -999.2500       2.6878    -999.2500    -999.2500
   2729.7883       9.9426       9.9050    -999.2500       0.0698    -999.2500    -999.2500      39.7671    -999.2500    -999.2500      11.5391      11.9574      11.8219       0.0758       2.5637    -999.2500       2.7145    -999.2500    -999.2500
   2729.9407      10.1095       9.9121    -999.2500       0.0614    -999.2500    -999.2500      33.0594    -999.2500    -999.2500      11.9475      14.3167      12.3750       0.0719       2.5676    -999.2500       2.7414    -999.2500    -999.2500
   2730.0930       9.9427      10.0440    -999.2500       0.0434    -999.2500    -999.2500      28.3562    -999.2500    -999.2500      12.8439      16.1671      15.8091       0.0635       2.6593    -999.2500       2.7397    -999.2500    -999.2500
   2730.2456       9.8488      10.0130    -999.2500       0.0299    -999.2500    -999.2500      26.1726    -999.2500    -999.2500      19.7613      22.1623      26.3772       0.0578       2.7208    -999.2500       2.7415    -999.2500    -999.2500
   2730.3979       9.8657       9.8366    -999.2500       0.0302    -999.2500    -999.2500      25.4562    -999.2500    -999.2500      24.7173      33.5540      39.4260       0.0565       2.7207    -999.2500       2.7512    -999.2500    -999.2500
   2730.5503       9.7605       9.7993    -999.2500       0.0310    -999.2500    -999.2500      25.2635    -999.2500    -999.2500      50.4754      57.7977      68.7025       0.0533       2.7864    -999.2500       2.7687    -999.2500    -999.2500
   2730.7026       9.7506       9.8100    -999.2500       0.0308    -999.2500    -999.2500      24.8730    -999.2500    -999.2500      31.0951      53.3480      59.6490       0.0503       2.8346    -999.2500       2.7799    -999.2500    -999.2500
   2730.8550       9.7706       9.7194    -999.2500       0.0354    -999.2500    -999.2500      24.8780    -999.2500    -999.2500      79.0682     111.3645     101.8097       0.0470       2.7692    -999.2500       2.7897    -999.2500    -999.2500
   2731.0076       9.7877       9.8056    -999.2500       0.0410    -999.2500    -999.2500      24.4025    -999.2500    -999.2500     117.4696     188.8386     108.0180       0.0448       2.7212    -999.2500       2.7956    -999.2500    -999.2500
   2731.1599       9.8164       9.9923    -999.2500       0.0457    -999.2500    -999.2500      24.1898    -999.2500    -999.2500      44.6245      83.9591      97.4615       0.0433       2.7005    -999.2500       2.7987    -999.2500    -999.2500
   2731.3123       9.8639      10.2827    -999.2500       0.0449    -999.2500    -999.2500      23.9997    -999.2500    -999.2500     137.2185     160.6351     140.6757       0.0405       2.6684    -999.2500       2.8013    -999.2500    -999.2500
   2731.4646       9.8485      10.1667    -999.2500       0.0448    -999.2500    -999.2500      24.4614    -999.2500    -999.2500      63.8063      83.3939     134.5612       0.0403       2.6456    -999.2500       2.8051    -999.2500    -999.2500
   2731.6172       9.8817       9.8332    -999.2500       0.0671    -999.2500    -999.2500      25.4361    -999.2500    -999.2500      56.9820      76.7091      81.6616       0.0414       2.5804    -999.2500       2.8289    -999.2500    -999.2500
   2731.7695       9.8450       9.7833    -999.2500       0.0717    -999.2500    -999.2500      26.6563    -999.2500    -999.2500      44.1222      62.4456      42.2610       0.0420       2.5684    -999.2500       2.8339    -999.2500    -999.2500
   2731.9219       9.7789       9.8267    -999.2500       0.0687    -999.2500    -999.2500      26.3929    -999.2500    -999.2500      69.8951      85.8680      60.5831       0.0424       2.5777    -999.2500       2.8311    -999.2500    -999.2500
   2732.0742       9.6735       9.8641    -999.2500       0.0569    -999.2500    -999.2500      24.0722    -999.2500    -999.2500      76.1138      86.2429      72.0119       0.0433       2.6195    -999.2500       2.8191    -999.2500    -999.2500
   2732.2268       9.6544       9.8149    -999.2500       0.0504    -999.2500    -999.2500      20.6950    -999.2500    -999.2500     110.1248     164.3091      71.1739       0.0435       2.6390    -999.2500       2.8127    -999.2500    -999.2500
   2732.3792       9.7874       9.9861    -999.2500       0.0271    -999.2500    -999.2500      18.8871    -999.2500    -999.2500      46.0486      90.0877     172.5175       0.0393       2.6826    -999.2500       2.8053    -999.2500    -999.2500
   2732.5315       9.7176       9.9774    -999.2500       0.0163    -999.2500    -999.2500      18.0451    -999.2500    -999.2500     590.2611    1087.6721     467.8835       0.0377       2.7017    -999.2500       2.8049    -999.2500    -999.2500
   2732.6838       9.6051       9.9257    -999.2500       0.0086    -999.2500    -999.2500      17.2023    -999.2500    -999.2500     237.8204     309.6915     361.6384       0.0369       2.7150    -999.2500       2.8060    -999.2500    -999.2500
   2732.8362      10.1301      10.0137    -999.2500       0.0055    -999.2500    -999.2500      15.9827    -999.2500    -999.2500     741.7134     805.9757     583.2877       0.0319       2.6451    -999.2500       2.8164    -999.2500    -999.2500
   2732.9888      10.2417      10.0936    -999.2500       0.0062    -999.2500    -999.2500      17.1186    -999.2500    -999.2500     504.2368     453.9702     475.3106       0.0304       2.6096    -999.2500       2.8172    -999.2500    -999.2500
   2733.1411       9.8319       9.6481    -999.2500       0.0095    -999.2500    -999.2500      19.9438    -999.2500    -999.2500      89.1658     211.5540     178.2746       0.0357       2.8056    -999.2500       2.8001    -999.2500    -999.2500
   2733.2935       9.7533       9.5974    -999.2500       0.0080    -999.2500    -999.2500      23.8296    -999.2500    -999.2500      74.8161      98.6313      76.9805       0.0379       2.8907    -999.2500       2.7953    -999.2500    -999.2500
   2733.4458       9.7072       9.5851    -999.2500       0.0061    -999.2500    -999.2500      27.4275    -999.2500    -999.2500      77.9396     118.5489      48.4745       0.0397       2.9641    -999.2500       2.7917    -999.2500    -999.2500
   2733.5984    -238.0976    -238.4747    -999.2500       0.0052    -999.2500    -999.2500      29.4311    -999.2500    -999.2500      78.2437      95.3319      60.2572       0.0418       2.9634    -999.2500       2.8020    -999.2500    -999.2500
