#------------------------------------------------------------------------------
#
#   Created by  : [OpenWorks] Log Export Utility (LEXP)
#   Created on  : 2016-05-23 11:52:51
#   Project     : CANT971
#   User        : R5K
#   Interpreter : PEP
#
#------------------------------------------------------------------------------
~VERSION INFORMATION
VERS. 2.0 : CWLS Log ASCII Standard - version 2.0
WRAP.  NO : One line per depth step
~WELL INFORMATION
#MNEMONIC   .UNIT                                           VALUE :DESCRIPTION
#------------------------------------------------------------------------------
STRT        .M                                           691.4386 :START DEPTH
STOP        .M                                          2836.4685 :STOP DEPTH
STEP        .M                                             0.1524 :STEP
NULL        .                                           -999.2500 :NULL VALUE
COMP        .                                   PEMEX EXPL & PROD :COMPANY
WELL        .                                                2094 :WELL
FLD         .                                           CANTARELL :FIELD
LOC         .                                             UNKNOWN :LOCATION
CNTY        .                                      CD. DEL CARMEN :COUNTY
STAT        .                                            CAMPECHE :STATE
CTRY        .                                              MEXICO :COUNTRY
SRVC        .                                             UNKNOWN :SERVICE COMPANY
DATE        .                                             UNKNOWN :LOG DATE
UWI         .                                          3060000525 :UNIQUE WELL ID
XCOORD      .                                       601711.170000 :SURFACE X
YCOORD      .                                      2142342.970000 :SURFACE Y
LAT         .                                           19.373776 :LATITUDE
LON         .                                          -92.031490 :LONGITUDE
ELEV        .M                                            24.0000 :SURFACE ELEV
ELEV_TYPE   .                                                  KB :ELEV TYPE
~CURVE INFORMATION
#MNEMONIC.UNIT        API CODE       : CURVE DESCRIPTION
#------------------------------------------------------------------------------
DEPTH    .M                          : Measured Depth
CALI     .in          UNKNOWN        : CALI:registros:rC:NONE:v0 (auto-composite)
DRHO     .g/cm3       UNKNOWN        : DRHO:registros:rC:NONE:v0 (auto-composite)
DT       .us/ft       UNKNOWN        : DT:registros:rC:NONE:v0 (auto-composite)
GR       .API         UNKNOWN        : GR:registros:rC:NONE:v0 (auto-composite)
ILD      .ohm.m       UNKNOWN        : ILD:registros:rC:NONE:v0 (auto-composite)
ILM      .ohm.m       UNKNOWN        : ILM:registros:rC:NONE:v0 (auto-composite)
LLD      .ohm.m       UNKNOWN        : LLD:registros:rC:NONE:v0 (auto-composite)
LLS      .ohm.m       UNKNOWN        : LLS:registros:rC:NONE:v0 (auto-composite)
MSFL     .ohm.m       UNKNOWN        : MSFL:registros:rC:NONE:v0 (auto-composite)
NPHI     .v/v_decimal UNKNOWN        : NPHI:registros:rC:NONE:v0 (auto-composite)
PEF      .b/elec      UNKNOWN        : PEF:registros:rC:NONE:v0 (auto-composite)
RHOB     .g/cm3       UNKNOWN        : RHOB:registros:rC:NONE:v0 (auto-composite)
~A     DEPTH         CALI         DRHO           DT           GR          ILD          ILM          LLD          LLS         MSFL         NPHI          PEF         RHOB
# ...
   2234.9458       8.6035       0.0095      59.7122      28.9784    -999.2500    -999.2500      10.6413      11.6764      26.6058       0.0139       5.2820       2.6685
   2235.0981       8.6163       0.0070      63.7825      29.8480    -999.2500    -999.2500      10.0900      11.2600      27.6720       0.0165       5.2296       2.6558
   2235.2505       8.6110       0.0035      62.1239      30.2104    -999.2500    -999.2500       9.5304      10.7255      19.7049       0.0191       5.1652       2.6380
   2235.4031       8.6059       0.0002      60.3014      30.5700    -999.2500    -999.2500       8.9750      10.1950      11.7860       0.0218       5.0980       2.6207
   2235.5554       8.6240       0.0015      59.6511      32.2880    -999.2500    -999.2500       8.2899       9.1782       9.8147       0.0247       4.9753       2.6225
   2235.7078       8.6434       0.0030      59.0941      33.9930    -999.2500    -999.2500       7.6100       8.1690       7.8550       0.0288       4.8554       2.6250
   2235.8601       8.6750       0.0055      59.6140      38.1197    -999.2500    -999.2500       6.7222       7.2366       8.6819       0.0353       4.8665       2.6290
   2236.0127       8.7036       0.0080      60.2012      42.2160    -999.2500    -999.2500       5.8410       6.3110       9.5040       0.0436       4.8906       2.6330
   2236.1650       8.6507       0.0100      61.4413      44.7778    -999.2500    -999.2500       5.1640       5.4173       8.1261       0.0541       5.1007       2.6380
   2236.3174       8.5963       0.0118      62.6348      47.3210    -999.2500    -999.2500       4.4920       4.5300       6.7560       0.0618       5.3109       2.6421
   2236.4697       8.5940       0.0095      62.3298      52.2406    -999.2500    -999.2500       4.3219       4.2947       8.5821       0.0605       5.3125       2.6240
   2236.6223       8.5942       0.0070      61.9678      57.1250    -999.2500    -999.2500       4.1530       4.0610      10.3980       0.0553       5.3022       2.6057
   2236.7747       8.5980       0.0045      61.7551      57.5324    -999.2500    -999.2500       3.8028       3.8558       7.0824       0.0500       5.2267       2.6020
   2236.9270       8.6016       0.0021      61.6138      57.9370    -999.2500    -999.2500       3.4550       3.6520       3.7900       0.0477       5.1438       2.5995
   2237.0793       8.5960       0.0015      62.8633      56.7936    -999.2500    -999.2500       3.6584       3.8443       4.5662       0.0526       4.9633       2.6070
   2237.2317       8.5906       0.0011      64.1665      55.6580    -999.2500    -999.2500       3.8600       4.0350       5.3370       0.0612       4.7762       2.6149
   2237.3843       8.5985       0.0035      65.4692      54.7810    -999.2500    -999.2500       4.2471       4.2343       7.2435       0.0715       4.5441       2.6215
   2237.5366       8.6076       0.0061      66.7509      53.9100    -999.2500    -999.2500       4.6310       4.4320       9.1370       0.0822       4.3213       2.6280
   2237.6890       8.6295       0.0110      67.7600      52.6920    -999.2500    -999.2500       4.5667       4.3667       8.2877       0.0926       4.3494       2.6340
   2237.8413       8.6520       0.0159      68.6755      51.4820    -999.2500    -999.2500       4.5030       4.3020       7.4440       0.1002       4.3956       2.6395
   2237.9939       8.6760       0.0180      68.1338      50.7040    -999.2500    -999.2500       4.3303       4.1810       6.9469       0.1016       4.5562       2.6345
   2238.1462       8.6991       0.0197      67.4560      49.9310    -999.2500    -999.2500       4.1590       4.0610       6.4530       0.0972       4.7187       2.6289
   2238.2986       8.7055       0.0145      65.4946      49.5419    -999.2500    -999.2500       4.2649       3.9144       5.4242       0.0849       4.8017       2.6220
   2238.4509       8.7107       0.0093      63.5364      49.1560    -999.2500    -999.2500       4.3700       3.7690       4.4020       0.0715       4.8729       2.6163
   2238.6035       8.7110       0.0090      62.5922      49.2313    -999.2500    -999.2500       4.0738       3.7745       4.5224       0.0636       4.7908       2.6355
   2238.7559       8.7110       0.0091      61.7421      49.3060    -999.2500    -999.2500       3.7800       3.7800       4.6420       0.0586       4.7039       2.6550
   2238.9082       8.7110       0.0110      61.5306      49.9103    -999.2500    -999.2500       3.7895       3.8212       5.7248       0.0557       4.6880       2.6560
   2239.0605       8.7110       0.0130      61.3413      50.5100    -999.2500    -999.2500       3.7990       3.8620       6.8010       0.0530       4.6746       2.6558
   2239.2129       8.7110       0.0155      60.9013      52.0343    -999.2500    -999.2500       4.0023       3.9308       7.3858       0.0487       4.6350       2.6515
   2239.3655       8.7110       0.0180      60.4685      53.5470    -999.2500    -999.2500       4.2040       3.9990       7.9670       0.0446       4.6091       2.6473
   2239.5178       8.7110       0.0200      60.3498      53.1821    -999.2500    -999.2500       4.3365       4.0934       6.9284       0.0423       4.8472       2.6480
   2239.6702       8.7106       0.0217      60.2737      52.8200    -999.2500    -999.2500       4.4680       4.1870       5.8960       0.0413       5.0839       2.6483
   2239.8225       8.7030       0.0185      60.6007      50.8482    -999.2500    -999.2500       4.5187       4.2537       6.7795       0.0413       5.0137       2.6370
   2239.9751       8.6958       0.0153      60.9271      48.8910    -999.2500    -999.2500       4.5690       4.3200       7.6580       0.0423       4.9257       2.6262
   2240.1274       8.7015       0.0180      60.8748      49.8394    -999.2500    -999.2500       4.8325       4.4751       7.9147       0.0444       4.8462       2.6345
   2240.2798       8.7077       0.0211      60.8608      50.7810    -999.2500    -999.2500       5.0940       4.6290       8.1700       0.0473       4.7681       2.6441
   2240.4321       8.7095       0.0255      61.8332      50.0042    -999.2500    -999.2500       4.9480       4.5156       7.3984       0.0509       4.7046       2.6555
   2240.5847       8.7109       0.0297      62.8387      49.2330    -999.2500    -999.2500       4.8030       4.4030       6.6310       0.0550       4.6270       2.6661
   2240.7371       8.7110       0.0295      63.5065      48.5988    -999.2500    -999.2500       5.3017       4.5912       7.2030       0.0591       4.3090       2.6620
   2240.8894       8.7115       0.0287      64.0728      47.9690    -999.2500    -999.2500       5.7970       4.7780       7.7710       0.0619       3.9957       2.6571
   2241.0417       8.7190       0.0240      63.4481      48.9017    -999.2500    -999.2500       5.7458       4.7388       7.5006       0.0616       4.0164       2.6530
   2241.1941       8.7261       0.0189      62.8880      49.8280    -999.2500    -999.2500       5.6950       4.7000       7.2320       0.0650       4.0710       2.6491
   2241.3467       8.7190       0.0120      64.4048      49.8275    -999.2500    -999.2500       5.4088       4.3917       6.9174       0.0812       4.3110       2.6460
   2241.4990       8.7115       0.0054      65.9503      49.8270    -999.2500    -999.2500       5.1250       4.0860       6.6050       0.0978       4.5498       2.6421
   2241.6514       8.7110       0.0050      66.0465      48.9175    -999.2500    -999.2500       4.8644       4.0865       6.6070       0.1025       4.5830       2.6250
   2241.8037       8.7110       0.0052      65.9007      48.0140    -999.2500    -999.2500       4.6060       4.0870       6.6090       0.1021       4.6138       2.6080
   2241.9563       8.7110       0.0075      63.6914      47.4582    -999.2500    -999.2500       4.5719       4.1161       7.8731       0.1006       4.8179       2.6055
   2242.1086       8.7110       0.0102      61.6066      46.9060    -999.2500    -999.2500       4.5380       4.1450       9.1290       0.0999       5.0203       2.6048
