#------------------------------------------------------------------------------
#
#   Created by  : [OpenWorks] Log Export Utility (LEXP)
#   Created on  : 2016-05-23 11:50:15
#   Project     : CANT971
#   User        : R5K
#   Interpreter : PEP
#
#------------------------------------------------------------------------------
~VERSION INFORMATION
VERS. 2.0 : CWLS Log ASCII Standard - version 2.0
WRAP.  NO : One line per depth step
~WELL INFORMATION
#MNEMONIC   .UNIT                                           VALUE :DESCRIPTION
#------------------------------------------------------------------------------
STRT        .M                                          2144.1199 :START DEPTH
STOP        .M                                          3100.2776 :STOP DEPTH
STEP        .M                                             0.1524 :STEP
NULL        .                                           -999.2500 :NULL VALUE
COMP        .                                   PEMEX EXPL & PROD :COMPANY
WELL        .                                               1004D :WELL
FLD         .                                           CANTARELL :FIELD
LOC         .                                             UNKNOWN :LOCATION
CNTY        .                                      CD. DEL CARMEN :COUNTY
STAT        .                                            CAMPECHE :STATE
CTRY        .                                              MEXICO :COUNTRY
SRVC        .                                             UNKNOWN :SERVICE COMPANY
DATE        .                                             UNKNOWN :LOG DATE
UWI         .                                               1004D :UNIQUE WELL ID
XCOORD      .                                       594534.600000 :SURFACE X
YCOORD      .                                      2142053.350000 :SURFACE Y
LAT         .                                           19.371510 :LATITUDE
LON         .                                          -92.099834 :LONGITUDE
ELEV        .M                                            30.0000 :SURFACE ELEV
ELEV_TYPE   .                                                  KB :ELEV TYPE
~CURVE INFORMATION
#MNEMONIC.UNIT        API CODE       : CURVE DESCRIPTION
#------------------------------------------------------------------------------
DEPTH    .M                          : Measured Depth
CALI     .in          UNKNOWN        : CALI:litodensidad:rC:NONE:v0 (auto-composite)
DRHO     .g/cm3       UNKNOWN        : DRHO:litodensidad:rC:NONE:v0 (auto-composite)
DT       .us/ft       UNKNOWN        : DT:DT-Load:rC:NONE:v0 (auto-composite)
GR       .API         UNKNOWN        : GR:TMDL:rC:NONE:v0 (auto-composite)
GR-LWD   .API         UNKNOWN        : GR-LWD:PETROWORKS:rC:NONE:v1 
ILD-LWD  .ohm.m       UNKNOWN        : ILD-LWD:resistivos-LWD:rC:NONE:v0 (auto-composite)
ILM-LWD  .ohm.m       UNKNOWN        : ILM-LWD:resistivos-LWD:rC:NONE:v0 (auto-composite)
LLD-LWD  .ohm.m       UNKNOWN        : LLD-LWD:resistivos-LWD:rC:NONE:v0 (auto-composite)
LLS      .ohm.m       UNKNOWN        : LLS:resistivos:rC:NONE:v0 (auto-composite)
LLS-LWD  .ohm.m       UNKNOWN        : LLS-LWD:resistivos-LWD:rC:NONE:v0 (auto-composite)
MSFL     .ohm.m       UNKNOWN        : MSFL:resistivos:rC:NONE:v0 (auto-composite)
MSFL-LWD .ohm.m       UNKNOWN        : MSFL-LWD:resistivos-LWD:rC:NONE:v0 (auto-composite)
NPHI     .v/v_decimal UNKNOWN        : NPHI:PETROWORKS:rC:NONE:v2 
PEF      .b/elec      UNKNOWN        : PEF:litodensidad:rC:NONE:v0 (auto-composite)
RHOB     .g/cm3       UNKNOWN        : RHOB:litodensidad:rC:NONE:v0 (auto-composite)
~A     DEPTH         CALI         DRHO           DT           GR       GR-LWD      ILD-LWD      ILM-LWD      LLD-LWD          LLS      LLS-LWD         MSFL     MSFL-LWD         NPHI          PEF         RHOB
# ...
   2649.3259       3.5598       1.5680    -999.2500    -999.2500      40.3720    -999.2500    -999.2500    3455.6843       0.0877    2336.3843       0.0675    1007.8207       0.0528      10.0000       4.6288
   2649.4783       3.5784       1.5693    -999.2500    -999.2500      40.2255    -999.2500    -999.2500   11333.8818       0.0987    4124.9277       0.0662     528.5049       0.0596      10.0000       4.6288
   2649.6306       3.5636       1.5740    -999.2500    -999.2500      39.3133    -999.2500    -999.2500   12260.5879       0.1381   10648.1914       0.0648    4605.3848       0.0605      10.0000       4.6288
   2649.7830       3.5784       1.5889    -999.2500    -999.2500      39.1234    -999.2500    -999.2500   12260.5879       0.0961   13096.7178       0.0641    4672.0200       0.0575      10.0000       4.6288
   2649.9355       3.5636       1.6190    -999.2500    -999.2500      39.1650    -999.2500    -999.2500   12260.5879       0.0678   11056.9990       0.0621   13514.6484       0.0602      10.0000       4.6288
   2650.0879       3.5691       1.6217    -999.2500    -999.2500      41.6621    -999.2500    -999.2500    4265.8828       0.0854    4313.6895       0.0627    3068.5337       0.0714      10.0000       4.6288
   2650.2402       3.5803       1.6149    -999.2500    -999.2500      43.1553    -999.2500    -999.2500   12260.5879       0.1019   13096.7178       0.0659    3281.7642       0.0794      10.0000       4.6288
   2650.3926       3.5636       1.5945    -999.2500    -999.2500      42.2897    -999.2500    -999.2500    4870.3276       0.1156   13096.7178       0.0713    1102.2284       0.0753      10.0000       4.6288
   2650.5452       3.5598       1.6106    -999.2500    -999.2500      39.5433    -999.2500    -999.2500   12260.5879       0.1218    5631.5972       0.0767    1196.1002       0.0726      10.0000       4.6288
   2650.6975       3.5598       1.6294    -999.2500    -999.2500      38.4130    -999.2500    -999.2500   11188.1885       0.0734   11735.2773       0.0791    1377.1372       0.0819      10.0000       4.6288
   2650.8499       3.5784       1.6702    -999.2500    -999.2500      40.5344    -999.2500    -999.2500    7300.6553       0.1238    7423.0957       0.0801     410.6962       0.0973      10.0000       4.6288
   2651.0022       3.5636       1.6983    -999.2500    -999.2500      43.4478    -999.2500    -999.2500     968.5888       0.0843     658.9659       0.0766     156.6908       0.1218      10.0000       4.6269
   2651.1548       3.5784       1.7022    -999.2500    -999.2500      44.8068    -999.2500    -999.2500   12260.5879       0.0654    8098.4790       0.0750     366.0423       0.1561      10.0000       4.6017
   2651.3071       3.5636       1.7237    -999.2500    -999.2500      43.4345    -999.2500    -999.2500    6054.3877       0.1326    6582.3994       0.0706     473.7258       0.1782      10.0000       4.5554
   2651.4595       3.5598       1.7464    -999.2500    -999.2500      42.0113    -999.2500    -999.2500    2579.4094       0.0585    1249.8589       0.0678     100.5842       0.1564      10.0000       4.5204
   2651.6118       3.5784       1.7652    -999.2500    -999.2500      41.5326    -999.2500    -999.2500    1347.5367       0.1449     777.9155       0.0636     122.8648       0.1097      10.0000       4.5421
   2651.7642       3.5636       1.7273    -999.2500    -999.2500      42.0133    -999.2500    -999.2500    3176.8684       0.1251     722.9094       0.0646     181.6469       0.0901      10.0000       4.5884
   2651.9167       3.5598       1.6893    -999.2500    -999.2500      41.5438    -999.2500    -999.2500    4892.4067       0.0641    1944.7488       0.0666     366.8924       0.0896      10.0000       4.6254
   2652.0691       3.5598       1.6924    -999.2500    -999.2500      41.1205    -999.2500    -999.2500     314.1119       0.1128     150.6063       0.0698     102.2759       0.0926      10.0000       4.6270
   2652.2214       3.5598       1.7032    -999.2500    -999.2500      42.5306    -999.2500    -999.2500    1511.0956       0.1419    1117.5082       0.0725     237.1373       0.0962      10.0000       4.6068
   2652.3738       3.5411       1.6892    -999.2500    -999.2500      42.9719    -999.2500    -999.2500     627.1993       0.0247     254.5910       0.0762     157.2812       0.0900      10.0000       4.5662
   2652.5264       3.5373       1.6520    -999.2500    -999.2500      42.3381    -999.2500    -999.2500      81.8512       0.0998      61.5802       0.0790      19.1390       0.0823      10.0000       4.5106
   2652.6787       3.5373       1.6100    -999.2500    -999.2500      42.8465    -999.2500    -999.2500    1141.0688       0.1291     422.0671       0.0806      53.2005       0.0772      10.0000       4.4639
   2652.8311       3.5373       1.5973    -999.2500    -999.2500      44.6257    -999.2500    -999.2500     821.8702       0.1173     246.0870       0.0782     136.3413       0.0854      10.0000       4.4361
   2652.9834       3.5186       1.6060    -999.2500    -999.2500      45.3287    -999.2500    -999.2500    1581.5002       0.1273     725.8965       0.0752     223.6428       0.0948      10.0000       4.4480
   2653.1360       3.5148       1.6390    -999.2500    -999.2500      42.7312    -999.2500    -999.2500    1243.0681       0.0790     858.0961       0.0715     319.5514       0.0897      10.0000       4.5102
   2653.2883       3.5148       1.6301    -999.2500    -999.2500      40.8959    -999.2500    -999.2500    1344.0424       0.1419     805.0723       0.0690     179.0293       0.0816      10.0000       4.5785
   2653.4407       3.5335       1.6020    -999.2500    -999.2500      39.4462    -999.2500    -999.2500    2468.0911       0.1398     991.3091       0.0680     147.2350       0.0648      10.0000       4.6239
   2653.5930       3.5373       1.5511    -999.2500    -999.2500      39.0476    -999.2500    -999.2500    1763.3221       0.0254     440.3881       0.0675      92.9536       0.0555      10.0000       4.6288
   2653.7454       3.5373       1.5127    -999.2500    -999.2500      38.6468    -999.2500    -999.2500    3617.7393       0.1385    1235.1740       0.0679     131.9872       0.0614      10.0000       4.6288
   2653.8979       3.5186       1.5006    -999.2500    -999.2500      39.3749    -999.2500    -999.2500   11191.2549       0.0967    1488.8527       0.0694      95.6177       0.0675      10.0000       4.6288
   2654.0503       3.5241       1.5007    -999.2500    -999.2500      39.0192    -999.2500    -999.2500   12260.8975       0.1699    5867.5522       0.0715     177.9061       0.0676      10.0000       4.6288
   2654.2026       3.5260       1.5348    -999.2500    -999.2500      40.0465    -999.2500    -999.2500    6023.8931       0.0243    2451.1829       0.0734     156.8226       0.0599      10.0000       4.6288
   2654.3550       3.5167       1.5648    -999.2500    -999.2500      40.0083    -999.2500    -999.2500   12260.5879       0.0846    8446.6846       0.0721     694.4396       0.0612      10.0000       4.6288
   2654.5076       3.5335       1.5953    -999.2500    -999.2500      39.8423    -999.2500    -999.2500    2454.4524       0.1020    1516.3446       0.0720     130.5843       0.0618      10.0000       4.6288
   2654.6599       3.5373       1.6182    -999.2500    -999.2500      39.0451    -999.2500    -999.2500    7879.3008       0.1140    3579.1448       0.0701      22.3155       0.0573      10.0000       4.6288
   2654.8123       3.5373       1.6154    -999.2500    -999.2500      40.4450    -999.2500    -999.2500    3714.3606       0.0728     919.0868       0.0701     223.9048       0.0516      10.0000       4.6288
   2654.9646       3.5933       1.6002    -999.2500    -999.2500      41.1847    -999.2500    -999.2500    1696.6326       0.1162    8076.8594       0.0672    5706.9609       0.0520      10.0000       4.6288
   2655.1172       3.6421       1.5938    -999.2500    -999.2500      40.0854    -999.2500    -999.2500   12260.5879       0.1342    8432.9434       0.0648    1440.9436       0.0517      10.0000       4.6288
