#------------------------------------------------------------------------------
#
#   Created by  : [OpenWorks] Log Export Utility (LEXP)
#   Created on  : 2016-05-23 11:57:04
#   Project     : CANT971
#   User        : R5K
#   Interpreter : PEP
#
#------------------------------------------------------------------------------
~VERSION INFORMATION
VERS. 2.0 : CWLS Log ASCII Standard - version 2.0
WRAP.  NO : One line per depth step
~WELL INFORMATION
#MNEMONIC   .UNIT                                           VALUE :DESCRIPTION
#------------------------------------------------------------------------------
STRT        .M                                           125.9451 :START DEPTH
STOP        .M                                          3005.5432 :STOP DEPTH
STEP        .M                                             0.1524 :STEP
NULL        .                                           -999.2500 :NULL VALUE
COMP        .                                   PEMEX EXPL & PROD :COMPANY
WELL        .                                                 66A :WELL
FLD         .                                           CANTARELL :FIELD
LOC         .                                             UNKNOWN :LOCATION
CNTY        .                                      CD. DEL CARMEN :COUNTY
STAT        .                                            CAMPECHE :STATE
CTRY        .                                              MEXICO :COUNTRY
SRVC        .                                             UNKNOWN :SERVICE COMPANY
DATE        .                                             UNKNOWN :LOG DATE
UWI         .                                          3060000173 :UNIQUE WELL ID
XCOORD      .                                       599692.990000 :SURFACE X
YCOORD      .                                      2143036.380000 :SURFACE Y
LAT         .                                           19.380143 :LATITUDE
LON         .                                          -92.050669 :LONGITUDE
ELEV        .M                                            26.7400 :SURFACE ELEV
ELEV_TYPE   .                                                  KB :ELEV TYPE
~CURVE INFORMATION
#MNEMONIC.UNIT        API CODE       : CURVE DESCRIPTION
#------------------------------------------------------------------------------
DEPTH    .M                          : Measured Depth
CALI     .UNKNOWN     UNKNOWN        : CALI:UNKNOWN:rC:NONE:v0 (auto-composite)
DT       .us/ft       UNKNOWN        : DT:DT:rC:NONE:v0 (auto-composite)
GR       .API         UNKNOWN        : GR:UNKNOWN:rC:NONE:v0 (auto-composite)
GR-ENT   .API         UNKNOWN        : GR-ENT:porosidad-entubado:rC:NONE:v0 (auto-composite)
GR-LWD   .UNKNOWN     UNKNOWN        : GR-LWD:GR-LWD:rC:NONE:v0 (auto-composite)
ILD      .UNKNOWN     UNKNOWN        : ILD:UNKNOWN:rC:NONE:v0 (auto-composite)
LLD      .UNKNOWN     UNKNOWN        : LLD:UNKNOWN:rC:NONE:v0 (auto-composite)
LLD-LWD  .UNKNOWN     UNKNOWN        : LLD-LWD:LLD-LWD:rC:NONE:v0 (auto-composite)
LLS      .UNKNOWN     UNKNOWN        : LLS:UNKNOWN:rC:NONE:v0 (auto-composite)
LLS-LWD  .UNKNOWN     UNKNOWN        : LLS-LWD:LLS-LWD:rC:NONE:v0 (auto-composite)
MSFL     .UNKNOWN     UNKNOWN        : MSFL:UNKNOWN:rC:NONE:v0 (auto-composite)
MSFL-LWD .UNKNOWN     UNKNOWN        : MSFL-LWD:MSFL-LWD:rC:NONE:v0 (auto-composite)
NPHI     .v/v_decimal UNKNOWN        : NPHI:PETROWORKS:rC:NONE:v1 
NPHI-ENT .UNKNOWN     UNKNOWN        : NPHI-ENT:porosidad-entubado:rC:NONE:v0 (auto-composite)
RHOB     .g/cm3       UNKNOWN        : RHOB:UNKNOWN:rC:NONE:v0 (auto-composite)
~A     DEPTH         CALI           DT           GR       GR-ENT       GR-LWD          ILD          LLD      LLD-LWD          LLS      LLS-LWD         MSFL     MSFL-LWD         NPHI     NPHI-ENT         RHOB
# ...
   2628.2007    -999.2500      53.4427      34.5811      29.2942      44.2700    -999.2500      23.1459      36.5400      21.6635      44.0400    -999.2500      41.7000       0.0660       0.0642    -999.2500
   2628.3530    -999.2500      53.7088      37.9266      34.3014      40.5969    -999.2500      21.0644      37.3132      19.4376      47.2683    -999.2500      45.6248       0.0723       0.0779    -999.2500
   2628.5056    -999.2500      54.1700      42.8100      37.5556      41.1910    -999.2500      18.6270      40.6375      16.9862      53.3996    -999.2500      57.2597       0.0839       0.0982    -999.2500
   2628.6580    -999.2500      54.7284      45.3136      40.6094      35.9231    -999.2500      17.8977      42.2579      16.1176      59.0813    -999.2500      58.5080       0.0906       0.1020    -999.2500
   2628.8103    -999.2500      55.4241      44.4335      44.5105      36.0709    -999.2500      19.5969      46.4496      17.4995      77.6351    -999.2500      75.5039       0.0892       0.0946    -999.2500
   2628.9626    -999.2500      54.8101      41.9179      53.4835      41.9570    -999.2500      23.8884      42.4199      21.2497      68.7693    -999.2500      67.3655       0.0847       0.0840    -999.2500
   2629.1150    -999.2500      52.3397      37.0689      64.2165      37.2337    -999.2500      31.8786      30.4909      28.3793      31.9682    -999.2500      28.0804       0.0770       0.0702    -999.2500
   2629.2676    -999.2500      50.5083      32.2829      86.1043      40.9294    -999.2500      50.0793      30.2235      44.0309      35.1306    -999.2500      33.0776       0.0674       0.0599    -999.2500
   2629.4199    -999.2500      49.5800      27.5854      95.1649      45.2542    -999.2500      82.6143      29.5799      71.6465      37.1271    -999.2500      38.1047       0.0557       0.0466    -999.2500
   2629.5723    -999.2500      49.9134      24.9386      94.9836      41.3069    -999.2500     110.1144      27.8717      94.8604      38.5677    -999.2500      44.4188       0.0466       0.0396    -999.2500
   2629.7246    -999.2500      52.0245      25.1810      85.2836      40.4157    -999.2500     130.5211      24.8047     111.8731      29.8393    -999.2500      31.2369       0.0408       0.0393    -999.2500
   2629.8772    -999.2500      52.8263      25.7524      59.6122      45.0855    -999.2500     129.8764      24.9254     112.6090      28.9597    -999.2500      30.5832       0.0390       0.0426    -999.2500
   2630.0295    -999.2500      51.7769      26.7890      46.1203      49.6571    -999.2500      99.4671      23.3276      90.3312      26.3727    -999.2500      27.3432       0.0426       0.0541    -999.2500
   2630.1819    -999.2500      50.2128      28.2201      32.8929      52.3289    -999.2500      84.0640      20.6713      80.2249      24.4577    -999.2500      23.2276       0.0439       0.0598    -999.2500
   2630.3342    -999.2500      47.9233      30.2111      26.9803      55.1468    -999.2500      89.9543      18.8452      87.3895      24.0905    -999.2500      22.3360       0.0418       0.0559    -999.2500
   2630.4868    -999.2500      46.9936      31.0609      25.1638      60.6457    -999.2500      99.8207      16.8860      97.9016      22.8968    -999.2500      22.0752       0.0409       0.0508    -999.2500
   2630.6392    -999.2500      47.9875      30.2748      24.6049      55.0094    -999.2500     115.3870      17.1789     113.2120      22.5586    -999.2500      25.0520       0.0415       0.0486    -999.2500
   2630.7915    -999.2500      48.7475      29.4493      24.2332      35.0988    -999.2500     137.9035      18.2701     136.4804      22.2258    -999.2500      26.2067       0.0413       0.0479    -999.2500
   2630.9438    -999.2500      49.1778      28.5674      24.1040      37.1536    -999.2500     170.4187      18.5663     171.1971      20.0293    -999.2500      21.5169       0.0398       0.0452    -999.2500
   2631.0962    -999.2500      49.3087      27.0971      23.8482      42.8302    -999.2500     246.8261      16.9630     244.3784      16.6349    -999.2500      16.0408       0.0367       0.0407    -999.2500
   2631.2488    -999.2500      49.0155      24.7996      23.7147      46.0687    -999.2500     384.9489      14.4776     371.6434      13.9324    -999.2500      13.1862       0.0319       0.0360    -999.2500
   2631.4011    -999.2500      48.6601      22.9237      23.7841      52.2000    -999.2500     448.3077      12.8000     422.2438      13.2800    -999.2500      13.0300       0.0292       0.0358    -999.2500
   2631.5535    -999.2500      48.2168      21.6428      23.8164      47.4841    -999.2500     406.1687      12.8960     364.6642      14.8844    -999.2500      14.9516       0.0298       0.0372    -999.2500
   2631.7058    -999.2500      48.0586      21.4997      23.8250      34.9721    -999.2500     342.0633      13.9984     299.9795      16.8637    -999.2500      17.1985       0.0315       0.0391    -999.2500
   2631.8584    -999.2500      48.3042      22.9786      23.6081      39.4509    -999.2500     246.6450      15.0369     225.1663      17.6363    -999.2500      18.2566       0.0344       0.0396    -999.2500
   2632.0107    -999.2500      48.3309      24.5778      23.0881      39.2396    -999.2500     203.4163      15.1364     196.2750      17.0472    -999.2500      18.1255       0.0358       0.0390    -999.2500
   2632.1631    -999.2500      48.0485      26.3492      22.6796      31.9514    -999.2500     234.8494      15.7628     233.0790      16.7484    -999.2500      18.3027       0.0349       0.0376    -999.2500
   2632.3154    -999.2500      48.3087      28.1518      22.9112      28.0612    -999.2500     249.2080      16.7890     246.4065      16.4018    -999.2500      17.9471       0.0360       0.0357    -999.2500
   2632.4680    -999.2500      49.3376      29.9980      23.8290      31.6971    -999.2500     239.6916      17.3030     226.9075      15.2139    -999.2500      15.8749       0.0401       0.0376    -999.2500
   2632.6204    -999.2500      50.5685      32.1709      25.1151      41.1860    -999.2500     201.2412      17.0362     186.7868      14.1946    -999.2500      14.0677       0.0472       0.0565    -999.2500
   2632.7727    -999.2500      52.0849      34.8021      27.2910      57.2986    -999.2500     122.1892      15.7299     117.7290      13.4189    -999.2500      12.7297       0.0579       0.0716    -999.2500
   2632.9250    -999.2500      53.3688      37.4789      28.9481      53.5532    -999.2500      68.3958      16.6271      69.7239      14.9703    -999.2500      14.2802       0.0663       0.0824    -999.2500
   2633.0774    -999.2500      54.3231      40.2202      31.2427      45.7019    -999.2500      50.4086      18.9388      51.5627      19.1065    -999.2500      17.8894       0.0709       0.0857    -999.2500
   2633.2300    -999.2500      54.7676      42.2240      32.8238      43.2099    -999.2500      39.0103      20.9107      41.0146      24.2324    -999.2500      22.6533       0.0731       0.0836    -999.2500
   2633.3823    -999.2500      54.4915      43.1786      34.7652      37.7476    -999.2500      36.9857      28.0825      41.2969      37.3399    -999.2500      37.4288       0.0726       0.0824    -999.2500
   2633.5347    -999.2500      53.9997      43.8821      34.9576      34.3878    -999.2500      36.9191      35.8718      43.2362      49.7638    -999.2500      53.8204       0.0711       0.0815    -999.2500
   2633.6870    -999.2500      53.2041      44.2270      34.1479      28.6725    -999.2500      39.6482      44.6132      47.5412      61.9261    -999.2500      71.6647       0.0687       0.0783    -999.2500
   2633.8396    -999.2500      52.4941      44.0769      33.2482      23.2543    -999.2500      41.8019      58.3640      49.8022      79.8024    -999.2500      94.8981       0.0660       0.0712    -999.2500
   2633.9919    -999.2500      51.9054      43.2360      31.6845      25.3291    -999.2500      43.1527      69.6461      49.2109     137.3101    -999.2500      70.1516       0.0630       0.0678    -999.2500
