#------------------------------------------------------------------------------
#
#   Created by  : [OpenWorks] Log Export Utility (LEXP)
#   Created on  : 2016-05-23 11:57:09
#   Project     : CANT971
#   User        : R5K
#   Interpreter : PEP
#
#------------------------------------------------------------------------------
~VERSION INFORMATION
VERS. 2.0 : CWLS Log ASCII Standard - version 2.0
WRAP.  NO : One line per depth step
~WELL INFORMATION
#MNEMONIC   .UNIT                                           VALUE :DESCRIPTION
#------------------------------------------------------------------------------
STRT        .M                                           143.0270 :START DEPTH
STOP        .M                                          2096.0330 :STOP DEPTH
STEP        .M                                             0.1524 :STEP
NULL        .                                           -999.2500 :NULL VALUE
COMP        .                                   PEMEX EXPL & PROD :COMPANY
WELL        .                                                   7 :WELL
FLD         .                                           CANTARELL :FIELD
LOC         .                                             UNKNOWN :LOCATION
CNTY        .                                      CD. DEL CARMEN :COUNTY
STAT        .                                            CAMPECHE :STATE
CTRY        .                                              MEXICO :COUNTRY
SRVC        .                                             UNKNOWN :SERVICE COMPANY
DATE        .                                             UNKNOWN :LOG DATE
UWI         .                                            W-C-0007 :UNIQUE WELL ID
XCOORD      .                                       603360.340000 :SURFACE X
YCOORD      .                                      2145093.880000 :SURFACE Y
LAT         .                                           19.398550 :LATITUDE
LON         .                                          -92.015638 :LONGITUDE
ELEV        .M                                            27.1400 :SURFACE ELEV
ELEV_TYPE   .                                                  KB :ELEV TYPE
~CURVE INFORMATION
#MNEMONIC.UNIT        API CODE       : CURVE DESCRIPTION
#------------------------------------------------------------------------------
DEPTH    .M                          : Measured Depth
CAL      .inches      UNKNOWN        : CAL:UNKNOWN:rC:NONE:v0 (auto-composite)
DRHO     .g/cm3       UNKNOWN        : DRHO:UNKNOWN:rC:NONE:v0 (auto-composite)
DT       .us/ft       UNKNOWN        : DT:UNKNOWN:rC:NONE:v0 (auto-composite)
GR       .api         UNKNOWN        : GR:UNKNOWN:rC:NONE:v0 (auto-composite)
ILD      .ohmm        UNKNOWN        : ILD:UNKNOWN:rC:NONE:v0 (auto-composite)
NPHI     .v/v_decimal UNKNOWN        : NPHI:UNKNOWN:rC:NONE:v0 (auto-composite)
RHOB     .g/cm3       UNKNOWN        : RHOB:UNKNOWN:rC:NONE:v0 (auto-composite)
~A     DEPTH          CAL         DRHO           DT           GR          ILD         NPHI         RHOB
# ...
   2079.2690       8.1415       0.2500      50.5597       0.0000      94.4780      -0.1500       1.9500
   2079.4214       8.1240       0.2500      50.2657       0.0000      94.8684      -0.1500       1.9500
   2079.5737       8.0661       0.2500      51.6005       0.0000      98.2694      -0.1500       1.9500
   2079.7261       7.9919       0.2500      53.5950       0.0000     102.8900      -0.1500       1.9500
   2079.8787       7.9666       0.2500      54.7508       0.0000     108.2980      -0.1500       1.9500
   2080.0310       7.9676       0.2500      55.4580       0.0000     114.1272      -0.1500       1.9500
   2080.1833       8.0027       0.2500      55.2064       0.0000     118.5303      -0.1500       1.9500
   2080.3357       8.0615       0.2500      54.2924       0.0000     121.9480      -0.1500       1.9500
   2080.4883       8.1099       0.2500      53.1507       0.0000     122.0667      -0.1500       1.9500
   2080.6406       8.1492       0.2500      51.8081       0.0000     119.2746      -0.1500       1.9500
   2080.7930       8.1885       0.2500      50.9821       0.0000     115.0802      -0.1500       1.9500
   2080.9453       8.2278       0.2500      50.7360       0.0000     109.3117      -0.1500       1.9500
   2081.0979       8.2516       0.2500      50.6463       0.0000     104.1021      -0.1500       1.9500
   2081.2502       8.2531       0.2500      50.7807       0.0000      99.6937      -0.1500       1.9500
   2081.4026       8.2477       0.2500      51.0321       0.0000      97.1946      -0.1500       1.9500
   2081.5549       8.2298       0.2500      51.4996       0.0000      98.2282      -0.1500       1.9500
   2081.7073       8.1929       0.2500      51.6643       0.0000      85.0742      -0.1500       1.9500
   2081.8599       8.1094       0.2500      51.0842       0.0000      37.0371      -0.1500       1.9500
   2082.0122       8.0410       0.2500      50.8972       0.0000       0.0000      -0.1500       1.9500
   2082.1646       8.0235       0.2500      52.0335       0.0000       0.0000      -0.1500       1.9500
   2082.3169       8.0092       0.2500      53.0974       0.0000       0.0000      -0.1500       1.9500
   2082.4695       8.0101       0.2500      53.8047       0.0000       0.0000      -0.1500       1.9500
   2082.6218       8.0122       0.2500      54.5067       0.0000       0.0000      -0.1500       1.9500
   2082.7742       8.0234       0.2500      55.1664       0.0000       0.0000      -0.1500       1.9500
   2082.9265       8.0341       0.2500      55.8191       0.0000       0.0000      -0.1500       1.9500
   2083.0791       8.0355       0.2500      56.3356       0.0000       0.0000      -0.1500       1.9500
   2083.2314       8.0370       0.2500      56.8580       0.0000       0.0000      -0.1500       1.9500
   2083.3838       8.0288       0.2500      56.0027       0.0000       0.0000      -0.1500       1.9500
   2083.5361       8.0206       0.2500      55.1374       0.0000       0.0000      -0.1500       1.9500
   2083.6885       8.0564       0.2500      55.9053       0.0000       0.0000      -0.1500       1.9500
   2083.8411       8.0958       0.2500      56.8023       0.0000       0.0000      -0.1500       1.9500
   2083.9934       8.1023       0.2500      57.4941       0.0000       0.0000      -0.1500       1.9500
   2084.1458       8.1037       0.2500      58.1542       0.0000       0.0000      -0.1500       1.9500
   2084.2981       8.0363       0.2500      57.4682       0.0000       0.0000      -0.1500       1.9500
   2084.4507       7.9523       0.2500      56.4590       0.0000       0.0000      -0.1500       1.9500
   2084.6030       7.9535       0.2500      54.5598       0.0000       0.0000      -0.1500       1.9500
   2084.7554       7.9836       0.2500      52.3580       0.0000       0.0000      -0.1500       1.9500
   2084.9077       8.0719       0.2500      52.4137       0.0000       0.0000      -0.1500       1.9500
   2085.0603       8.1870       0.2500      53.5020       0.0000       0.0000      -0.1500       1.9500
   2085.2126       8.2130       0.2500      54.4113       0.0000       0.0000      -0.1500       1.9500
   2085.3650       8.1858       0.2500      55.2137       0.0000       0.0000      -0.1500       1.9500
   2085.5173       8.1213       0.2500      55.0723       0.0000       0.0000      -0.1500       1.9500
   2085.6697       8.0282       0.2500      54.2071       0.0000       0.0000      -0.1500       1.9500
   2085.8223       7.9874       0.2500      53.2695       0.0000       0.0000      -0.1500       1.9500
   2085.9746       7.9981       0.2500      52.2608       0.0000       0.0000      -0.1500       1.9500
   2086.1270       8.0090       0.2500      51.7810       0.0000       0.0000      -0.1500       1.9500
   2086.2793       8.0201       0.2500      51.9636       0.0000       0.0000      -0.1500       1.9500
   2086.4319       8.0348       0.2500      52.2743       0.0000       0.0000      -0.1500       1.9500
   2086.5842       8.0552       0.2500      52.7907       0.0000       0.0000      -0.1500       1.9500
   2086.7366       8.0632       0.2500      52.9827       0.0000       0.0000      -0.1500       1.9500
   2086.8889       8.0452       0.2500      52.4968       0.0000       0.0000      -0.1500       1.9500
   2087.0415       8.0300       0.2500      52.1620       0.0000       0.0000      -0.1500       1.9500
   2087.1938       8.0222       0.2500      52.2494       0.0000       0.0000      -0.1500       1.9500
   2087.3462       8.0105       0.2500      52.3174       0.0000       0.0000      -0.1500       1.9500
   2087.4985       7.9833       0.2500      52.3097       0.0000       0.0000      -0.1500       1.9500
   2087.6509       7.9602       0.2500      52.3428       0.0000       0.0000      -0.1500       1.9500
   2087.8035       7.9617       0.2500      52.6208       0.0000       0.0000      -0.1500       1.9500
   2087.9558       7.9616       0.2500      52.7625       0.0000       0.0000      -0.1500       1.9500
   2088.1082       7.9441       0.2500      51.3719       0.0000       0.0000      -0.1500       1.9500
   2088.2605       7.9272       0.2500      50.0507       0.0000       0.0000      -0.1500       1.9500
   2088.4131       7.9379       0.2500      51.9020       0.0000       0.0000      -0.1500       1.9500
   2088.5654       7.9486       0.2500      53.7534       0.0000       0.0000      -0.1500       1.9500
   2088.7178       7.9415       0.2500      54.0466       0.0000       0.0000      -0.1500       1.9500
   2088.8701       7.9338       0.2500      54.2772       0.0000       0.0000      -0.1500       1.9500
   2089.0227       7.9002       0.2500      57.6009       0.0000       0.0000      -0.1500       1.9500
   2089.1750       7.8638       0.2500      61.2637       0.0000       0.0000      -0.1500       1.9500
   2089.3274       7.8429       0.2500      62.5608       0.0000       0.0000      -0.1500       1.9500
   2089.4797       7.8249       0.2500      63.4108       0.0000       0.0000      -0.1500       1.9500
   2089.6321       7.8665       0.2500      62.1392       0.0000       0.0000      -0.1500       1.9500
   2089.7847       7.9247       0.2500      60.2723       0.0000       0.0000      -0.1500       1.9500
   2089.9370       7.9833       0.2500      58.1649       0.0000       0.0000      -0.1500       1.9500
   2090.0894       8.0420       0.2500      55.9643       0.0000       0.0000      -0.1500       1.9500
   2090.2417       8.0441       0.2500      54.3292       0.0000       0.0000      -0.1500       1.9500
   2090.3943       8.0169       0.2500      52.9865       0.0000       0.0000      -0.1500       1.9500
   2090.5466       7.9729       0.2500      52.0151       0.0000       0.0000      -0.1500       1.9500
   2090.6990       7.9175       0.2500      51.2924       0.0000       0.0000      -0.1500       1.9500
   2090.8513       7.9030       0.2500      51.2885       0.0000       0.0000      -0.1500       1.9500
