#------------------------------------------------------------------------------
#
#   Created by  : [OpenWorks] Log Export Utility (LEXP)
#   Created on  : 2016-05-23 11:57:27
#   Project     : CANT971
#   User        : R5K
#   Interpreter : PEP
#
#------------------------------------------------------------------------------
~VERSION INFORMATION
VERS. 2.0 : CWLS Log ASCII Standard - version 2.0
WRAP.  NO : One line per depth step
~WELL INFORMATION
#MNEMONIC   .UNIT                                           VALUE :DESCRIPTION
#------------------------------------------------------------------------------
STRT        .M                                           813.0000 :START DEPTH
STOP        .M                                          2589.2219 :STOP DEPTH
STEP        .M                                             0.1524 :STEP
NULL        .                                           -999.2500 :NULL VALUE
COMP        .                                   PEMEX EXPL & PROD :COMPANY
WELL        .                                                  84 :WELL
FLD         .                                           CANTARELL :FIELD
LOC         .                                             UNKNOWN :LOCATION
CNTY        .                                      CD. DEL CARMEN :COUNTY
STAT        .                                            CAMPECHE :STATE
CTRY        .                                              MEXICO :COUNTRY
SRVC        .                                             UNKNOWN :SERVICE COMPANY
DATE        .                                             UNKNOWN :LOG DATE
UWI         .                                          3060000616 :UNIQUE WELL ID
XCOORD      .                                       601709.550000 :SURFACE X
YCOORD      .                                      2142344.590000 :SURFACE Y
LAT         .                                           19.373791 :LATITUDE
LON         .                                          -92.031505 :LONGITUDE
ELEV        .M                                            24.0000 :SURFACE ELEV
ELEV_TYPE   .                                                  KB :ELEV TYPE
~CURVE INFORMATION
#MNEMONIC.UNIT        API CODE       : CURVE DESCRIPTION
#------------------------------------------------------------------------------
DEPTH    .M                          : Measured Depth
CALI     .in          UNKNOWN        : CALI:UNKNOWN:rC:NONE:v0 (auto-composite)
DRHO     .g/cm3       UNKNOWN        : DRHO:UNKNOWN:rC:NONE:v0 (auto-composite)
DT       .us/ft       UNKNOWN        : DT:DT:rC:NONE:v0 (auto-composite)
ILD      .ohmm        UNKNOWN        : ILD:UNKNOWN:rC:NONE:v0 (auto-composite)
ILM      .ohmm        UNKNOWN        : ILM:UNKNOWN:rC:NONE:v0 (auto-composite)
LLD      .ohmm        UNKNOWN        : LLD:UNKNOWN:rC:NONE:v0 (auto-composite)
LLS      .ohmm        UNKNOWN        : LLS:UNKNOWN:rC:NONE:v0 (auto-composite)
MSFL     .ohmm        UNKNOWN        : MSFL:UNKNOWN:rC:NONE:v0 (auto-composite)
NPHI     .v/v_decimal UNKNOWN        : NPHI:NPHI:rC:NONE:v0 (auto-composite)
PEF      .b/elec      UNKNOWN        : PEF:UNKNOWN:rC:NONE:v0 (auto-composite)
RG       .UNKNOWN     UNKNOWN        : RG:UNKNOWN:rC:NONE:v0 (auto-composite)
RHOB     .g/cm3       UNKNOWN        : RHOB:UNKNOWN:rC:NONE:v0 (auto-composite)
~A     DEPTH         CALI         DRHO           DT          ILD          ILM          LLD          LLS         MSFL         NPHI          PEF           RG         RHOB
# ...
   2466.2351       8.6521       0.0878      47.5169       0.0000       0.0000    2193.1836     151.8685       8.7696       3.4048       3.0091      25.3928       2.7463
   2466.3877       8.6486       0.1038      49.3616       0.0000       0.0000    2112.8418     166.3005       6.3057       3.7869       3.0842      26.1679       2.7633
   2466.5400       8.6346       0.1099      51.0012       0.0000       0.0000    2684.1782     202.0845       5.8657       3.4653       3.1564      25.8816       2.7782
   2466.6924       8.6120       0.1079      52.5313       0.0000       0.0000    3786.9373     255.2805       7.0760       2.7676       3.2261      24.7299       2.7912
   2466.8447       8.5755       0.0984      52.0436       0.0000       0.0000    3865.5188     279.3196       8.4794       2.6389       3.2631      24.5197       2.7992
   2466.9973       8.5279       0.0828      50.4813       0.0000       0.0000    3127.4453     280.1098      10.0368       2.8155       3.2742      25.0602       2.8032
   2467.1497       8.5028       0.0661      50.1205       0.0000       0.0000    2662.5144     262.4826       9.1055       2.9727       3.2565      26.6220       2.7664
   2467.3020       8.4953       0.0486      50.4021       0.0000       0.0000    2410.5374     230.4965       6.2340       3.1197       3.2163      28.9800       2.6977
   2467.4543       8.5361       0.0450      50.4185       0.0000       0.0000    2117.6685     208.7375       9.4043       3.1668       3.2354      32.3029       2.6395
   2467.6067       8.6138       0.0520      50.2935       0.0000       0.0000    1793.6292     194.7743      17.1798       3.1603       3.2996      36.3611       2.5894
   2467.7593       8.6651       0.0625      50.5192       0.0000       0.0000    1546.3086     169.7508      16.3230       2.9830       3.2908      42.1250       2.5921
   2467.9116       8.6967       0.0755      50.9323       0.0000       0.0000    1356.1589     136.4851       9.0333       2.7144       3.2276      49.1600       2.6342
   2468.0640       8.6865       0.0836      51.3162       0.0000       0.0000    1238.3093     128.1045       5.3123       2.5134       3.1923      53.8006       2.6763
   2468.2163       8.6459       0.0881      51.6846       0.0000       0.0000    1173.1289     137.8522       4.1911       2.3485       3.1773      56.6968       2.7184
   2468.3689       8.5995       0.0839      51.3236       0.0000       0.0000    1474.9095     146.8793       4.4233       2.3031       3.1920      56.4002       2.7433
   2468.5212       8.5489       0.0733      50.5724       0.0000       0.0000    2039.7218     155.3899       5.6257       2.3216       3.2281      53.8150       2.7558
   2468.6736       8.5595       0.0649      49.7615       0.0000       0.0000    2864.9600     176.5075       5.1622       2.5050       3.2241      50.1702       2.7457
   2468.8259       8.6132       0.0579      48.9189       0.0000       0.0000    3872.6521     206.4575       3.5317       2.7764       3.1920      45.7831       2.7196
   2468.9785       8.5907       0.0767      48.7941       0.0000       0.0000    4461.1084     215.9628       3.2476       3.3824       3.1805      39.0382       2.7182
   2469.1309       8.5159       0.1133      49.0537       0.0000       0.0000    4762.5088     211.4693       3.8853       4.1677       3.1830      30.6790       2.7338
   2469.2832       8.4839       0.1382      49.8233       0.0000       0.0000    4913.8589     265.5164       5.0797       5.8985       3.1927      27.7600       2.7313
   2469.4355       8.4804       0.1553      50.8652       0.0000       0.0000    4964.8071     358.7344       6.6466       8.1341       3.2073      28.4810       2.7167
   2469.5879       8.5181       0.1647      51.3908       0.0000       0.0000    4728.0444     361.1523       6.5205       8.2402       3.2142      31.8377       2.7192
   2469.7405       8.5827       0.1692      51.6417       0.0000       0.0000    4303.1709     304.2036       5.2876       7.2053       3.2162      36.9177       2.7327
   2469.8928       8.5988       0.1661      51.8891       0.0000       0.0000    3984.3467     270.2168       4.4419       6.2514       3.2082      37.1990       2.7197
   2470.0452       8.5838       0.1581      52.1347       0.0000       0.0000    3733.7236     250.9970       3.8452       5.3408       3.1936      34.3942       2.6896
   2470.1975       8.7107       0.1171      52.5559       0.0000       0.0000    3033.5806     240.9861       6.8827       4.6599       3.1443      32.4366       2.4532
   2470.3501       8.9268       0.0555      53.0707       0.0000       0.0000    2051.0164     236.7609      12.2035       4.1022       3.0731      31.0111       2.0872
   2470.5024       9.0040       0.0283      52.9429       0.0000       0.0000    1308.6262     188.3196      13.1274       3.4500       3.0128      28.6337       2.0126
   2470.6548       8.9960       0.0223      52.4717       0.0000       0.0000     713.6324     112.7426      11.3530       2.7473       2.9591      25.6719       2.1169
   2470.8071       8.9507       0.0181      52.0947       0.0000       0.0000     693.5817     119.6148      10.6610       2.3871       2.9152      24.2683       2.2212
   2470.9597       8.8830       0.0151      51.7679       0.0000       0.0000    1018.1500     175.9068      10.6179       2.2105       2.8771      23.7985       2.3255
   2471.1121       8.8488       0.0191      51.4816       0.0000       0.0000    1010.6307     190.2434       8.9995       2.1053       2.8624      24.8496       2.4297
   2471.2644       8.8343       0.0271      51.2170       0.0000       0.0000     808.7277     180.0217       6.4590       2.0383       2.8614      26.7909       2.5339
   2471.4167       8.8080       0.0249      51.3082       0.0000       0.0000     965.9741     215.3842       5.3693       2.2390       2.8903      27.3558       2.6366
   2471.5691       8.7749       0.0169      51.5891       0.0000       0.0000    1329.9084     276.9799       5.1146       2.5823       2.9364      27.1287       2.7384
   2471.7217       8.7351       0.0140      51.1216       0.0000       0.0000    1503.9097     295.6026       6.5479       2.6440       3.0910      27.9850       2.7667
   2471.8740       8.6915       0.0140      50.2538       0.0000       0.0000    1571.1967     290.0808       8.9295       2.5550       3.3066      29.4501       2.7536
   2472.0264       8.6702       0.0124      49.1322       0.0000       0.0000    1584.7561     257.2067       8.3968       5.3162       3.3675      31.4867       2.7341
   2472.1787       8.6611       0.0099      47.8752       0.0000       0.0000    1568.8489     209.3315       6.2659       9.5974       3.3434      33.8367       2.7110
   2472.3313       8.6175       0.0142      47.8667       0.0000       0.0000    2348.9131     230.5895       4.7853      11.0731       3.3406      32.3905       2.6860
   2472.4836       8.5553       0.0222      48.5265       0.0000       0.0000    3555.0312     288.8521       3.6526      11.0470       3.3491      28.9124       2.6599
   2472.6360       8.5386       0.0322      50.1440       0.0000       0.0000    4679.0459     285.3977       4.0146       9.9814       3.3658      26.7359       2.6741
   2472.7883       8.5456       0.0433      52.2726       0.0000       0.0000    5760.1777     249.7082       5.1573       8.3611       3.3869      25.2392       2.7092
   2472.9409       8.5792       0.0603      53.7837       0.0000       0.0000    5737.7354     260.6580       5.3718       6.4523       3.2745      23.4636       2.7399
   2473.0933       8.6263       0.0803      54.9642       0.0000       0.0000    5152.9502     295.3734       5.1132       4.3891       3.0942      21.5458       2.7685
   2473.2456       8.6380       0.0786      53.7337       0.0000       0.0000    4509.2490     367.3760       4.7139       3.2415       3.0410      26.8473       2.7412
   2473.3979       8.6320       0.0661      51.2163       0.0000       0.0000    3836.0525     458.0458       4.2441       2.5828       3.0515      35.7630       2.6861
