#------------------------------------------------------------------------------
#
#   Created by  : [OpenWorks] Log Export Utility (LEXP)
#   Created on  : 2016-05-12 17:01:19
#   Project     : CANT971
#   User        : R5K
#   Interpreter : PEP
#
#------------------------------------------------------------------------------
~VERSION INFORMATION
VERS. 2.0 : CWLS Log ASCII Standard - version 2.0
WRAP.  NO : One line per depth step
~WELL INFORMATION
#MNEMONIC   .UNIT                                           VALUE :DESCRIPTION
#------------------------------------------------------------------------------
STRT        .M                                           335.5854 :START DEPTH
STOP        .M                                          2510.4858 :STOP DEPTH
STEP        .M                                             0.1524 :STEP
NULL        .                                           -999.2500 :NULL VALUE
COMP        .                                   PEMEX EXPL & PROD :COMPANY
WELL        .                                                  35 :WELL
FLD         .                                           CANTARELL :FIELD
LOC         .                                             UNKNOWN :LOCATION
CNTY        .                                      CD. DEL CARMEN :COUNTY
STAT        .                                            CAMPECHE :STATE
CTRY        .                                              MEXICO :COUNTRY
SRVC        .                                             UNKNOWN :SERVICE COMPANY
DATE        .                                             UNKNOWN :LOG DATE
UWI         .                                          3060000159 :UNIQUE WELL ID
XCOORD      .                                       602147.900000 :SURFACE X
YCOORD      .                                      2147168.470000 :SURFACE Y
LAT         .                                           19.417359 :LATITUDE
LON         .                                          -92.027072 :LONGITUDE
ELEV        .M                                            28.1700 :SURFACE ELEV
ELEV_TYPE   .                                                  KB :ELEV TYPE
~CURVE INFORMATION
#MNEMONIC.UNIT        API CODE       : CURVE DESCRIPTION
#------------------------------------------------------------------------------
DEPTH    .M                          : Measured Depth
CALI     .inches      UNKNOWN        : CALI:Import:rC:NONE:v0 (auto-composite)
DRHO     .g/cm3       UNKNOWN        : DRHO:Import:rC:NONE:v0 (auto-composite)
DT       .us/ft       UNKNOWN        : DT:Import:rC:NONE:v0 (auto-composite)
GR       .API         UNKNOWN        : GR:Import:rC:NONE:v0 (auto-composite)
ILD      .ohm.m       UNKNOWN        : ILD:Import:rC:NONE:v0 (auto-composite)
LLD      .ohm.m       UNKNOWN        : LLD:Import:rC:NONE:v0 (auto-composite)
LLS      .ohm.m       UNKNOWN        : LLS:Import:rC:NONE:v0 (auto-composite)
MSFL     .ohm.m       UNKNOWN        : MSFL:Import:rC:NONE:v0 (auto-composite)
NPHI     .v/v_decimal UNKNOWN        : NPHI:Import:rC:NONE:v0 (auto-composite)
RHOB     .g/cm3       UNKNOWN        : RHOB:Import:rC:NONE:v0 (auto-composite)
SP       .mV          UNKNOWN        : SP:Import:rC:NONE:v0 (auto-composite)
~A     DEPTH         CALI         DRHO           DT           GR          ILD          LLD          LLS         MSFL         NPHI         RHOB           SP
# ...
   2396.0334       5.4500   -1998.5000      62.4630      38.9330    -999.2500     183.3300     102.0920      47.3050    -999.2500    -999.2500    -999.2500
   2396.1858       5.4500   -1998.5000      67.1811      41.6404    -999.2500     180.9766     100.7794      44.7332    -999.2500    -999.2500    -999.2500
   2396.3381       5.4500   -1998.5000      71.8300      44.3080    -999.2500     178.6540      99.4840      42.1950    -999.2500    -999.2500    -999.2500
   2396.4905       5.4500   -1998.5000      71.2845      47.3315    -999.2500     168.6401      94.4665      38.1994    -999.2500    -999.2500    -999.2500
   2396.6431       5.4500   -1998.5000      70.7470      50.3110    -999.2500     158.7720      89.5220      34.2620    -999.2500    -999.2500    -999.2500
   2396.7954       5.4606   -1998.5000      68.4741      52.4565    -999.2500     143.0572      82.3281      32.6801    -999.2500    -999.2500    -999.2500
   2396.9478       5.4710   -1998.5000      66.2340      54.5710    -999.2500     127.5690      75.2380      31.1210    -999.2500    -999.2500    -999.2500
   2397.1001       5.5007   -1998.5000      63.7054      57.0734    -999.2500     118.6809      69.4224      29.8665    -999.2500    -999.2500    -999.2500
   2397.2527       5.5300   -1998.5000      61.2130      59.5400    -999.2500     109.9200      63.6900      28.6300    -999.2500    -999.2500    -999.2500
   2397.4050       5.5224   -1998.5000      60.1510      59.4755    -999.2500     102.8751      63.8451      29.0530    -999.2500    -999.2500    -999.2500
   2397.5574       5.5150   -1998.5000      59.1040      59.4120    -999.2500      95.9300      63.9980      29.4700    -999.2500    -999.2500    -999.2500
   2397.7097       5.4420   -1998.5000      58.3552      59.2116    -999.2500      96.7538      68.2539      26.1114    -999.2500    -999.2500    -999.2500
   2397.8623       5.3700   -1998.5000      57.6170      59.0140    -999.2500      97.5660      72.4500      22.8000    -999.2500    -999.2500    -999.2500
   2398.0146       5.3700   -1998.5000      56.4599      58.5160    -999.2500      99.9395      72.2889      22.8000    -999.2500    -999.2500    -999.2500
   2398.1670       5.3700   -1998.5000      55.3190      58.0250    -999.2500     102.2800      72.1300      22.8000    -999.2500    -999.2500    -999.2500
   2398.3193       5.3801   -1998.5000      53.3106      56.0307    -999.2500     100.4776      72.2458      23.2748    -999.2500    -999.2500    -999.2500
   2398.4717       5.3900   -1998.5000      51.3300      54.0640    -999.2500      98.7000      72.3600      23.7430    -999.2500    -999.2500    -999.2500
   2398.6243       5.3875   -1998.5000      51.3617      51.0685    -999.2500     107.4085      79.6242      25.3072    -999.2500    -999.2500    -999.2500
   2398.7766       5.3850   -1998.5000      51.3930      48.1140    -999.2500     115.9980      86.7890      26.8500    -999.2500    -999.2500    -999.2500
   2398.9290       5.3623   -1998.5000      52.1808      43.1081    -999.2500     165.9498     125.8071      26.7941    -999.2500    -999.2500    -999.2500
   2399.0813       5.3400   -1998.5000      52.9580      38.1700    -999.2500     215.2240     164.2960      26.7390    -999.2500    -999.2500    -999.2500
   2399.2339       5.3440   -1998.5000      56.5595      33.7669    -999.2500     281.7386     200.8031      24.2473    -999.2500    -999.2500    -999.2500
   2399.3862       5.3480   -1998.5000      60.1070      29.4300    -999.2500     347.3600     236.8200      21.7890    -999.2500    -999.2500    -999.2500
   2399.5386       5.3993   -1998.5000      65.2115      29.5791    -999.2500     221.4819     156.9785      15.6033    -999.2500    -999.2500    -999.2500
   2399.6909       5.4500   -1998.5000      70.2400      29.7260    -999.2500      97.2800      78.2000       9.5000    -999.2500    -999.2500    -999.2500
   2399.8435       5.4460   -1998.5000      68.9505      30.6987    -999.2500     207.8164     163.6562      10.9134    -999.2500    -999.2500    -999.2500
   2399.9958       5.4420   -1998.5000      67.6800      31.6570    -999.2500     316.7200     247.8500      12.3060    -999.2500    -999.2500    -999.2500
   2400.1482       5.4244   -1998.5000      68.8032      33.2436    -999.2500     312.6034     245.2973      24.9707    -999.2500    -999.2500    -999.2500
   2400.3005       5.4070   -1998.5000      69.9100      34.8070    -999.2500     308.5470     242.7820      37.4500    -999.2500    -999.2500    -999.2500
   2400.4529       5.3582   -1998.5000      79.3536      38.4902    -999.2500     263.3301     212.9695      27.2660    -999.2500    -999.2500    -999.2500
   2400.6055       5.3100   -1998.5000      88.6600      42.1200    -999.2500     218.7700     183.5900      17.2300    -999.2500    -999.2500    -999.2500
   2400.7578       5.3140   -1998.5000      87.6583      41.4094    -999.2500     241.8848     205.5288      17.6138    -999.2500    -999.2500    -999.2500
   2400.9102       5.3180   -1998.5000      86.6710      40.7090    -999.2500     264.6670     227.1520      17.9920    -999.2500    -999.2500    -999.2500
   2401.0625       5.3291   -1998.5000      81.9417      33.4174    -999.2500     526.2658     375.8021      20.0154    -999.2500    -999.2500    -999.2500
   2401.2151       5.3400   -1998.5000      77.2800      26.2300    -999.2500     784.1300     522.3300      22.0100    -999.2500    -999.2500    -999.2500
   2401.3674       5.3400   -1998.5000      68.1706      26.7084    -999.2500     773.2430     507.9886      27.3226    -999.2500    -999.2500    -999.2500
   2401.5198       5.3400   -1998.5000      59.1900      27.1800    -999.2500     762.5100     493.8500      32.5600    -999.2500    -999.2500    -999.2500
   2401.6721       5.3400   -1998.5000      59.2746      26.6956    -999.2500     765.9043     494.4769      30.7448    -999.2500    -999.2500    -999.2500
   2401.8247       5.3400   -1998.5000      59.3580      26.2180    -999.2500     769.2510     495.0950      28.9550    -999.2500    -999.2500    -999.2500
   2401.9771       5.3400   -1998.5000      63.0396      24.2403    -999.2500     946.6176     614.6480      23.4392    -999.2500    -999.2500    -999.2500
   2402.1294       5.3400   -1998.5000      66.6700      22.2900    -999.2500    1121.5200     732.5400      18.0000    -999.2500    -999.2500    -999.2500
   2402.2817       5.3400   -1998.5000      66.4062      22.4259    -999.2500    1109.0107     725.5363      18.1032    -999.2500    -999.2500    -999.2500
   2402.4341       5.3400   -1998.5000      66.1460      22.5600    -999.2500    1096.6740     718.6290      18.2050    -999.2500    -999.2500    -999.2500
   2402.5867       5.3440   -1998.5000      61.2697      23.2623    -999.2500     963.7963     636.4780      19.7380    -999.2500    -999.2500    -999.2500
   2402.7390       5.3480   -1998.5000      56.4600      23.9550    -999.2500     832.7320     555.4480      21.2500    -999.2500    -999.2500    -999.2500
   2402.8914       5.3656   -1998.5000      57.8061      26.7363    -999.2500     627.5099     422.2945      32.8938    -999.2500    -999.2500    -999.2500
   2403.0437       5.3830   -1998.5000      59.1340      29.4800    -999.2500     425.0650     290.9430      44.3800    -999.2500    -999.2500    -999.2500
   2403.1963       5.4167   -1998.5000      67.4695      29.2372    -999.2500     367.3358     254.6735      44.1384    -999.2500    -999.2500    -999.2500
   2403.3486       5.4500   -1998.5000      75.6800      28.9980    -999.2500     310.3800     218.8900      43.9000    -999.2500    -999.2500    -999.2500
   2403.5010       5.4460   -1998.5000      74.0388      27.9996    -999.2500     359.0951     383.0454      45.8580    -999.2500    -999.2500    -999.2500
   2403.6533       5.4420   -1998.5000      72.4220      27.0160    -999.2500     407.1630     545.0200      47.7900    -999.2500    -999.2500    -999.2500
   2403.8059       5.4158   -1998.5000      67.0071      25.7270    -999.2500     657.0281     535.7482      47.0168    -999.2500    -999.2500    -999.2500
