#------------------------------------------------------------------------------
#
#   Created by  : [OpenWorks] Log Export Utility (LEXP)
#   Created on  : 2016-05-23 11:57:27
#   Project     : CANT971
#   User        : R5K
#   Interpreter : PEP
#
#------------------------------------------------------------------------------
~VERSION INFORMATION
VERS. 2.0 : CWLS Log ASCII Standard - version 2.0
WRAP.  NO : One line per depth step
~WELL INFORMATION
#MNEMONIC   .UNIT                                           VALUE :DESCRIPTION
#------------------------------------------------------------------------------
STRT        .M                                           813.0000 :START DEPTH
STOP        .M                                          2589.2219 :STOP DEPTH
STEP        .M                                             0.1524 :STEP
NULL        .                                           -999.2500 :NULL VALUE
COMP        .                                   PEMEX EXPL & PROD :COMPANY
WELL        .                                                  84 :WELL
FLD         .                                           CANTARELL :FIELD
LOC         .                                             UNKNOWN :LOCATION
CNTY        .                                      CD. DEL CARMEN :COUNTY
STAT        .                                            CAMPECHE :STATE
CTRY        .                                              MEXICO :COUNTRY
SRVC        .                                             UNKNOWN :SERVICE COMPANY
DATE        .                                             UNKNOWN :LOG DATE
UWI         .                                          3060000616 :UNIQUE WELL ID
XCOORD      .                                       601709.550000 :SURFACE X
YCOORD      .                                      2142344.590000 :SURFACE Y
LAT         .                                           19.373791 :LATITUDE
LON         .                                          -92.031505 :LONGITUDE
ELEV        .M                                            24.0000 :SURFACE ELEV
ELEV_TYPE   .                                                  KB :ELEV TYPE
~CURVE INFORMATION
#MNEMONIC.UNIT        API CODE       : CURVE DESCRIPTION
#------------------------------------------------------------------------------
DEPTH    .M                          : Measured Depth
CALI     .in          UNKNOWN        : CALI:UNKNOWN:rC:NONE:v0 (auto-composite)
DRHO     .g/cm3       UNKNOWN        : DRHO:UNKNOWN:rC:NONE:v0 (auto-composite)
DT       .us/ft       UNKNOWN        : DT:DT:rC:NONE:v0 (auto-composite)
ILD      .ohmm        UNKNOWN        : ILD:UNKNOWN:rC:NONE:v0 (auto-composite)
ILM      .ohmm        UNKNOWN        : ILM:UNKNOWN:rC:NONE:v0 (auto-composite)
LLD      .ohmm        UNKNOWN        : LLD:UNKNOWN:rC:NONE:v0 (auto-composite)
LLS      .ohmm        UNKNOWN        : LLS:UNKNOWN:rC:NONE:v0 (auto-composite)
MSFL     .ohmm        UNKNOWN        : MSFL:UNKNOWN:rC:NONE:v0 (auto-composite)
NPHI     .v/v_decimal UNKNOWN        : NPHI:NPHI:rC:NONE:v0 (auto-composite)
PEF      .b/elec      UNKNOWN        : PEF:UNKNOWN:rC:NONE:v0 (auto-composite)
RG       .UNKNOWN     UNKNOWN        : RG:UNKNOWN:rC:NONE:v0 (auto-composite)
RHOB     .g/cm3       UNKNOWN        : RHOB:UNKNOWN:rC:NONE:v0 (auto-composite)
~A     DEPTH         CALI         DRHO           DT          ILD          ILM          LLD          LLS         MSFL         NPHI          PEF           RG         RHOB
# ...
   1405.5312       0.0000      -0.1000    -999.2500       0.6819       0.7605       0.0000       0.0000       0.0000    -999.2500       0.0000      39.7213       0.0000
   1405.6836       0.0000      -0.1000    -999.2500       0.6944       0.7670       0.0000       0.0000       0.0000    -999.2500       0.0000      38.9220       0.0000
   1405.8361       0.0000      -0.1000    -999.2500       0.7079       0.7738       0.0000       0.0000       0.0000    -999.2500       0.0000      38.3825       0.0000
   1405.9884       0.0000      -0.1000    -999.2500       0.7245       0.7813       0.0000       0.0000       0.0000    -999.2500       0.0000      38.6802       0.0000
   1406.1407       0.0000      -0.1000    -999.2500       0.7354       0.7875       0.0000       0.0000       0.0000    -999.2500       0.0000      38.8303       0.0000
   1406.2932       0.0000      -0.1000    -999.2500       0.7289       0.7895       0.0000       0.0000       0.0000    -999.2500       0.0000      38.5170       0.0000
   1406.4456       0.0000      -0.1000    -999.2500       0.7209       0.7875       0.0000       0.0000       0.0000    -999.2500       0.0000      38.6059       0.0000
   1406.5980       0.0000      -0.1000    -999.2500       0.7084       0.7735       0.0000       0.0000       0.0000    -999.2500       0.0000      39.9216       0.0000
   1406.7504       0.0000      -0.1000    -999.2500       0.6982       0.7600       0.0000       0.0000       0.0000    -999.2500       0.0000      40.4208       0.0000
   1406.9028       0.0000      -0.1000    -999.2500       0.6952       0.7479       0.0000       0.0000       0.0000    -999.2500       0.0000      38.4935       0.0000
   1407.0552       0.0000      -0.1000    -999.2500       0.6913       0.7389       0.0000       0.0000       0.0000    -999.2500       0.0000      37.1145       0.0000
   1407.2076       0.0000      -0.1000    -999.2500       0.6848       0.7384       0.0000       0.0000       0.0000    -999.2500       0.0000      37.3186       0.0000
   1407.3600       0.0000      -0.1000    -999.2500       0.6775       0.7381       0.0000       0.0000       0.0000    -999.2500       0.0000      37.2467       0.0000
   1407.5125       0.0000      -0.1000    -999.2500       0.6680       0.7386       0.0000       0.0000       0.0000    -999.2500       0.0000      36.4006       0.0000
   1407.6648       0.0000      -0.1000    -999.2500       0.6579       0.7348       0.0000       0.0000       0.0000    -999.2500       0.0000      36.2758       0.0000
   1407.8173       0.0000      -0.1000    -999.2500       0.6464       0.7193       0.0000       0.0000       0.0000    -999.2500       0.0000      38.1249       0.0000
   1407.9696       0.0000      -0.1000    -999.2500       0.6358       0.7035       0.0000       0.0000       0.0000    -999.2500       0.0000      39.7171       0.0000
   1408.1219       0.0000      -0.1000    -999.2500       0.6278       0.6869       0.0000       0.0000       0.0000    -999.2500       0.0000      40.6256       0.0000
   1408.2744       0.0000      -0.1000    -999.2500       0.6179       0.6736       0.0000       0.0000       0.0000    -999.2500       0.0000      41.1501       0.0000
   1408.4268       0.0000      -0.1000    -999.2500       0.6034       0.6686       0.0000       0.0000       0.0000    -999.2500       0.0000      40.6805       0.0000
   1408.5792       0.0000      -0.1000    -999.2500       0.5919       0.6643       0.0000       0.0000       0.0000    -999.2500       0.0000      40.3440       0.0000
   1408.7316       0.0000      -0.1000    -999.2500       0.5879       0.6618       0.0000       0.0000       0.0000    -999.2500       0.0000      40.3440       0.0000
   1408.8840       0.0000      -0.1000    -999.2500       0.5882       0.6616       0.0000       0.0000       0.0000    -999.2500       0.0000      40.2172       0.0000
   1409.0364       0.0000      -0.1000    -999.2500       0.5992       0.6671       0.0000       0.0000       0.0000    -999.2500       0.0000      39.7785       0.0000
   1409.1888       0.0000      -0.1000    -999.2500       0.6100       0.6740       0.0000       0.0000       0.0000    -999.2500       0.0000      39.7596       0.0000
   1409.3412       0.0000      -0.1000    -999.2500       0.6200       0.6840       0.0000       0.0000       0.0000    -999.2500       0.0000      40.7464       0.0000
   1409.4937       0.0000      -0.1000    -999.2500       0.6305       0.6961       0.0000       0.0000       0.0000    -999.2500       0.0000      41.2410       0.0000
   1409.6460       0.0000      -0.1000    -999.2500       0.6420       0.7131       0.0000       0.0000       0.0000    -999.2500       0.0000      40.5827       0.0000
   1409.7983       0.0000      -0.1000    -999.2500       0.6517       0.7279       0.0000       0.0000       0.0000    -999.2500       0.0000      40.2061       0.0000
   1409.9508       0.0000      -0.1000    -999.2500       0.6572       0.7374       0.0000       0.0000       0.0000    -999.2500       0.0000      40.4722       0.0000
   1410.1031       0.0000      -0.1000    -999.2500       0.6582       0.7395       0.0000       0.0000       0.0000    -999.2500       0.0000      39.8753       0.0000
   1410.2556       0.0000      -0.1000    -999.2500       0.6492       0.7250       0.0000       0.0000       0.0000    -999.2500       0.0000      37.3528       0.0000
   1410.4080       0.0000      -0.1000    -999.2500       0.6397       0.7090       0.0000       0.0000       0.0000    -999.2500       0.0000      35.7435       0.0000
   1410.5604       0.0000      -0.1000    -999.2500       0.6292       0.6899       0.0000       0.0000       0.0000    -999.2500       0.0000      36.1195       0.0000
   1410.7128       0.0000      -0.1000    -999.2500       0.6217       0.6778       0.0000       0.0000       0.0000    -999.2500       0.0000      35.8277       0.0000
   1410.8652       0.0000      -0.1000    -999.2500       0.6207       0.6803       0.0000       0.0000       0.0000    -999.2500       0.0000      34.1207       0.0000
   1411.0176       0.0000      -0.1000    -999.2500       0.6259       0.6906       0.0000       0.0000       0.0000    -999.2500       0.0000      33.1422       0.0000
   1411.1700       0.0000      -0.1000    -999.2500       0.6439       0.7172       0.0000       0.0000       0.0000    -999.2500       0.0000      33.6747       0.0000
   1411.3224       0.0000      -0.1000    -999.2500       0.6679       0.7464       0.0000       0.0000       0.0000    -999.2500       0.0000      34.0156       0.0000
   1411.4749       0.0000      -0.1000    -999.2500       0.7040       0.7810       0.0000       0.0000       0.0000    -999.2500       0.0000      33.9689       0.0000
   1411.6272       0.0000      -0.1000    -999.2500       0.7376       0.8092       0.0000       0.0000       0.0000    -999.2500       0.0000      34.2540       0.0000
   1411.7795       0.0000      -0.1000    -999.2500       0.7662       0.8248       0.0000       0.0000       0.0000    -999.2500       0.0000      35.1932       0.0000
   1411.9320       0.0000      -0.1000    -999.2500       0.7889       0.8367       0.0000       0.0000       0.0000    -999.2500       0.0000      36.4107       0.0000
   1412.0844       0.0000      -0.1000    -999.2500       0.8005       0.8417       0.0000       0.0000       0.0000    -999.2500       0.0000      38.1656       0.0000
   1412.2368       0.0000      -0.1000    -999.2500       0.8047       0.8455       0.0000       0.0000       0.0000    -999.2500       0.0000      38.2803       0.0000
   1412.3892       0.0000      -0.1000    -999.2500       0.7952       0.8470       0.0000       0.0000       0.0000    -999.2500       0.0000      35.3048       0.0000
   1412.5416       0.0000      -0.1000    -999.2500       0.7828       0.8439       0.0000       0.0000       0.0000    -999.2500       0.0000      33.8596       0.0000
   1412.6940       0.0000      -0.1000    -999.2500       0.7653       0.8324       0.0000       0.0000       0.0000    -999.2500       0.0000      35.2384       0.0000
