#------------------------------------------------------------------------------
#
#   Created by  : [OpenWorks] Log Export Utility (LEXP)
#   Created on  : 2016-05-23 11:53:36
#   Project     : CANT971
#   User        : R5K
#   Interpreter : PEP
#
#------------------------------------------------------------------------------
~VERSION INFORMATION
VERS. 2.0 : CWLS Log ASCII Standard - version 2.0
WRAP.  NO : One line per depth step
~WELL INFORMATION
#MNEMONIC   .UNIT                                           VALUE :DESCRIPTION
#------------------------------------------------------------------------------
STRT        .M                                           940.3716 :START DEPTH
STOP        .M                                          3167.2405 :STOP DEPTH
STEP        .M                                             0.1524 :STEP
NULL        .                                           -999.2500 :NULL VALUE
COMP        .                                   PEMEX EXPL & PROD :COMPANY
WELL        .                                                  24 :WELL
FLD         .                                           CANTARELL :FIELD
LOC         .                                             UNKNOWN :LOCATION
CNTY        .                                      CD. DEL CARMEN :COUNTY
STAT        .                                            CAMPECHE :STATE
CTRY        .                                              MEXICO :COUNTRY
SRVC        .                                             UNKNOWN :SERVICE COMPANY
DATE        .                                             UNKNOWN :LOG DATE
UWI         .                                          3060000153 :UNIQUE WELL ID
XCOORD      .                                       598455.290000 :SURFACE X
YCOORD      .                                      2145024.750000 :SURFACE Y
LAT         .                                           19.398172 :LATITUDE
LON         .                                          -92.062351 :LONGITUDE
ELEV        .M                                            26.5400 :SURFACE ELEV
ELEV_TYPE   .                                                  KB :ELEV TYPE
~CURVE INFORMATION
#MNEMONIC.UNIT        API CODE       : CURVE DESCRIPTION
#------------------------------------------------------------------------------
DEPTH    .M                          : Measured Depth
CALI     .inches      UNKNOWN        : CALI:Import:rC:NONE:v0 (auto-composite)
DRHO     .g/cm3       UNKNOWN        : DRHO:Import:rC:NONE:v0 (auto-composite)
DT       .us/ft       UNKNOWN        : DT:Import:rC:NONE:v0 (auto-composite)
GR       .API         UNKNOWN        : GR:Import:rC:NONE:v0 (auto-composite)
ILD      .ohm.m       UNKNOWN        : ILD:Import:rC:NONE:v0 (auto-composite)
LLD      .ohm.m       UNKNOWN        : LLD:Import:rC:NONE:v0 (auto-composite)
LLS      .ohm.m       UNKNOWN        : LLS:Import:rC:NONE:v0 (auto-composite)
MSFL     .ohm.m       UNKNOWN        : MSFL:Import:rC:NONE:v0 (auto-composite)
NPHI     .v/v_decimal UNKNOWN        : NPHI:Import:rC:NONE:v0 (auto-composite)
RHOB     .g/cm3       UNKNOWN        : RHOB:Import:rC:NONE:v0 (auto-composite)
~A     DEPTH         CALI         DRHO           DT           GR          ILD          LLD          LLS         MSFL         NPHI         RHOB
# ...
   2007.1716       8.7152      -0.0122    -999.2500      41.4889    -999.2500    -999.2500    -999.2500    -999.2500       0.3323       2.2993
   2007.3240       8.7252       0.0567    -999.2500      41.3999    -999.2500    -999.2500    -999.2500    -999.2500       0.3290       2.2808
   2007.4764       8.7451       0.0953    -999.2500      41.3584    -999.2500    -999.2500    -999.2500    -999.2500       0.3258       2.2648
   2007.6288       8.7791       0.0913    -999.2500      41.3834    -999.2500    -999.2500    -999.2500    -999.2500       0.3233       2.2523
   2007.7811       8.8092       0.0774    -999.2500      41.6763    -999.2500    -999.2500    -999.2500    -999.2500       0.3213       2.2282
   2007.9336       8.8338       0.0493    -999.2500      42.3476    -999.2500    -999.2500    -999.2500    -999.2500       0.3193       2.1876
   2008.0859       8.8746       0.0347    -999.2500      42.7066    -999.2500    -999.2500    -999.2500    -999.2500       0.3165       2.1470
   2008.2384       8.9381       0.0387    -999.2500      42.6341    -999.2500    -999.2500    -999.2500    -999.2500       0.3129       2.1065
   2008.3907       9.0530       0.0485    -575.9304      42.4206    -999.2500    -999.2500    -999.2500    -999.2500       0.3096       2.0711
   2008.5432       9.2394       0.0665    -184.8374      42.0107    -999.2500    -999.2500    -999.2500    -999.2500       0.3073       2.0426
   2008.6956       9.5080       0.0833      46.1476      41.5107    -999.2500    -999.2500    -999.2500    -999.2500       0.3063       2.0270
   2008.8480       9.8912       0.0982      53.7303      40.8847    -999.2500    -999.2500    -999.2500    -999.2500       0.3068       2.0295
   2009.0004      10.4035       0.1070      57.6299      40.4103    -999.2500    -999.2500    -999.2500    -999.2500       0.3084       2.0374
   2009.1528      11.0972       0.1070      56.3549      40.1489    -999.2500    -999.2500    -999.2500    -999.2500       0.3106       2.0529
   2009.3052      11.8873       0.1047      55.9164      39.7558    -999.2500    -999.2500    -999.2500    -999.2500       0.3126       2.0757
   2009.4576      12.8135       0.0992      56.6571      39.1769    -999.2500    -999.2500    -999.2500    -999.2500       0.3144       2.1088
   2009.6100      13.3449       0.0878      57.0461      38.5165    -999.2500    -999.2500    -999.2500    -999.2500       0.3174       2.1456
   2009.7623      13.3304       0.0683      56.9486      37.7433    -999.2500    -999.2500    -999.2500    -999.2500       0.3224       2.1876
   2009.9148      13.2703       0.0516      57.3963      37.0111    -999.2500    -999.2500    -999.2500    -999.2500       0.3297       2.2241
   2010.0671      13.1469       0.0386      58.6003      36.3357    -999.2500    -999.2500    -999.2500    -999.2500       0.3381       2.2531
   2010.2196      12.9456       0.0250      61.0960      35.3478    -999.2500    -999.2500    -999.2500    -999.2500       0.3434       2.2856
   2010.3719      12.6353       0.0105      65.3964      33.9235    -999.2500    -999.2500    -999.2500    -999.2500       0.3437       2.3231
   2010.5244      12.2987      -0.0069      69.8195      33.7919    -999.2500    -999.2500    -999.2500    -999.2500       0.3403       2.3627
   2010.6768      11.9248      -0.0284      74.4150      35.4786    -999.2500    -999.2500    -999.2500    -999.2500       0.3332       2.4051
   2010.8292      11.2289      -0.0408      81.2565      36.4363    -999.2500    -999.2500    -999.2500    -999.2500       0.3216       2.4473
   2010.9816      10.0782      -0.0403      91.2687      36.3646    -999.2500    -999.2500    -999.2500    -999.2500       0.3069       2.4889
   2011.1340       9.4192      -0.0390     100.2624      36.2136    -999.2500    -999.2500    -999.2500    -999.2500       0.2946       2.5233
   2011.2864       9.4387      -0.0365     107.8506      35.9534    -999.2500    -999.2500    -999.2500    -999.2500       0.2873       2.5478
   2011.4388       9.4498      -0.0350     111.4925      35.7236    -999.2500    -999.2500    -999.2500    -999.2500       0.2841       2.5649
   2011.5912       9.4493      -0.0350     109.6516      35.5362    -999.2500    -999.2500    -999.2500    -999.2500       0.2842       2.5719
   2011.7435       9.4407      -0.0352     106.2221      35.3489    -999.2500    -999.2500    -999.2500    -999.2500       0.2865       2.5777
   2011.8960       9.4207      -0.0357     100.5706      35.1615    -999.2500    -999.2500    -999.2500    -999.2500       0.2902       2.5817
   2012.0483       9.3681      -0.0360      96.9078      34.9537    -999.2500    -999.2500    -999.2500       0.1958       0.2947       2.5857
   2012.2008       9.2696      -0.0360      96.0370      34.7174    -999.2500    -999.2500    -999.2500       0.1859       0.2992       2.5897
   2012.3531       9.1628      -0.0368      94.7868      34.5790    -999.2500       1.4259       0.8792       0.2089       0.3027       2.5947
   2012.5056       9.0439      -0.0388      93.0004      34.5790    -999.2500       3.7910       2.3448       0.2786       0.3044       2.6012
   2012.6580       8.9706      -0.0394      91.5468      34.5490    -999.2500       4.9610       3.0486       0.7106       0.3054       2.6048
   2012.8104       8.9601      -0.0379      90.5531      34.4776    -999.2500       4.4799       2.6999       1.6433       0.3065       2.6043
   2012.9628       8.9396      -0.0337      89.5388      34.3162    -999.2500       3.7218       2.5204       2.1434       0.3081       2.6023
   2013.1152       8.9051      -0.0257      88.4957      34.0299    -999.2500       2.5783       2.5764       2.0414       0.3104       2.5983
   2013.2676       8.8787      -0.0212      87.0634      33.6545    -999.2500       1.9268       2.7172       2.0329       0.3127       2.5912
   2013.4199       8.8638      -0.0217      85.0875      33.1549    -999.2500       1.9623       2.9765       2.1548       0.3155       2.5797
   2013.5724       8.8527      -0.0239      83.0804      32.8850    -999.2500       2.0395       3.2360       2.4418       0.3217       2.5734
   2013.7247       8.8472      -0.0284      81.0293      32.9380    -999.2500       2.1754       3.4959       2.9611       0.3300       2.5744
   2013.8772       8.8378      -0.0308      79.0681      33.0871    -999.2500       2.3284       3.7079       3.4003       0.3336       2.5769
   2014.0295       8.8227      -0.0303      77.2337      33.3718    -999.2500       2.5053       3.8522       3.7266       0.3290       2.5814
   2014.1820       8.8136      -0.0277      75.8341      33.6972    -999.2500       2.8311       4.1595       4.1716       0.3168       2.5863
   2014.3344       8.8126      -0.0222      75.0360      34.0790    -999.2500       3.3629       4.6923       4.7808       0.2985       2.5918
   2014.4868       8.8202      -0.0198      74.3308      34.3177    -999.2500       4.0475       5.5283       5.4601       0.2785       2.5967
   2014.6392       8.8396      -0.0218      73.7548      34.3577    -999.2500       4.9442       6.7852       6.2364       0.2571       2.6007
   2014.7916       8.8508      -0.0230      72.9738      34.7034    -999.2500       7.1023       8.7548       7.3334       0.2304       2.6049
   2014.9440       8.8503      -0.0230      71.9063      35.4766    -999.2500      11.0236      11.7205       8.8788       0.1975       2.6094
   2015.0964       8.8542      -0.0222      71.3190      37.5659    -999.2500      13.0937      13.8042       9.5407       0.1625       2.6143
   2015.2488       8.8642      -0.0202      71.4054      41.5016    -999.2500      12.5666      14.6505       8.9631       0.1309       2.6198
   2015.4011       8.8862      -0.0167      72.7289      43.6142    -999.2500      12.3736      16.3591      10.0270       0.1119       2.6263
   2015.5536       8.9253      -0.0112      75.7999      43.1514    -999.2500      12.6523      19.2857      13.4094       0.1077       2.6343
