#------------------------------------------------------------------------------
#
#   Created by  : [OpenWorks] Log Export Utility (LEXP)
#   Created on  : 2015-10-01 09:50:16
#   Project     : CANT971
#   User        : R5K
#   Interpreter : PEP
#
#------------------------------------------------------------------------------
~VERSION INFORMATION
VERS. 2.0 : CWLS Log ASCII Standard - version 2.0
WRAP.  NO : One line per depth step
~WELL INFORMATION
#MNEMONIC   .UNIT                                           VALUE :DESCRIPTION
#------------------------------------------------------------------------------
STRT        .M                                           352.7300 :START DEPTH
STOP        .M                                          2346.8840 :STOP DEPTH
STEP        .M                                             0.1524 :STEP
NULL        .                                           -999.2500 :NULL VALUE
COMP        .                                   PEMEX EXPL & PROD :COMPANY
WELL        .                                        CANTARELL-64 :WELL
FLD         .                                           CANTARELL :FIELD
LOC         .                                             UNKNOWN :LOCATION
CNTY        .                                      CD. DEL CARMEN :COUNTY
STAT        .                                            CAMPECHE :STATE
CTRY        .                                              MEXICO :COUNTRY
SRVC        .                                             UNKNOWN :SERVICE COMPANY
DATE        .                                             UNKNOWN :LOG DATE
UWI         .                                          3060000172 :UNIQUE WELL ID
XCOORD      .                                       599695.280000 :SURFACE X
YCOORD      .                                      2143036.290000 :SURFACE Y
LAT         .                                           19.380142 :LATITUDE
LON         .                                          -92.050647 :LONGITUDE
ELEV        .M                                            26.7400 :SURFACE ELEV
ELEV_TYPE   .                                                  KB :ELEV TYPE
~CURVE INFORMATION
#MNEMONIC.UNIT        API CODE       : CURVE DESCRIPTION
#------------------------------------------------------------------------------
DEPTH    .M                          : Measured Depth
CALI     .inches      UNKNOWN        : CALI:UNKNOWN:rC:NONE:v0 (auto-composite)
DRHO     .g/cm3       UNKNOWN        : DRHO:UNKNOWN:rC:NONE:v0 (auto-composite)
DT       .us/ft       UNKNOWN        : DT:DT:rC:NONE:v0 (auto-composite)
GR       .API         UNKNOWN        : GR:GR-Load:rC:NONE:v0 (auto-composite)
ILD      .ohm.m       UNKNOWN        : ILD:ILD-Load:rC:NONE:v0 (auto-composite)
LLD      .ohm.m       UNKNOWN        : LLD:UNKNOWN:rC:NONE:v0 (auto-composite)
LLS      .ohm.m       UNKNOWN        : LLS:UNKNOWN:rC:NONE:v0 (auto-composite)
MSFL     .ohm.m       UNKNOWN        : MSFL:UNKNOWN:rC:NONE:v0 (auto-composite)
NPHI     .v/v_decimal UNKNOWN        : NPHI:NPHI:rC:NONE:v0 (auto-composite)
PEF      .b/elec      UNKNOWN        : PEF:UNKNOWN:rC:NONE:v0 (auto-composite)
RHOB     .g/cm3       UNKNOWN        : RHOB:RHOB-Load:rC:NONE:v0 (auto-composite)
~A     DEPTH        CALI         DRHO           DT           GR          ILD          LLD          LLS         MSFL         NPHI          PEF         RHOB
# ...
   2048.6372      7.4716       0.0428      56.1675      33.5498    -999.2500     139.2887      45.1176      14.8675       8.2477       5.7185       2.6947 
   2048.7896      7.4139       0.0598      57.5475      35.3081    -999.2500     102.8812      38.5308      16.2749       9.0275       6.0709       2.6842 
   2048.9421      7.3376       0.0727      59.0050      34.2343    -999.2500     104.1177      37.9245      20.5786       9.9681       6.1973       2.6780 
   2049.0945      7.2599       0.0852      60.5389      30.3554    -999.2500     108.1133      37.7565      25.0946      11.0662       6.3071       2.6760 
   2049.2468      7.2724       0.0813      62.0748      26.1762    -999.2500     121.8031      39.0848      28.3442      12.1487       6.6312       2.6805 
   2049.3992      7.2909       0.0763      63.6129      21.7006    -999.2500     136.1418      40.5133      31.5090      13.2161       6.9696       2.6915 
   2049.5518      7.6125       0.0595      63.9983      19.0187    -999.2500     137.1917      41.4322      25.2285      13.6963       8.6685       2.6935 
   2049.7041      7.9524       0.0419      63.2486      18.1031    -999.2500     137.4354      42.3201      18.3750      13.6018      10.4500       2.6865 
   2049.8564      9.3093       0.0244      62.0963      19.9093    -999.2500     210.4840      56.8188      10.9666      12.9899      17.7290       2.6654 
   2050.0088     10.7216       0.0068      60.5462      24.4050    -999.2500     287.4983      72.0588       3.5279      11.8700      25.3074       2.6304 
   2050.1611     11.5849      -0.0064      59.2251      29.0952    -999.2500     299.7497      70.3132       3.1100      10.5384      21.5346       2.5977 
   2050.3137     12.4208      -0.0195      58.1296      33.9771    -999.2500     308.7562      67.7165       3.0438       8.9995      17.1931       2.5672 
   2050.4661     12.0732      -0.0186      56.7479      34.6984    -999.2500     297.7969      69.1861       3.2206      11.1143      12.1369       2.5475 
   2050.6184     11.6736      -0.0171      55.0833      31.3066    -999.2500     285.9586      70.8346       3.4081      16.8179       7.0493       2.5385 
   2050.7708     10.1737       0.0096      55.1029      27.9288    -999.2500     376.8820      90.6203       3.4966      21.9385       6.4273       2.5285 
   2050.9233      8.6319       0.0371      56.7827      24.5648    -999.2500     471.7124     111.0956       3.5814      26.4880       5.9751       2.5175 
   2051.0757      7.7348       0.0584      58.8781      23.9270    -999.2500     664.6366     138.4571      13.1004      27.3863       5.6603       2.5075 
   2051.2280      6.8584       0.0795      61.3845      25.9858    -999.2500     860.7076     166.0396      22.9222      24.6963       5.3499       2.4985 
   2051.3804      6.7530       0.0658      62.3351      28.6469    -999.2500    1158.4222     189.4840      34.5103      21.8221       4.6893       2.5048 
   2051.5330      6.6678       0.0513      61.7513      31.9020    -999.2500    1458.8008     212.8200      46.1447      18.7675       4.0195       2.5263 
   2051.6853      6.6459       0.0294      60.6920      35.7640    -999.2500    1485.6423     216.3699      71.6987      16.0881       3.6145       2.5578 
   2051.8376      6.6253       0.0074      59.1619      40.2267    -999.2500    1506.4460     219.4830      97.5599      13.7777       3.2154       2.5993 
   2051.9900      6.5569       0.0065      57.9904      45.7232    -999.2500    1173.5599     200.9888     149.4201      11.5995       3.2332       2.6363 
   2052.1423      6.4870       0.0060      57.1726      52.2399    -999.2500     831.3450     181.9440     202.2540       9.5509       3.2580       2.6688 
   2052.2949      6.4974       0.0095      56.9146      56.2147    -999.2500     777.1269     174.7473     171.0648       8.0973       3.5507       2.6948 
   2052.4473      6.5080       0.0130      57.2075      57.6727    -999.2500     722.0610     167.4380     139.3880       7.2290       3.8480       2.7143 
   2052.5996      6.4865       0.0155      57.0391      55.6108    -999.2500     695.3578     177.8620     111.2575       6.6955       3.8355       2.7273 
   2052.7520      6.4650       0.0180      56.4154      50.0742    -999.2500     668.5370     188.3320      83.0030       6.4904       3.8230       2.7338 
   2052.9045      6.4299       0.0270      55.4282      46.3368    -999.2500     679.9929     195.4493      82.9012       6.3690       3.7573       2.7270 
   2053.0569      6.3950       0.0360      54.0833      44.3815    -999.2500     691.3720     202.5190      82.8000       6.3296       3.6920       2.7070 
   2053.2092      6.3985       0.0405      53.2353      42.9377    -999.2500     812.1896     214.1244      67.9283       6.1353       3.5897       2.6950 
   2053.3616      6.4020       0.0450      52.8782      41.9988    -999.2500     931.0630     225.5430      53.2960       5.7892       3.4890       2.6910 
   2053.5142      6.4881       0.0627      51.0637      40.8521    -999.2500     884.0737     225.0821      45.2198       5.4604       3.4399       2.6945 
   2053.6665      6.5733       0.0806      47.8141      39.5007    -999.2500     836.4493     224.4774      39.4699       5.1485       3.3915       2.7055 
   2053.8188      6.6581       0.1218      45.7975      38.4506    -999.2500     719.2384     214.5082     175.3386       5.0361       3.3609       2.7223 
   2053.9712      6.7389       0.1616      44.9992      37.6983    -999.2500     623.3068     205.8221     313.2735       5.1197       3.3305       2.7448 
   2054.1235      6.6412       0.1410      46.3262      37.9962    -999.2500    1511.9998     256.5021     546.8194       5.3143       3.3049       2.7786 
   2054.2761      6.5455       0.1197      49.7473      39.3286    -999.2500    2372.7300     306.7794     767.7474       5.6177       3.2813       2.8236 
   2054.4285      6.5254       0.0721      51.2322      40.1761    -999.2500    2214.0652     342.3745     528.6868       5.8008       3.3299       2.8505 
   2054.5808      6.5042       0.0257      50.8030      40.5443    -999.2500    2057.7271     376.9525     295.2633       5.8658       3.3745       2.8595 
   2054.7332      6.4491       0.0177      50.3172      37.3788    -999.2500    1971.2219     381.0010     231.0397       5.4905       3.2958       2.8439 
   2054.8857      6.3955       0.0101      49.7754      30.7302    -999.2500    1886.6683     385.3656     169.9508       4.6838       3.2230       2.8039 
   2055.0381      6.3830       0.0121      49.5480      24.6781    -999.2500    1854.0951     398.1495     192.3584       4.0252       3.3062       2.7807 
   2055.1904      6.3710       0.0141      49.6315      19.2161    -999.2500    1813.8364     409.7656     212.5679       3.5120       3.3916       2.7742 
   2055.3428      6.3710       0.0166      49.1526      16.9622    -999.2500    1597.0912     394.5630     182.3000       3.2777       3.5270       2.7728 
   2055.4954      6.3696       0.0189      48.1191      17.8723    -999.2500    1383.2367     379.5177     152.1638       3.3167       3.6622       2.7763 
   2055.6477      6.3405       0.0174      47.7785      18.8313    -999.2500    1227.6428     367.6443     124.6811       3.4692       3.7941       2.7747 
   2055.8000      6.3111       0.0158      48.1236      19.8387    -999.2500    1078.6589     356.4001      97.8550       3.7333       3.9138       2.7682 
   2055.9524      6.2760       0.0128      48.6706      20.3287    -999.2500    1048.2130     356.4392      82.8028       4.0160       3.8161       2.7597 
   2056.1047      6.2437       0.0099      49.4169      20.3082    -999.2500    1024.0038     356.9830      68.0735       4.3172       3.7180       2.7492 
   2056.2573      6.2563       0.0079      49.9487      22.4527    -999.2500    1100.4207     365.6696      58.5546       4.4397       3.6157       2.7453 
   2056.4097      6.2698       0.0060      50.2696      26.7407    -999.2500    1171.7150     373.6161      49.9059       4.3877       3.5194       2.7478 
