#------------------------------------------------------------------------------
#
#   Created by  : [OpenWorks] Log Export Utility (LEXP)
#   Created on  : 2016-05-23 11:56:24
#   Project     : CANT971
#   User        : R5K
#   Interpreter : PEP
#
#------------------------------------------------------------------------------
~VERSION INFORMATION
VERS. 2.0 : CWLS Log ASCII Standard - version 2.0
WRAP.  NO : One line per depth step
~WELL INFORMATION
#MNEMONIC   .UNIT                                           VALUE :DESCRIPTION
#------------------------------------------------------------------------------
STRT        .M                                           741.4294 :START DEPTH
STOP        .M                                          2768.5020 :STOP DEPTH
STEP        .M                                             0.1524 :STEP
NULL        .                                           -999.2500 :NULL VALUE
COMP        .                                             UNKNOWN :COMPANY
WELL        .                                                 470 :WELL
FLD         .                                             UNKNOWN :FIELD
LOC         .                                             UNKNOWN :LOCATION
CNTY        .                                             UNKNOWN :COUNTY
STAT        .                                             UNKNOWN :STATE
CTRY        .                                             UNKNOWN :COUNTRY
SRVC        .                                             UNKNOWN :SERVICE COMPANY
DATE        .                                             UNKNOWN :LOG DATE
UWI         .                                                 470 :UNIQUE WELL ID
XCOORD      .                                       598706.890000 :SURFACE X
YCOORD      .                                      2143306.000000 :SURFACE Y
LAT         .                                           19.382628 :LATITUDE
LON         .                                          -92.060044 :LONGITUDE
ELEV        .M                                             0.0000 :SURFACE ELEV
ELEV_TYPE   .                                                  NA :ELEV TYPE
~CURVE INFORMATION
#MNEMONIC.UNIT        API CODE       : CURVE DESCRIPTION
#------------------------------------------------------------------------------
DEPTH    .M                          : Measured Depth
CALI     .inches      UNKNOWN        : CALI:litodensidad:rC:NONE:v0 (auto-composite)
CGR      .API         UNKNOWN        : CGR:PETROWORKS:rC:NONE:v1 
DRHO     .g/cm3       UNKNOWN        : DRHO:litodensidad:rC:NONE:v0 (auto-composite)
DT       .us/ft       UNKNOWN        : DT:PETROWORKS:rC:NONE:v1 
GR       .API         UNKNOWN        : GR:PETROWORKS:rC:NONE:v8 
ILD      .ohm.m       UNKNOWN        : ILD:PETROWORKS:rC:NONE:v1 
ILM      .ohm.m       UNKNOWN        : ILM:PETROWORKS:rC:NONE:v1 
LLD      .ohm.m       UNKNOWN        : LLD:resistivos:rC:NONE:v0 (auto-composite)
LLS      .ohm.m       UNKNOWN        : LLS:resistivos:rC:NONE:v0 (auto-composite)
MSFL     .ohm.m       UNKNOWN        : MSFL:resistivos:rC:NONE:v0 (auto-composite)
NPHI     .v/v_decimal UNKNOWN        : NPHI:PETROWORKS:rC:NONE:v1 
PEF      .UNKNOWN     UNKNOWN        : PEF:litodensidad:rC:NONE:v0 (auto-composite)
POTA     .wtpercent   UNKNOWN        : POTA:PETROWORKS:rC:NONE:v1 
RHOB     .g/cm3       UNKNOWN        : RHOB:litodensidad:rC:NONE:v0 (auto-composite)
THOR     .ppm         UNKNOWN        : THOR:PETROWORKS:rC:NONE:v1 
URAN     .ppm         UNKNOWN        : URAN:PETROWORKS:rC:NONE:v1 
~A     DEPTH         CALI          CGR         DRHO           DT           GR          ILD          ILM          LLD          LLS         MSFL         NPHI          PEF         POTA         RHOB         THOR         URAN
# ...
   2765.7585       3.1230     -92.7430       0.3710      50.0344      80.7513    -999.2500    -999.2500      32.5104      43.6500       3.1868       0.1285       7.3076      -0.0372       2.8145      -3.8504      17.1138
   2765.9111       3.1230     -92.7424       0.3710      50.0344      80.7513    -999.2500    -999.2500      32.5104      43.6500       1.4486       0.1285       7.3076      -0.0372       2.8145      -3.8503      17.1138
   2766.0635       3.1230     -92.7417       0.3710      50.3668      80.7513    -999.2500    -999.2500      32.5104      43.6500       1.3276       0.1285       7.3076      -0.0372       2.8145      -3.8502      17.1137
   2766.2158       3.1230     -92.7410       0.3710      50.3668      80.7513    -999.2500    -999.2500      32.5104      43.6500       1.3235       0.1285       7.3076      -0.0372       2.8145      -3.8501      17.1136
   2766.3682       3.1230     -92.7401       0.3710      50.3668      80.7513    -999.2500    -999.2500      32.5104      43.6500       1.3068       0.1285       7.3076      -0.0372       2.8145      -3.8499      17.1135
   2766.5208       3.1230     -92.7392       0.3710      50.3668      80.7513    -999.2500    -999.2500      32.5104      43.6500       1.2871       0.1285       7.3076      -0.0372       2.8145      -3.8498      17.1134
   2766.6731       3.1230     -92.7381       0.3710      50.3668      80.7513    -999.2500    -999.2500      32.5104      43.6500       1.2745       0.1285       7.3076      -0.0372       2.8145      -3.8497      17.1133
   2766.8254       3.1230     -92.7369       0.3710      50.3668      80.7513    -999.2500    -999.2500      32.5104      43.6500       1.2482       0.1285       7.3076      -0.0372       2.8145      -3.8495      17.1132
   2766.9778       3.1230     -92.7356       0.3710    -999.2500      80.7513    -999.2500    -999.2500      32.5104      43.6500       1.2346       0.1285       7.3076      -0.0372       2.8145      -3.8493      17.1131
   2767.1301       3.1230     -92.7341       0.3710    -999.2500      80.7513    -999.2500    -999.2500      32.5104      43.6500       1.2237       0.1285       7.3076      -0.0372       2.8145      -3.8491      17.1129
   2767.2827       3.1230     -92.7324       0.3710    -999.2500      80.7513    -999.2500    -999.2500      32.5104      43.6500       1.2259       0.1285       7.3076      -0.0372       2.8145      -3.8489      17.1128
   2767.4351       3.1230     -92.7305       0.3710    -999.2500      80.7513    -999.2500    -999.2500      32.5104      43.6500       1.2372       0.1285       7.3076      -0.0372       2.8145      -3.8487      17.1126
   2767.5874       3.1230     -92.7285       0.3710    -999.2500      80.7513    -999.2500    -999.2500      32.5104      43.6500       1.2482       0.1285       7.3076      -0.0371       2.8145      -3.8485      17.1124
   2767.7397       3.1230     -92.7261       0.3710    -999.2500      80.7513    -999.2500    -999.2500      32.5104      43.6500       1.2654       0.1285       7.3076      -0.0371       2.8145      -3.8482      17.1122
   2767.8923       3.1230     -92.7235       0.3710    -999.2500      80.7513    -999.2500    -999.2500      32.5104      43.6500       1.2774       0.1285       7.3076      -0.0371       2.8145      -3.8479      17.1119
   2768.0447       3.1230     -92.7205       0.3710    -999.2500      80.7513    -999.2500    -999.2500      32.5104      43.6500       1.2794       0.1285       7.3076      -0.0371       2.8145      -3.8476      17.1116
   2768.1970       3.1230     -92.7173       0.3710    -999.2500      80.7513    -999.2500    -999.2500      32.5104      43.6500       1.2794       0.1285       7.3076      -0.0371       2.8145      -3.8474      17.1113
   2768.3494       3.1230     -92.7136       0.3710    -999.2500      80.7511    -999.2500    -999.2500      32.5104      43.6500       1.2794       0.1285       7.3076      -0.0371       2.8145      -3.8471      17.1109
   2768.5020       3.1230     -92.7136    -999.2500    -999.2500      80.7511    -999.2500    -999.2500      32.5104      43.6500       1.2794       0.1285    -999.2500      -0.0371    -999.2500      -3.8471      17.1109
