#------------------------------------------------------------------------------
#
#   Created by  : [OpenWorks] Log Export Utility (LEXP)
#   Created on  : 2016-05-23 11:53:36
#   Project     : CANT971
#   User        : R5K
#   Interpreter : PEP
#
#------------------------------------------------------------------------------
~VERSION INFORMATION
VERS. 2.0 : CWLS Log ASCII Standard - version 2.0
WRAP.  NO : One line per depth step
~WELL INFORMATION
#MNEMONIC   .UNIT                                           VALUE :DESCRIPTION
#------------------------------------------------------------------------------
STRT        .M                                           940.3716 :START DEPTH
STOP        .M                                          3167.2405 :STOP DEPTH
STEP        .M                                             0.1524 :STEP
NULL        .                                           -999.2500 :NULL VALUE
COMP        .                                   PEMEX EXPL & PROD :COMPANY
WELL        .                                                  24 :WELL
FLD         .                                           CANTARELL :FIELD
LOC         .                                             UNKNOWN :LOCATION
CNTY        .                                      CD. DEL CARMEN :COUNTY
STAT        .                                            CAMPECHE :STATE
CTRY        .                                              MEXICO :COUNTRY
SRVC        .                                             UNKNOWN :SERVICE COMPANY
DATE        .                                             UNKNOWN :LOG DATE
UWI         .                                          3060000153 :UNIQUE WELL ID
XCOORD      .                                       598455.290000 :SURFACE X
YCOORD      .                                      2145024.750000 :SURFACE Y
LAT         .                                           19.398172 :LATITUDE
LON         .                                          -92.062351 :LONGITUDE
ELEV        .M                                            26.5400 :SURFACE ELEV
ELEV_TYPE   .                                                  KB :ELEV TYPE
~CURVE INFORMATION
#MNEMONIC.UNIT        API CODE       : CURVE DESCRIPTION
#------------------------------------------------------------------------------
DEPTH    .M                          : Measured Depth
CALI     .inches      UNKNOWN        : CALI:Import:rC:NONE:v0 (auto-composite)
DRHO     .g/cm3       UNKNOWN        : DRHO:Import:rC:NONE:v0 (auto-composite)
DT       .us/ft       UNKNOWN        : DT:Import:rC:NONE:v0 (auto-composite)
GR       .API         UNKNOWN        : GR:Import:rC:NONE:v0 (auto-composite)
ILD      .ohm.m       UNKNOWN        : ILD:Import:rC:NONE:v0 (auto-composite)
LLD      .ohm.m       UNKNOWN        : LLD:Import:rC:NONE:v0 (auto-composite)
LLS      .ohm.m       UNKNOWN        : LLS:Import:rC:NONE:v0 (auto-composite)
MSFL     .ohm.m       UNKNOWN        : MSFL:Import:rC:NONE:v0 (auto-composite)
NPHI     .v/v_decimal UNKNOWN        : NPHI:Import:rC:NONE:v0 (auto-composite)
RHOB     .g/cm3       UNKNOWN        : RHOB:Import:rC:NONE:v0 (auto-composite)
~A     DEPTH         CALI         DRHO           DT           GR          ILD          LLD          LLS         MSFL         NPHI         RHOB
# ...
   2613.1140    -999.2500    -999.2500    -999.2500      30.2920    -999.2500     312.6237      45.1473      16.7330       0.1511    -999.2500
   2613.2664    -999.2500    -999.2500    -999.2500      32.0348    -999.2500     223.7465      43.9036      17.1676       0.1484    -999.2500
   2613.4187    -999.2500    -999.2500    -999.2500      33.4748    -999.2500     180.4279      53.8913      27.0991       0.1556    -999.2500
   2613.5713    -999.2500    -999.2500    -999.2500      34.8999    -999.2500     139.6272      64.4692      38.3036       0.1658    -999.2500
   2613.7236    -999.2500    -999.2500    -999.2500      36.2083    -999.2500     118.5833      79.6781      59.4970       0.1782    -999.2500
   2613.8760    -999.2500    -999.2500    -999.2500      37.1079    -999.2500     101.6962     102.1315      88.2689       0.1880    -999.2500
   2614.0283    -999.2500    -999.2500    -999.2500      34.7718    -999.2500     117.7090     181.9226     177.0230       0.1886    -999.2500
   2614.1807    -999.2500    -999.2500    -999.2500      32.3517    -999.2500     132.5125     250.6245     251.1876       0.1896    -999.2500
   2614.3333    -999.2500    -999.2500    -999.2500      29.2501    -999.2500     137.5028     229.3356     206.9572       0.1972    -999.2500
   2614.4856    -999.2500    -999.2500    -999.2500      26.3102    -999.2500     143.3304     207.5422     164.2993       0.2019    -999.2500
   2614.6379    -999.2500    -999.2500    -999.2500      24.6949    -999.2500     156.0124     181.6174     134.5167       0.1947    -999.2500
   2614.7903    -999.2500    -999.2500    -999.2500      23.0600    -999.2500     170.7877     154.8561     107.0319       0.1884    -999.2500
   2614.9429    -999.2500    -999.2500    -999.2500      21.2632    -999.2500     202.8557     121.1846      98.5299       0.1930    -999.2500
   2615.0952    -999.2500    -999.2500    -999.2500      19.6028    -999.2500     233.0753      88.7965      88.9647       0.1978    -999.2500
   2615.2476    -999.2500    -999.2500    -999.2500      19.0984    -999.2500     247.6256      67.2873      70.3862       0.1953    -999.2500
   2615.3999    -999.2500    -999.2500    -999.2500      18.8903    -999.2500     259.9589      46.7040      51.9693       0.1888    -999.2500
   2615.5525    -999.2500    -999.2500    -999.2500      21.0544    -999.2500     254.5462      33.5312      34.8462       0.1758    -999.2500
   2615.7048    -999.2500    -999.2500    -999.2500      23.2595    -999.2500     270.0858      21.9185      19.7659       0.1624    -999.2500
   2615.8572    -999.2500    -999.2500    -999.2500      25.7959    -999.2500     454.8111      22.9031      21.1802       0.1520    -999.2500
   2616.0095    -999.2500    -999.2500    -999.2500      28.0973    -999.2500     608.5594      23.4579      22.1076       0.1417    -999.2500
   2616.1619    -999.2500    -999.2500    -999.2500      28.4843    -999.2500     509.9550      20.5115      19.0668       0.1301    -999.2500
   2616.3145    -999.2500    -999.2500    -999.2500      28.6623    -999.2500     405.3517      17.3101      15.7688       0.1211    -999.2500
   2616.4668    -999.2500    -999.2500    -999.2500      27.0930    -999.2500     250.6131      11.9774      10.3206       0.1197    -999.2500
   2616.6191    -999.2500    -999.2500    -999.2500      25.7151    -999.2500     107.2961       7.5505       5.7070       0.1204    -999.2500
   2616.7715    -999.2500    -999.2500    -999.2500      25.9517    -999.2500      60.3073      10.7624       8.1317       0.1208    -999.2500
   2616.9241    -999.2500    -999.2500    -999.2500      26.2817    -999.2500      21.6558      14.9730      11.4035       0.1178    -999.2500
   2617.0764    -999.2500    -999.2500    -999.2500      27.3553    -999.2500      49.4099      27.1388      21.4222       0.1051    -999.2500
   2617.2288    -999.2500    -999.2500    -999.2500      28.3944    -999.2500      75.8181      38.8049      31.0554       0.0898    -999.2500
   2617.3811    -999.2500    -999.2500    -999.2500      29.1570    -999.2500      91.4128      46.4565      37.5914       0.0739    -999.2500
   2617.5337    -999.2500    -999.2500    -999.2500      29.9107    -999.2500     104.7705      52.8627      43.1727       0.0628    -999.2500
   2617.6860    -999.2500    -999.2500    -999.2500      30.5919    -999.2500      99.6927      49.0069      40.8872       0.0663    -999.2500
   2617.8384    -999.2500    -999.2500    -999.2500      31.0118    -999.2500      94.2331      44.9737      38.4881       0.0776    -999.2500
   2617.9907    -999.2500    -999.2500    -999.2500      29.2590    -999.2500      85.5992      39.4660      35.1454       0.1007    -999.2500
   2618.1431    -999.2500    -999.2500    -999.2500      27.4259    -999.2500      78.3812      35.1678      32.5150       0.1260    -999.2500
   2618.2957    -999.2500    -999.2500    -999.2500      24.9630    -999.2500      82.2896      40.3746      35.4822       0.1479    -999.2500
   2618.4480    -999.2500    -999.2500    -999.2500      22.7359    -999.2500      87.7592      47.3689      39.6049       0.1543    -999.2500
   2618.6003    -999.2500    -999.2500    -999.2500      22.3784    -999.2500     105.6042      68.5313      52.8855       0.1219    -999.2500
   2618.7527    -999.2500    -999.2500    -999.2500      22.4114    -999.2500     122.2013      88.3032      65.5052       0.0895    -999.2500
   2618.9053    -999.2500    -999.2500    -999.2500      25.6185    -999.2500     128.6565      96.7751      72.7541       0.0844    -999.2500
   2619.0576    -999.2500    -999.2500    -999.2500      28.6608    -999.2500     135.6413     114.0724      89.4933       0.0914    -999.2500
   2619.2100    -999.2500    -999.2500    -999.2500      30.3516    -999.2500     146.9684     203.7327     184.0470       0.1136    -999.2500
   2619.3623    -999.2500    -999.2500    -999.2500      31.8389    -999.2500     160.2866     313.3539     298.3561       0.1494    -999.2500
   2619.5149    -999.2500    -999.2500    -999.2500      31.6428    -999.2500     190.0772     588.1125     576.1025       0.2102    -999.2500
   2619.6672    -999.2500    -999.2500    -999.2500      31.4323    -999.2500     221.9206     881.6769     872.7508       0.2574    -999.2500
   2619.8196    -999.2500    -999.2500    -999.2500      31.1082    -999.2500     269.8166    1322.2947    1317.2043       0.2512    -999.2500
   2619.9719    -999.2500    -999.2500    -999.2500      30.7759    -999.2500     311.7852    1697.1754    1695.4554       0.2237    -999.2500
   2620.1243    -999.2500    -999.2500    -999.2500      30.3786    -999.2500     306.2426    1545.1295    1543.0498       0.1775    -999.2500
   2620.2769    -999.2500    -999.2500    -999.2500      29.9636    -999.2500     298.6423    1362.7717    1360.2012       0.1349    -999.2500
   2620.4292    -999.2500    -999.2500    -999.2500      29.4053    -999.2500     274.4028     935.2978     931.1774       0.1155    -999.2500
   2620.5815    -999.2500    -999.2500    -999.2500      28.8879    -999.2500     252.6050     537.1688     537.1818       0.1059    -999.2500
   2620.7339    -999.2500    -999.2500    -999.2500      28.7042    -999.2500     250.7273     378.4445     428.9557       0.1062    -999.2500
   2620.8865    -999.2500    -999.2500    -999.2500      28.7895    -999.2500     253.2945     251.1891     381.1162       0.1107    -999.2500
   2621.0388    -999.2500    -999.2500    -999.2500      31.1275    -999.2500     293.0648     387.3253     838.7065       0.1189    -999.2500
   2621.1912    -999.2500    -999.2500    -999.2500      33.5624    -999.2500     331.1035     517.6257    1276.9066       0.1255    -999.2500
   2621.3435    -999.2500    -999.2500    -999.2500      36.8159    -999.2500     354.5159     598.6353    1551.3293       0.1251    -999.2500
   2621.4961    -999.2500    -999.2500    -999.2500      39.7367    -999.2500     372.2120     662.1592    1767.5194       0.1181    -999.2500
