#------------------------------------------------------------------------------
#
#   Created by  : [OpenWorks] Log Export Utility (LEXP)
#   Created on  : 2016-05-23 11:56:31
#   Project     : CANT971
#   User        : R5K
#   Interpreter : PEP
#
#------------------------------------------------------------------------------
~VERSION INFORMATION
VERS. 2.0 : CWLS Log ASCII Standard - version 2.0
WRAP.  NO : One line per depth step
~WELL INFORMATION
#MNEMONIC   .UNIT                                           VALUE :DESCRIPTION
#------------------------------------------------------------------------------
STRT        .M                                          1639.8856 :START DEPTH
STOP        .M                                          2789.8960 :STOP DEPTH
STEP        .M                                             0.1524 :STEP
NULL        .                                           -999.2500 :NULL VALUE
COMP        .                                             UNKNOWN :COMPANY
WELL        .                                                 477 :WELL
FLD         .                                             UNKNOWN :FIELD
LOC         .                                             UNKNOWN :LOCATION
CNTY        .                                             UNKNOWN :COUNTY
STAT        .                                             UNKNOWN :STATE
CTRY        .                                             UNKNOWN :COUNTRY
SRVC        .                                             UNKNOWN :SERVICE COMPANY
DATE        .                                             UNKNOWN :LOG DATE
UWI         .                                                 477 :UNIQUE WELL ID
XCOORD      .                                       598704.070000 :SURFACE X
YCOORD      .                                      2143268.860000 :SURFACE Y
LAT         .                                           19.382293 :LATITUDE
LON         .                                          -92.060073 :LONGITUDE
ELEV        .M                                             0.0000 :SURFACE ELEV
ELEV_TYPE   .                                                  KB :ELEV TYPE
~CURVE INFORMATION
#MNEMONIC.UNIT        API CODE       : CURVE DESCRIPTION
#------------------------------------------------------------------------------
DEPTH    .M                          : Measured Depth
CALI     .inches      UNKNOWN        : CALI:litodensidad:rC:NONE:v0 (auto-composite)
CGR      .API         UNKNOWN        : CGR:Espectrometria:rC:NONE:v0 (auto-composite)
DRHO     .g/cm3       UNKNOWN        : DRHO:litodensidad:rC:NONE:v0 (auto-composite)
DT       .us/ft       UNKNOWN        : DT:Sonico:rC:NONE:v0 (auto-composite)
GR       .API         UNKNOWN        : GR:Espectrometria:rC:NONE:v0 (auto-composite)
GR-LWD   .API         UNKNOWN        : GR-LWD:resistivos-LWD:rC:NONE:v0 (auto-composite)
LLD      .ohm.m       UNKNOWN        : LLD:resistivos:rC:NONE:v0 (auto-composite)
LLD-LWD  .ohm.m       UNKNOWN        : LLD-LWD:resistivos-LWD:rC:NONE:v0 (auto-composite)
LLS      .ohm.m       UNKNOWN        : LLS:resistivos:rC:NONE:v0 (auto-composite)
LLS-LWD  .ohm.m       UNKNOWN        : LLS-LWD:resistivos-LWD:rC:NONE:v0 (auto-composite)
MSFL     .ohm.m       UNKNOWN        : MSFL:resistivos:rC:NONE:v0 (auto-composite)
MSFL-LWD .ohm.m       UNKNOWN        : MSFL-LWD:resistivos-LWD:rC:NONE:v0 (auto-composite)
NPHI     .UNKNOWN     UNKNOWN        : NPHI:porosidad:rC:NONE:v0 (auto-composite)
PEF      .UNKNOWN     UNKNOWN        : PEF:litodensidad:rC:NONE:v0 (auto-composite)
POTA     .wtpercent   UNKNOWN        : POTA:PETROWORKS:rC:NONE:v1 
RHOB     .g/cm3       UNKNOWN        : RHOB:litodensidad:rC:NONE:v0 (auto-composite)
THOR     .ppm         UNKNOWN        : THOR:Espectrometria:rC:NONE:v0 (auto-composite)
URAN     .ppm         UNKNOWN        : URAN:Espectrometria:rC:NONE:v0 (auto-composite)
~A     DEPTH         CALI          CGR         DRHO           DT           GR       GR-LWD          LLD      LLD-LWD          LLS      LLS-LWD         MSFL     MSFL-LWD         NPHI          PEF         POTA         RHOB         THOR         URAN
# ...
   2545.1416       8.7509       4.4714      -0.0137     100.8323      17.3711    -999.2500     255.5054    -999.2500     180.3497    -999.2500      71.9472    -999.2500       0.0572       3.2420       0.0024       2.4986       0.3211       1.4361
   2545.2939       8.8470       3.7939      -0.0119      99.4517      17.7260    -999.2500     230.4255    -999.2500     178.6481    -999.2500      18.0539    -999.2500       0.0487       3.2350       0.0025       2.5763       0.1034       1.5511
   2545.4465       8.8152       4.0966      -0.0094      98.9805      17.9158    -999.2500     258.2141    -999.2500     231.6556    -999.2500      19.1092    -999.2500       0.0342       3.2461       0.0028       2.7027       0.0573       1.5385
   2545.5989       8.7036       4.7865      -0.0084      98.8145      18.1637    -999.2500     304.7386    -999.2500     302.9649    -999.2500     111.1801    -999.2500       0.0289       3.2892       0.0033       2.7641       0.0636       1.4893
   2545.7512       8.6162       5.8760      -0.0025      98.3456      18.0829    -999.2500     368.5462    -999.2500     370.3529    -999.2500     191.6739    -999.2500       0.0296       3.3645       0.0035       2.7664       0.2854       1.3590
   2545.9036       8.6131       5.7064       0.0055      97.9945      17.6985    -999.2500     399.2442    -999.2500     352.9085    -999.2500     304.9145    -999.2500       0.0280       3.4338       0.0034       2.7718       0.2885       1.3351
   2546.0559       8.7500       4.3331       0.0114      98.5508      17.2095    -999.2500     357.2819    -999.2500     346.1940    -999.2500     373.8047    -999.2500       0.0235       3.4411       0.0028       2.7972       0.1118       1.4336
   2546.2085       8.8558       3.4279       0.0130      99.8805      16.8844    -999.2500     296.1083    -999.2500     293.2853    -999.2500      70.8949    -999.2500       0.0201       3.4066       0.0023       2.8191       0.0703       1.4982
   2546.3608       8.7911       3.6547       0.0142     101.3389      16.8671    -999.2500     242.8077    -999.2500     227.4162    -999.2500      54.2681    -999.2500       0.0203       3.3651       0.0025       2.8262       0.0605       1.4710
   2546.5132       8.7150       3.8376       0.0137     102.0583      17.0682    -999.2500     228.4854    -999.2500     198.6967    -999.2500     100.2412    -999.2500       0.0223       3.3470       0.0027       2.8148       0.0336       1.4731
   2546.6655       8.6373       4.1747       0.0072     101.5046      17.4279    -999.2500     276.3621    -999.2500     236.7488    -999.2500     153.3122    -999.2500       0.0239       3.3541       0.0028       2.7909       0.0685       1.4755
   2546.8181       8.7053       4.8302      -0.0017     100.6451      17.7042    -999.2500     396.5719    -999.2500     353.3138    -999.2500     244.8046    -999.2500       0.0234       3.3714       0.0028       2.7778       0.2393       1.4333
   2546.9705       8.8112       4.8797      -0.0060     100.6994      17.7969    -999.2500     638.2728    -999.2500     583.2383    -999.2500     170.1180    -999.2500       0.0208       3.3896       0.0028       2.7876       0.2663       1.4381
   2547.1228       8.8587       5.9030      -0.0071     101.1749      17.6225    -999.2500     834.1503    -999.2500     760.8342    -999.2500     175.2688    -999.2500       0.0182       3.3928       0.0036       2.8056       0.2655       1.3048
   2547.2751       8.7778       7.3188      -0.0074    -999.2500      17.5189    -999.2500     873.4138    -999.2500     798.0735    -999.2500     314.8183    -999.2500       0.0173       3.3726       0.0041       2.8140       0.4524       1.1356
   2547.4277       8.6823       7.9290      -0.0085    -999.2500      18.0844    -999.2500     792.0960    -999.2500     709.0186    -999.2500     466.6713    -999.2500       0.0181       3.3413       0.0038       2.8096       0.7562       1.1306
   2547.5801       8.6546       7.5589      -0.0042    -999.2500      19.0735    -999.2500     621.0637    -999.2500     526.8298    -999.2500     715.4037    -999.2500       0.0193       3.3352       0.0030       2.8057       0.9506       1.2820
   2547.7324       8.7335       8.0223       0.0033    -999.2500      20.1017    -999.2500     490.6548    -999.2500     388.0598    -999.2500     696.5430    -999.2500       0.0202       3.3632       0.0029       2.8021       1.1271       1.3449
   2547.8848       8.8781       9.5113       0.0086      98.7754      20.4604    -999.2500     438.1048    -999.2500     335.8298    -999.2500     272.6040    -999.2500       0.0205       3.3910       0.0038       2.7955       1.1796       1.2190
   2548.0371       8.9776       9.6828       0.0062      97.8453      20.2653    -999.2500     433.3517    -999.2500     326.2234    -999.2500     150.0036    -999.2500       0.0209       3.3851       0.0048       2.7871       0.8599       1.1782
   2548.1897       8.8366       8.5990      -0.0005      97.4340      19.3518    -999.2500     470.1389    -999.2500     365.8584    -999.2500     100.5607    -999.2500       0.0215       3.3557       0.0048       2.7876       0.5210       1.1971
   2548.3420       8.6855       7.4713      -0.0037     100.1662      18.5768    -999.2500     563.6837    -999.2500     458.5714    -999.2500     111.1220    -999.2500       0.0208       3.3305       0.0046       2.8071       0.3062       1.2364
   2548.4944       8.6422       7.8990       0.0016     104.2707      17.9082    -999.2500     745.5507    -999.2500     660.8482    -999.2500     235.7598    -999.2500       0.0194       3.3305       0.0045       2.8322       0.4687       1.1144
   2548.6467       8.7726       8.5453       0.0092     105.4967      17.5249    -999.2500     952.0572    -999.2500     913.7915    -999.2500     354.3877    -999.2500       0.0178       3.3448       0.0049       2.8456       0.4693       0.9997
   2548.7993       8.8998       9.3711       0.0106     104.5662      17.1117    -999.2500    1065.1782    -999.2500    1112.4863    -999.2500     120.8629    -999.2500       0.0169       3.3615       0.0050       2.8413       0.6766       0.8618
   2548.9517       8.9265      11.0536       0.0032     103.7166      16.9201    -999.2500     994.7281    -999.2500    1016.3170    -999.2500      86.7739    -999.2500       0.0179       3.3733       0.0048       2.8283       1.2342       0.6532
   2549.1040       8.7560      11.7702      -0.0045     103.2063      16.7772    -999.2500     927.0706    -999.2500     932.6714    -999.2500      88.6432    -999.2500       0.0200       3.3903       0.0044       2.8160       1.6082       0.5575
   2549.2563       8.6849       9.5181      -0.0050     102.7230      16.6024    -999.2500     658.7012    -999.2500     733.5942    -999.2500     131.0273    -999.2500       0.0212       3.3973       0.0045       2.8109       0.9176       0.7887
   2549.4089       8.6604       7.8101      -0.0018     102.0018      16.8272    -999.2500     438.1293    -999.2500     478.1801    -999.2500     134.6421    -999.2500       0.0210       3.3800       0.0044       2.8123       0.4775       1.0039
   2549.5613       8.7154       7.0444       0.0037     100.8008      17.3237    -999.2500     389.1229    -999.2500     360.2537    -999.2500      58.4021    -999.2500       0.0208       3.3558       0.0041       2.8148       0.3832       1.1444
   2549.7136       8.7539       6.0478       0.0116      99.7999      18.0613    -999.2500     439.8318    -999.2500     334.2754    -999.2500      46.2321    -999.2500       0.0217       3.3344       0.0033       2.8110       0.4189       1.3375
   2549.8660       8.7445       5.6976       0.0207    -999.2500      18.9500    -999.2500     583.0295    -999.2500     426.5289    -999.2500      75.9286    -999.2500       0.0228       3.3104       0.0028       2.7965       0.5218       1.4754
   2550.0183       8.7303       5.4460       0.0222    -999.2500      19.6717    -999.2500     800.6833    -999.2500     609.9004    -999.2500      70.9795    -999.2500       0.0227       3.2858       0.0028       2.7821       0.4326       1.5838
