#------------------------------------------------------------------------------
#
#   Created by  : [OpenWorks] Log Export Utility (LEXP)
#   Created on  : 2016-05-23 11:50:15
#   Project     : CANT971
#   User        : R5K
#   Interpreter : PEP
#
#------------------------------------------------------------------------------
~VERSION INFORMATION
VERS. 2.0 : CWLS Log ASCII Standard - version 2.0
WRAP.  NO : One line per depth step
~WELL INFORMATION
#MNEMONIC   .UNIT                                           VALUE :DESCRIPTION
#------------------------------------------------------------------------------
STRT        .M                                          2144.1199 :START DEPTH
STOP        .M                                          3100.2776 :STOP DEPTH
STEP        .M                                             0.1524 :STEP
NULL        .                                           -999.2500 :NULL VALUE
COMP        .                                   PEMEX EXPL & PROD :COMPANY
WELL        .                                               1004D :WELL
FLD         .                                           CANTARELL :FIELD
LOC         .                                             UNKNOWN :LOCATION
CNTY        .                                      CD. DEL CARMEN :COUNTY
STAT        .                                            CAMPECHE :STATE
CTRY        .                                              MEXICO :COUNTRY
SRVC        .                                             UNKNOWN :SERVICE COMPANY
DATE        .                                             UNKNOWN :LOG DATE
UWI         .                                               1004D :UNIQUE WELL ID
XCOORD      .                                       594534.600000 :SURFACE X
YCOORD      .                                      2142053.350000 :SURFACE Y
LAT         .                                           19.371510 :LATITUDE
LON         .                                          -92.099834 :LONGITUDE
ELEV        .M                                            30.0000 :SURFACE ELEV
ELEV_TYPE   .                                                  KB :ELEV TYPE
~CURVE INFORMATION
#MNEMONIC.UNIT        API CODE       : CURVE DESCRIPTION
#------------------------------------------------------------------------------
DEPTH    .M                          : Measured Depth
CALI     .in          UNKNOWN        : CALI:litodensidad:rC:NONE:v0 (auto-composite)
DRHO     .g/cm3       UNKNOWN        : DRHO:litodensidad:rC:NONE:v0 (auto-composite)
DT       .us/ft       UNKNOWN        : DT:DT-Load:rC:NONE:v0 (auto-composite)
GR       .API         UNKNOWN        : GR:TMDL:rC:NONE:v0 (auto-composite)
GR-LWD   .API         UNKNOWN        : GR-LWD:PETROWORKS:rC:NONE:v1 
ILD-LWD  .ohm.m       UNKNOWN        : ILD-LWD:resistivos-LWD:rC:NONE:v0 (auto-composite)
ILM-LWD  .ohm.m       UNKNOWN        : ILM-LWD:resistivos-LWD:rC:NONE:v0 (auto-composite)
LLD-LWD  .ohm.m       UNKNOWN        : LLD-LWD:resistivos-LWD:rC:NONE:v0 (auto-composite)
LLS      .ohm.m       UNKNOWN        : LLS:resistivos:rC:NONE:v0 (auto-composite)
LLS-LWD  .ohm.m       UNKNOWN        : LLS-LWD:resistivos-LWD:rC:NONE:v0 (auto-composite)
MSFL     .ohm.m       UNKNOWN        : MSFL:resistivos:rC:NONE:v0 (auto-composite)
MSFL-LWD .ohm.m       UNKNOWN        : MSFL-LWD:resistivos-LWD:rC:NONE:v0 (auto-composite)
NPHI     .v/v_decimal UNKNOWN        : NPHI:PETROWORKS:rC:NONE:v2 
PEF      .b/elec      UNKNOWN        : PEF:litodensidad:rC:NONE:v0 (auto-composite)
RHOB     .g/cm3       UNKNOWN        : RHOB:litodensidad:rC:NONE:v0 (auto-composite)
~A     DEPTH         CALI         DRHO           DT           GR       GR-LWD      ILD-LWD      ILM-LWD      LLD-LWD          LLS      LLS-LWD         MSFL     MSFL-LWD         NPHI          PEF         RHOB
# ...
   2988.1111      10.7634      -0.0005      50.3655      39.9744    -999.2500    -999.2500    -999.2500    -999.2500   61361.9336    -999.2500     750.2667    -999.2500       0.0103       3.2072       2.7672
   2988.2634      10.8682      -0.0007      51.1095      37.2560    -999.2500    -999.2500    -999.2500    -999.2500   61315.4688    -999.2500     701.8071    -999.2500       0.0081       3.2373       2.7616
   2988.4158      10.9619       0.0063      55.2020      35.4269    -999.2500    -999.2500    -999.2500    -999.2500   57210.4883    -999.2500    1369.3881    -999.2500       0.0079       3.2678       2.7561
   2988.5684      10.9398       0.0140      59.8650      37.3498    -999.2500    -999.2500    -999.2500    -999.2500   44371.4414    -999.2500     516.0739    -999.2500       0.0158       3.2833       2.7438
   2988.7207      10.9042       0.0146      60.6921      42.3732    -999.2500    -999.2500    -999.2500    -999.2500   40321.1641    -999.2500     420.9211    -999.2500       0.0290       3.2839       2.7040
   2988.8730      10.7211       0.0127      57.0060      45.7760    -999.2500    -999.2500    -999.2500    -999.2500   41617.0234    -999.2500     331.7586    -999.2500       0.0405       3.3050       2.6789
   2989.0254      10.7223       0.0163      56.0339      43.5463    -999.2500    -999.2500    -999.2500    -999.2500   52159.5625    -999.2500     547.3077    -999.2500       0.0283       3.3423       2.6974
   2989.1780      10.7859       0.0213      54.0661      41.0745    -999.2500    -999.2500    -999.2500    -999.2500   73027.6953    -999.2500     864.4507    -999.2500       0.0128       3.4113       2.7619
   2989.3303      10.8533       0.0131      49.7735      39.2159    -999.2500    -999.2500    -999.2500    -999.2500  101745.1094    -999.2500    1593.0170    -999.2500       0.0053       3.4202       2.8004
   2989.4827      10.7715       0.0002      48.8617      42.8275    -999.2500    -999.2500    -999.2500    -999.2500   99213.7812    -999.2500    1847.7478    -999.2500       0.0023       3.3843       2.8092
   2989.6350      10.6777      -0.0112      46.9070      40.6451    -999.2500    -999.2500    -999.2500    -999.2500   99917.6250    -999.2500    1944.5198    -999.2500       0.0045       3.3156       2.7918
   2989.7874      10.5878      -0.0070      46.7302      38.6228    -999.2500    -999.2500    -999.2500    -999.2500  101632.0000    -999.2500    1027.8409    -999.2500       0.0096       3.2545       2.7718
   2989.9399      10.4979       0.0021      50.4168      39.6918    -999.2500    -999.2500    -999.2500    -999.2500  101622.8438    -999.2500     440.9085    -999.2500       0.0169       3.2404       2.7568
   2990.0923      10.3333       0.0297      51.6879      39.3722    -999.2500    -999.2500    -999.2500    -999.2500   94882.9219    -999.2500     380.2573    -999.2500       0.0172       3.2988       2.7764
   2990.2446       9.3696       0.0540      51.9539      39.3767    -999.2500    -999.2500    -999.2500    -999.2500  115462.1328    -999.2500     480.1754    -999.2500       0.0128       3.4070       2.8226
   2990.3970       8.9735       0.0608      53.3579      36.3142    -999.2500    -999.2500    -999.2500    -999.2500  100000.0000    -999.2500     557.9355    -999.2500       0.0143       3.4882       2.8502
   2990.5496       8.9504       0.0456      51.4500      34.4195    -999.2500    -999.2500    -999.2500    -999.2500  100000.0000    -999.2500     495.5373    -999.2500       0.0132       3.5154       2.8426
   2990.7019       8.9355       0.0207      52.0625      35.7417    -999.2500    -999.2500    -999.2500    -999.2500  100000.0000    -999.2500     548.5518    -999.2500       0.0132       3.4452       2.8125
   2990.8542       8.9131       0.0082      51.4351      32.5266    -999.2500    -999.2500    -999.2500    -999.2500  100000.0000    -999.2500    1268.3767    -999.2500       0.0137       3.3191       2.8041
   2991.0066       8.8532       0.0016      49.1135      35.2460    -999.2500    -999.2500    -999.2500    -999.2500  100000.0000    -999.2500    1519.9381    -999.2500       0.0138       3.1949       2.8047
   2991.1592       8.8418       0.0047      48.1992      35.5565    -999.2500    -999.2500    -999.2500    -999.2500  100000.0000    -999.2500    1519.9369    -999.2500       0.0139       3.1736       2.8262
   2991.3115       8.8232       0.0079      47.9871      36.9725    -999.2500    -999.2500    -999.2500    -999.2500  100000.0000    -999.2500    1977.0323    -999.2500       0.0131       3.2340       2.8382
   2991.4639       8.7820       0.0124      47.2150      34.8535    -999.2500    -999.2500    -999.2500    -999.2500  100000.0000    -999.2500    1999.9503    -999.2500       0.0130       3.3099       2.8577
   2991.6162       8.7931       0.0139      44.9843      35.6009    -999.2500    -999.2500    -999.2500    -999.2500   93422.5859    -999.2500    1999.9503    -999.2500       0.0122       3.3353       2.8618
   2991.7686       8.7875       0.0124      45.3117      33.0616    -999.2500    -999.2500    -999.2500    -999.2500   74192.9844    -999.2500    1999.9498    -999.2500       0.0126       3.3294       2.8558
   2991.9211       8.8137       0.0077      45.5084      31.1347    -999.2500    -999.2500    -999.2500    -999.2500  101267.1797    -999.2500    1999.9521    -999.2500       0.0120       3.2993       2.8311
   2992.0735       8.8380       0.0020      44.5251      31.6975    -999.2500    -999.2500    -999.2500    -999.2500  100000.0000    -999.2500    1997.1390    -999.2500       0.0118       3.3075       2.8050
   2992.2258       8.8232       0.0053      48.0448      34.9519    -999.2500    -999.2500    -999.2500    -999.2500  100000.0000    -999.2500    1963.0845    -999.2500       0.0126       3.3234       2.7880
   2992.3782       8.7820       0.0304      51.0452      34.0420    -999.2500    -999.2500    -999.2500    -999.2500  100000.0000    -999.2500    1711.3195    -999.2500       0.0149       3.3659       2.7721
   2992.5308       8.7371       0.0769      51.5288      35.1891    -999.2500    -999.2500    -999.2500    -999.2500  100000.0000    -999.2500     236.3222    -999.2500       0.0215       3.3600       2.7852
   2992.6831       8.7108       0.1065      52.9233      38.0619    -999.2500    -999.2500    -999.2500    -999.2500  100000.0000    -999.2500      29.1538    -999.2500       0.0244       3.3344       2.7927
   2992.8354       8.7443       0.0967      52.8468      32.4577    -999.2500    -999.2500    -999.2500    -999.2500  100000.0000    -999.2500      29.3675    -999.2500       0.0243       3.2921       2.8190
   2992.9878       8.8080       0.0559      54.6695      29.8068    -999.2500    -999.2500    -999.2500    -999.2500  100000.0000    -999.2500      40.8212    -999.2500       0.0200       3.2653       2.8231
   2993.1404       8.7820       0.0224      53.7550      35.1948    -999.2500    -999.2500    -999.2500    -999.2500  100000.0000    -999.2500    1839.8555    -999.2500       0.0248       3.2281       2.8073
   2993.2927       8.7185       0.0061      56.2490      37.5384    -999.2500    -999.2500    -999.2500    -999.2500  100000.0000    -999.2500    1665.0759    -999.2500       0.0374       3.1950       2.7489
   2993.4451       8.6883       0.0011      60.2350      40.7729    -999.2500    -999.2500    -999.2500    -999.2500  100000.0000    -999.2500     243.1749    -999.2500       0.0545       3.1398       2.6899
   2993.5974       8.7032      -0.0014      62.6653      42.2022    -999.2500    -999.2500    -999.2500    -999.2500  100000.0000    -999.2500     193.6547    -999.2500       0.0550       3.1466       2.6660
   2993.7498       8.7443       0.0004      63.8146      39.5351    -999.2500    -999.2500    -999.2500    -999.2500  100000.0000    -999.2500     192.0509    -999.2500       0.0461       3.1295       2.7000
   2993.9023       8.7706       0.0010      63.4666      36.2599    -999.2500    -999.2500    -999.2500    -999.2500  100000.0000    -999.2500     455.0197    -999.2500       0.0350       3.1704       2.7263
