#------------------------------------------------------------------------------
#
#   Created by  : [OpenWorks] Log Export Utility (LEXP)
#   Created on  : 2016-05-23 11:57:02
#   Project     : CANT971
#   User        : R5K
#   Interpreter : PEP
#
#------------------------------------------------------------------------------
~VERSION INFORMATION
VERS. 2.0 : CWLS Log ASCII Standard - version 2.0
WRAP.  NO : One line per depth step
~WELL INFORMATION
#MNEMONIC   .UNIT                                           VALUE :DESCRIPTION
#------------------------------------------------------------------------------
STRT        .M                                           493.3184 :START DEPTH
STOP        .M                                          2467.0508 :STOP DEPTH
STEP        .M                                             0.1524 :STEP
NULL        .                                           -999.2500 :NULL VALUE
COMP        .                                   PEMEX EXPL & PROD :COMPANY
WELL        .                                                  63 :WELL
FLD         .                                           CANTARELL :FIELD
LOC         .                                             UNKNOWN :LOCATION
CNTY        .                                      CD. DEL CARMEN :COUNTY
STAT        .                                            CAMPECHE :STATE
CTRY        .                                              MEXICO :COUNTRY
SRVC        .                                             UNKNOWN :SERVICE COMPANY
DATE        .                                             UNKNOWN :LOG DATE
UWI         .                                          3060000615 :UNIQUE WELL ID
XCOORD      .                                       601716.240000 :SURFACE X
YCOORD      .                                      2142344.800000 :SURFACE Y
LAT         .                                           19.373792 :LATITUDE
LON         .                                          -92.031441 :LONGITUDE
ELEV        .M                                            24.0000 :SURFACE ELEV
ELEV_TYPE   .                                                  KB :ELEV TYPE
~CURVE INFORMATION
#MNEMONIC.UNIT        API CODE       : CURVE DESCRIPTION
#------------------------------------------------------------------------------
DEPTH    .M                          : Measured Depth
CALI     .inches      UNKNOWN        : CALI:Import:rC:NONE:v0 (auto-composite)
DRHO     .g/cm3       UNKNOWN        : DRHO:Import:rC:NONE:v0 (auto-composite)
DT       .us/ft       UNKNOWN        : DT:Import:rC:NONE:v0 (auto-composite)
GR       .API         UNKNOWN        : GR:Import:rC:NONE:v0 (auto-composite)
ILD      .ohm.m       UNKNOWN        : ILD:Import:rC:NONE:v0 (auto-composite)
ILM      .ohm.m       UNKNOWN        : ILM:Import:rC:NONE:v0 (auto-composite)
LLD      .ohm.m       UNKNOWN        : LLD:Import:rC:NONE:v0 (auto-composite)
LLS      .ohm.m       UNKNOWN        : LLS:Import:rC:NONE:v0 (auto-composite)
MSFL     .ohm.m       UNKNOWN        : MSFL:Import:rC:NONE:v0 (auto-composite)
NPHI     .v/v_decimal UNKNOWN        : NPHI:Import:rC:NONE:v0 (auto-composite)
PEF      .b/elec      UNKNOWN        : PEF:Import:rC:NONE:v0 (auto-composite)
RHOB     .g/cm3       UNKNOWN        : RHOB:Import:rC:NONE:v0 (auto-composite)
~A     DEPTH         CALI         DRHO           DT           GR          ILD          ILM          LLD          LLS         MSFL         NPHI          PEF         RHOB
# ...
   2234.3359       5.9900       0.1000      52.8886      45.0382    -999.2500    -999.2500     650.2231     243.6971      38.4447       0.0629       3.5360       2.7490
   2234.4883       5.9590       0.0920      52.6500      48.7660    -999.2500    -999.2500     633.4250     243.9950      32.8200       0.0599       3.5630       2.7560
   2234.6409       5.9825       0.0885      53.3496      48.7131    -999.2500    -999.2500     638.8930     253.5157     177.7085       0.0575       3.4740       2.7590
   2234.7932       6.0060       0.0850      54.0500      48.6600    -999.2500    -999.2500     644.3670     263.0470     322.7570       0.0554       3.3850       2.7620
   2234.9456       6.0070       0.0840      53.7402      47.9161    -999.2500    -999.2500     656.2012     264.1973     482.1556       0.0534       3.3065       2.7630
   2235.0979       6.0080       0.0830      53.4300      47.1700    -999.2500    -999.2500     668.0500     265.3490     641.7500       0.0521       3.2280       2.7640
   2235.2502       6.0080       0.0725      52.8064      46.1181    -999.2500    -999.2500     624.3132     252.3008     403.4425       0.0523       3.1276       2.7665
   2235.4028       6.0080       0.0620      52.1820      45.0630    -999.2500    -999.2500     580.5170     239.2350     164.8120       0.0530       3.0270       2.7690
   2235.5552       6.0080       0.0520      51.7663      47.5332    -999.2500    -999.2500     556.3354     231.7201     273.6380       0.0530       3.0989       2.7750
   2235.7075       6.0080       0.0420      51.3500      50.0110    -999.2500    -999.2500     532.1180     224.1940     382.6250       0.0522       3.1710       2.7810
   2235.8599       6.0205       0.0430      51.0752      51.2770    -999.2500    -999.2500     538.5768     227.1122     313.7429       0.0502       3.2115       2.7680
   2236.0125       6.0330       0.0440      50.8000      52.5470    -999.2500    -999.2500     545.0460     230.0350     244.7500       0.0483       3.2520       2.7550
   2236.1648       6.0385       0.0425      50.9164      50.7919    -999.2500    -999.2500     525.9156     228.5573     512.9648       0.0477       3.2605       2.7560
   2236.3171       6.0440       0.0410      51.0330      49.0310    -999.2500    -999.2500     506.7520     227.0770     781.6440       0.0479       3.2690       2.7570
   2236.4695       6.0775       0.0445      51.7408      44.9131    -999.2500    -999.2500     478.7321     218.9491    1145.9834       0.0483       3.2900       2.7640
   2236.6221       6.1110       0.0480      52.4500      40.7810    -999.2500    -999.2500     450.6600     210.8060    1511.0000       0.0488       3.3110       2.7710
   2236.7744       6.0750       0.0630      53.1733      38.3673    -999.2500    -999.2500     408.2141     193.7554     966.8455       0.0493       3.3704       2.7545
   2236.9268       6.0390       0.0780      53.8980      35.9450    -999.2500    -999.2500     365.6840     176.6710     421.6120       0.0497       3.4300       2.7380
   2237.0791       6.1054       0.0860      54.2736      34.0050    -999.2500    -999.2500     361.3840     180.3531     244.3990       0.0498       3.3521       2.7255
   2237.2314       6.1720       0.0940      54.6500      32.0610    -999.2500    -999.2500     357.0750     184.0430      66.8120       0.0505       3.2740       2.7130
   2237.3840       6.1071       0.0905      53.9752      30.0587    -999.2500    -999.2500     388.5473     200.2314      72.9242       0.0526       3.1721       2.7490
   2237.5364       6.0420       0.0870      53.3000      28.0520    -999.2500    -999.2500     420.0900     216.4560      79.0500       0.0554       3.0700       2.7850
   2237.6887       6.0160       0.0690      53.7778      25.9934    -999.2500    -999.2500     404.8076     211.3560     126.9060       0.0578       3.2718       2.7980
   2237.8411       5.9900       0.0510      54.2560      23.9300    -999.2500    -999.2500     389.4890     206.2440     174.8750       0.0598       3.4740       2.8110
   2237.9937       5.9031       0.0435      54.7278      24.4134    -999.2500    -999.2500     468.1917     234.5977     114.8716       0.0614       3.2927       2.8010
   2238.1460       5.8160       0.0360      55.2000      24.8980    -999.2500    -999.2500     547.0900     263.0220      54.7190       0.0589       3.1110       2.7910
   2238.2983       5.8679       0.0465      53.5323      24.2703    -999.2500    -999.2500     749.9404     350.1541    1026.0897       0.0487       3.1150       2.8005
   2238.4507       5.9200       0.0570      51.8630      23.6410    -999.2500    -999.2500     953.3210     437.5140    2000.0000       0.0385       3.1190       2.8100
   2238.6033       5.9190       0.0655      51.5462      27.3699    -999.2500    -999.2500    1114.3491     511.1512    1009.6908       0.0361       3.1445       2.8245
   2238.7556       5.9180       0.0740      51.2290      31.1090    -999.2500    -999.2500    1275.5601     584.8720      18.2580       0.0372       3.1700       2.8390
   2238.9080       5.8670       0.0735      50.8897      31.0341    -999.2500    -999.2500    1261.9111     580.9225     150.3273       0.0375       3.2445       2.8385
   2239.0603       5.8160       0.0730      50.5500      30.9590    -999.2500    -999.2500    1248.2450     576.9680     282.5630       0.0372       3.3190       2.8380
   2239.2126       5.8180       0.0630      50.5500      28.6470    -999.2500    -999.2500    1249.1263     577.4702     280.3305       0.0364       3.3690       2.8240
   2239.3652       5.8200       0.0530      50.5500      26.3280    -999.2500    -999.2500    1250.0090     577.9730     278.0950       0.0348       3.4190       2.8100
   2239.5176       5.8855       0.0415      50.5500      24.6626    -999.2500    -999.2500    1282.0498     596.3326     218.1553       0.0322       3.6253       2.8060
   2239.6699       5.9510       0.0300      50.5500      22.9920    -999.2500    -999.2500    1314.1390     614.7200     158.1250       0.0300       3.8320       2.8020
   2239.8223       5.9090       0.0335      49.8756      24.2714    -999.2500    -999.2500    1262.9559     565.2590     190.9456       0.0295       3.6806       2.7990
   2239.9749       5.8670       0.0370      49.2000      25.5550    -999.2500    -999.2500    1211.6890     515.7170     223.8200       0.0312       3.5290       2.7960
   2240.1272       5.7881       0.0490      49.8494      30.7453    -999.2500    -999.2500    1097.5061     426.4237     191.3761       0.0355       3.3771       2.8110
   2240.2795       5.7090       0.0610      50.5000      35.9530    -999.2500    -999.2500     983.1220     336.9730     158.8750       0.0398       3.2250       2.8260
   2240.4319       5.8184       0.0690      50.4186      35.5846    -999.2500    -999.2500     853.1019     337.2752     205.1748       0.0409       3.3744       2.8120
   2240.5845       5.9280       0.0770      50.3370      35.2150    -999.2500    -999.2500     722.8360     337.5780     251.5620       0.0398       3.5240       2.7980
   2240.7368       5.8521       0.1399      50.0438      30.4287    -999.2500    -999.2500     696.4581     338.6429     193.3866       0.0368       3.5115       2.8150
   2240.8892       5.7760       0.2030      49.7500      25.6250    -999.2500    -999.2500     670.0270     339.7100     135.0940       0.0341       3.4990       2.8320
   2241.0415       5.7960       0.2030      49.7565      25.8198    -999.2500    -999.2500     627.4196     333.0721     351.7525       0.0335       3.5519       2.8290
   2241.1938       5.8160       0.2030      49.7630      26.0150    -999.2500    -999.2500     584.7210     326.4200     568.8750       0.0356       3.6050       2.8260
   2241.3464       5.9119       0.1970      49.9899      29.4941    -999.2500    -999.2500     459.6432     255.0713     567.8397       0.0412       3.5970       2.7801
   2241.4988       6.0080       0.1910      50.2170      32.9810    -999.2500    -999.2500     334.2820     183.5610     566.8020       0.0505       3.5890       2.7340
