#------------------------------------------------------------------------------
#
#   Created by  : [OpenWorks] Log Export Utility (LEXP)
#   Created on  : 2016-05-12 17:01:19
#   Project     : CANT971
#   User        : R5K
#   Interpreter : PEP
#
#------------------------------------------------------------------------------
~VERSION INFORMATION
VERS. 2.0 : CWLS Log ASCII Standard - version 2.0
WRAP.  NO : One line per depth step
~WELL INFORMATION
#MNEMONIC   .UNIT                                           VALUE :DESCRIPTION
#------------------------------------------------------------------------------
STRT        .M                                           335.5854 :START DEPTH
STOP        .M                                          2510.4858 :STOP DEPTH
STEP        .M                                             0.1524 :STEP
NULL        .                                           -999.2500 :NULL VALUE
COMP        .                                   PEMEX EXPL & PROD :COMPANY
WELL        .                                                  35 :WELL
FLD         .                                           CANTARELL :FIELD
LOC         .                                             UNKNOWN :LOCATION
CNTY        .                                      CD. DEL CARMEN :COUNTY
STAT        .                                            CAMPECHE :STATE
CTRY        .                                              MEXICO :COUNTRY
SRVC        .                                             UNKNOWN :SERVICE COMPANY
DATE        .                                             UNKNOWN :LOG DATE
UWI         .                                          3060000159 :UNIQUE WELL ID
XCOORD      .                                       602147.900000 :SURFACE X
YCOORD      .                                      2147168.470000 :SURFACE Y
LAT         .                                           19.417359 :LATITUDE
LON         .                                          -92.027072 :LONGITUDE
ELEV        .M                                            28.1700 :SURFACE ELEV
ELEV_TYPE   .                                                  KB :ELEV TYPE
~CURVE INFORMATION
#MNEMONIC.UNIT        API CODE       : CURVE DESCRIPTION
#------------------------------------------------------------------------------
DEPTH    .M                          : Measured Depth
CALI     .inches      UNKNOWN        : CALI:Import:rC:NONE:v0 (auto-composite)
DRHO     .g/cm3       UNKNOWN        : DRHO:Import:rC:NONE:v0 (auto-composite)
DT       .us/ft       UNKNOWN        : DT:Import:rC:NONE:v0 (auto-composite)
GR       .API         UNKNOWN        : GR:Import:rC:NONE:v0 (auto-composite)
ILD      .ohm.m       UNKNOWN        : ILD:Import:rC:NONE:v0 (auto-composite)
LLD      .ohm.m       UNKNOWN        : LLD:Import:rC:NONE:v0 (auto-composite)
LLS      .ohm.m       UNKNOWN        : LLS:Import:rC:NONE:v0 (auto-composite)
MSFL     .ohm.m       UNKNOWN        : MSFL:Import:rC:NONE:v0 (auto-composite)
NPHI     .v/v_decimal UNKNOWN        : NPHI:Import:rC:NONE:v0 (auto-composite)
RHOB     .g/cm3       UNKNOWN        : RHOB:Import:rC:NONE:v0 (auto-composite)
SP       .mV          UNKNOWN        : SP:Import:rC:NONE:v0 (auto-composite)
~A     DEPTH         CALI         DRHO           DT           GR          ILD          LLD          LLS         MSFL         NPHI         RHOB           SP
# ...
   2102.8157       6.1500   -1998.5000      75.1060      26.5300    -999.2500     615.0500     146.5200      39.2000    -999.2500    -999.2500    -999.2500
   2102.9683       6.1500   -1998.5000      91.9103      26.6980    -999.2500     628.1563     149.0746      28.4546    -999.2500    -999.2500    -999.2500
   2103.1206       6.1500   -1998.5000     108.5100      26.8640    -999.2500     641.1030     151.5980      17.8400    -999.2500    -999.2500    -999.2500
   2103.2729       6.1570   -1998.5000     107.5751      27.6010    -999.2500     751.8018     176.6001      19.9366    -999.2500    -999.2500    -999.2500
   2103.4253       6.1640   -1998.5000     106.6530      28.3280    -999.2500     861.1670     201.3010      22.0080    -999.2500    -999.2500    -999.2500
   2103.5779       6.1821   -1998.5000      96.4728      29.1526    -999.2500    1373.7417     334.0224      58.9544    -999.2500    -999.2500    -999.2500
   2103.7302       6.2000   -1998.5000      86.4300      29.9660    -999.2500    1880.2000     465.1600      95.4600    -999.2500    -999.2500    -999.2500
   2103.8826       6.2000   -1998.5000      86.8095      31.4832    -999.2500    1848.2510     460.8415      93.3576    -999.2500    -999.2500    -999.2500
   2104.0349       6.2000   -1998.5000      87.1840      32.9800    -999.2500    1816.6790     456.5740      91.2800    -999.2500    -999.2500    -999.2500
   2104.1875       6.2040   -1998.5000      90.8906      32.6805    -999.2500    1632.9904     427.2879      78.9640    -999.2500    -999.2500    -999.2500
   2104.3398       6.2080   -1998.5000      94.5480      32.3850    -999.2500    1451.4480     398.3440      66.7920    -999.2500    -999.2500    -999.2500
   2104.4922       6.2191   -1998.5000     104.3887      31.3331    -999.2500    1126.6687     327.9107      48.1503    -999.2500    -999.2500    -999.2500
   2104.6445       6.2300   -1998.5000     114.1000      30.2950    -999.2500     805.6410     258.2910      29.7240    -999.2500    -999.2500    -999.2500
   2104.7969       6.2149   -1998.5000     111.3677      29.5567    -999.2500     593.5226     200.4196      21.1283    -999.2500    -999.2500    -999.2500
   2104.9495       6.2000   -1998.5000     108.6710      28.8280    -999.2500     383.8300     143.2100      12.6310    -999.2500    -999.2500    -999.2500
   2105.1018       6.2000   -1998.5000      96.8996      28.1084    -999.2500     391.8427     147.2903      10.0388    -999.2500    -999.2500    -999.2500
   2105.2542       6.2000   -1998.5000      85.2800      27.3980    -999.2500     399.7520     151.3180       7.4800    -999.2500    -999.2500    -999.2500
   2105.4065       6.2000   -1998.5000      87.6889      25.8843    -999.2500     455.9783     174.9654       7.9269    -999.2500    -999.2500    -999.2500
   2105.5591       6.2000   -1998.5000      90.0670      24.3900    -999.2500     511.4870     198.3110       8.3680    -999.2500    -999.2500    -999.2500
   2105.7114       6.2000   -1998.5000      97.7405      24.5656    -999.2500     667.8362     250.6897      12.1524    -999.2500    -999.2500    -999.2500
   2105.8638       6.2000   -1998.5000     105.3170      24.7390    -999.2500     822.2080     302.4060      15.8890    -999.2500    -999.2500    -999.2500
   2106.0161       6.1899   -1998.5000     111.0494      25.4520    -999.2500     954.7985     347.6662      42.7023    -999.2500    -999.2500    -999.2500
   2106.1687       6.1800   -1998.5000     116.7100      26.1560    -999.2500    1085.7300     392.3600      69.1800    -999.2500    -999.2500    -999.2500
   2106.3210       6.1800   -1998.5000     113.9489      27.1119    -999.2500    1085.6329     384.5948      67.3547    -999.2500    -999.2500    -999.2500
   2106.4734       6.1800   -1998.5000     111.2220      28.0560    -999.2500    1085.5370     376.9260      65.5520    -999.2500    -999.2500    -999.2500
   2106.6257       6.1825   -1998.5000      93.1451      30.9105    -999.2500    1038.5458     345.0812      58.6869    -999.2500    -999.2500    -999.2500
   2106.7781       6.1850   -1998.5000      75.2900      33.7300    -999.2500     992.1310     313.6270      51.9060    -999.2500    -999.2500    -999.2500
   2106.9307       6.1925   -1998.5000      75.3634      32.1957    -999.2500     838.3563     270.5216      40.6295    -999.2500    -999.2500    -999.2500
   2107.0830       6.2000   -1998.5000      75.4360      30.6800    -999.2500     686.4500     227.9400      29.4900    -999.2500    -999.2500    -999.2500
   2107.2354       6.2000   -1998.5000      76.4952      30.8033    -999.2500     690.1221     230.2861      30.1464    -999.2500    -999.2500    -999.2500
   2107.3877       6.2000   -1998.5000      77.5400      30.9250    -999.2500     693.7500     232.6040      30.7950    -999.2500    -999.2500    -999.2500
   2107.5403       6.2080   -1998.5000      74.8821      31.7581    -999.2500     733.0715     246.5359      43.1359    -999.2500    -999.2500    -999.2500
   2107.6926       6.2160   -1998.5000      72.2600      32.5800    -999.2500     771.9250     260.3020      55.3300    -999.2500    -999.2500    -999.2500
   2107.8450       6.2381   -1998.5000      73.1545      32.3600    -999.2500    1115.5697     290.0128      54.4372    -999.2500    -999.2500    -999.2500
   2107.9973       6.2600   -1998.5000      74.0370      32.1430    -999.2500    1455.1700     319.3740      53.5550    -999.2500    -999.2500    -999.2500
   2108.1499       6.2600   -1998.5000      77.3494      31.3347    -999.2500    1451.1315     351.0305      45.7319    -999.2500    -999.2500    -999.2500
   2108.3022       6.2600   -1998.5000      80.6180      30.5370    -999.2500    1447.1400     382.3180      38.0000    -999.2500    -999.2500    -999.2500
   2108.4546       6.2600   -1998.5000      82.9070      30.0297    -999.2500    1454.2937     405.3869      25.5131    -999.2500    -999.2500    -999.2500
   2108.6069       6.2600   -1998.5000      85.1660      29.5290    -999.2500    1461.3650     428.1900      13.1700    -999.2500    -999.2500    -999.2500
   2108.7593       6.2625   -1998.5000      87.7155      28.8501    -999.2500    1525.8654     422.3170      13.4154    -999.2500    -999.2500    -999.2500
   2108.9119       6.2650   -1998.5000      90.2320      28.1800    -999.2500    1589.6300     416.5110      13.6580    -999.2500    -999.2500    -999.2500
   2109.0642       6.2801   -1998.5000      96.5617      28.3209    -999.2500    1191.8665     311.5705      18.1278    -999.2500    -999.2500    -999.2500
   2109.2166       6.2950   -1998.5000     102.8100      28.4600    -999.2500     799.2200     207.9800      22.5400    -999.2500    -999.2500    -999.2500
   2109.3689       6.3277   -1998.5000     102.5383      28.9119    -999.2500     812.4477     215.9507      21.6317    -999.2500    -999.2500    -999.2500
   2109.5215       6.3600   -1998.5000     102.2700      29.3580    -999.2500     825.5070     223.8200      20.7350    -999.2500    -999.2500    -999.2500
   2109.6738       6.3535   -1998.5000     103.2004      29.6091    -999.2500     971.6504     223.5755      17.3280    -999.2500    -999.2500    -999.2500
   2109.8262       6.3470   -1998.5000     104.1190      29.8570    -999.2500    1115.9500     223.3340      13.9640    -999.2500    -999.2500    -999.2500
   2109.9785       6.2882   -1998.5000     116.0641      30.6988    -999.2500    1003.4931     210.0571      10.4853    -999.2500    -999.2500    -999.2500
   2110.1311       6.2300   -1998.5000     127.8600      31.5300    -999.2500     892.4400     196.9460       7.0500    -999.2500    -999.2500    -999.2500
   2110.2834       6.2340   -1998.5000     124.3302      30.2471    -999.2500     939.3752     161.6361       7.1954    -999.2500    -999.2500    -999.2500
   2110.4358       6.2380   -1998.5000     120.8440      28.9800    -999.2500     985.7300     126.7630       7.3390    -999.2500    -999.2500    -999.2500
   2110.5881       6.2883   -1998.5000     104.7457      29.1215    -999.2500     985.0770     106.4417      10.0612    -999.2500    -999.2500    -999.2500
