#------------------------------------------------------------------------------
#
#   Created by  : [OpenWorks] Log Export Utility (LEXP)
#   Created on  : 2016-05-23 11:52:48
#   Project     : CANT971
#   User        : R5K
#   Interpreter : PEP
#
#------------------------------------------------------------------------------
~VERSION INFORMATION
VERS. 2.0 : CWLS Log ASCII Standard - version 2.0
WRAP.  NO : One line per depth step
~WELL INFORMATION
#MNEMONIC   .UNIT                                           VALUE :DESCRIPTION
#------------------------------------------------------------------------------
STRT        .M                                           688.5826 :START DEPTH
STOP        .M                                          3180.0178 :STOP DEPTH
STEP        .M                                             0.1524 :STEP
NULL        .                                           -999.2500 :NULL VALUE
COMP        .                                   PEMEX EXPL & PROD :COMPANY
WELL        .                                               2092D :WELL
FLD         .                                           CANTARELL :FIELD
LOC         .                                             UNKNOWN :LOCATION
CNTY        .                                      CD. DEL CARMEN :COUNTY
STAT        .                                            CAMPECHE :STATE
CTRY        .                                              MEXICO :COUNTRY
SRVC        .                                             UNKNOWN :SERVICE COMPANY
DATE        .                                             UNKNOWN :LOG DATE
UWI         .                                          3060000657 :UNIQUE WELL ID
XCOORD      .                                       601715.500000 :SURFACE X
YCOORD      .                                      2142373.650000 :SURFACE Y
LAT         .                                           19.374053 :LATITUDE
LON         .                                          -92.031447 :LONGITUDE
ELEV        .M                                            30.0000 :SURFACE ELEV
ELEV_TYPEF  .b/elec                                            KB :ELEV TYPE
~CURVE INFORMATION
#MNEMONIC.UNIT        API CODE       : CURVE DESCRIPTION
#------------------------------------------------------------------------------
DEPTH    .M                          : Measured Depth
CALI     .in          UNKNOWN        : CALI:UNKNOWN:rC:NONE:v0 (auto-composite)
CGR      .API         UNKNOWN        : CGR:UNKNOWN:rC:NONE:v0 (auto-composite)
DRHO     .g/cm3       UNKNOWN        : DRHO:UNKNOWN:rC:NONE:v0 (auto-composite)
DT       .us/ft       UNKNOWN        : DT:DT:rC:NONE:v0 (auto-composite)
GR       .API         UNKNOWN        : GR:UNKNOWN:rC:NONE:v0 (auto-composite)
ILD      .ohmm        UNKNOWN        : ILD:UNKNOWN:rC:NONE:v0 (auto-composite)
ILM      .ohmm        UNKNOWN        : ILM:UNKNOWN:rC:NONE:v0 (auto-composite)
LLD      .ohmm        UNKNOWN        : LLD:UNKNOWN:rC:NONE:v0 (auto-composite)
LLS      .ohmm        UNKNOWN        : LLS:UNKNOWN:rC:NONE:v0 (auto-composite)
MSFL     .ohmm        UNKNOWN        : MSFL:UNKNOWN:rC:NONE:v0 (auto-composite)
NPHI     .v/v_decimal UNKNOWN        : NPHI:PETROWORKS:rC:NONE:v1 
PEF      .b/elec      UNKNOWN        : PEF:UNKNOWN:rC:NONE:v0 (auto-composite)
POTA     .wtpercent   UNKNOWN        : POTA:UNKNOWN:rC:NONE:v0 (auto-composite)
RHOB     .g/cm3       UNKNOWN        : RHOB:UNKNOWN:rC:NONE:v0 (auto-composite)
SFLU     .ohmm       UNKNOWN        : SFLU:induccion:rC:NONE:v0 (auto-composite)
THOR     .ppm         UNKNOWN        : THOR:UNKNOWN:rC:NONE:v0 (auto-composite)
URAN     .ppm         UNKNOWN        : URAN:UNKNOWN:rC:NONE:v0 (auto-composite)
~A     DEPTH         CALI          CGR         DRHO           DT           GR          ILD          ILM          LLD          LLS         MSFL         NPHI          PEF         POTA         RHOB         SFLU         THOR         URAN
# ...
   2939.5305       8.5816       5.9085    -999.2500      44.3753      20.6304    -999.2500    -999.2500   39117.6875    6310.9873      82.7033       0.0229       3.2717       0.0021       2.8221    -999.2500       0.8112       1.6287
   2939.6829       8.5014       5.7619    -999.2500      44.8045      20.7644    -999.2500    -999.2500   39488.3125    6453.6079     234.7139       0.0218       3.3049       0.0020       2.8176    -999.2500       0.7811       1.6563
   2939.8354       8.4185       5.6351    -999.2500      45.2615      20.8882    -999.2500    -999.2500   39952.2305    6605.5693     409.1284       0.0207       3.3449       0.0020       2.8116    -999.2500       0.7656       1.6778
   2939.9878       8.4956       5.2589    -999.2500      44.7753      20.8638    -999.2500    -999.2500   40000.0039    6583.0698     310.0152       0.0207       3.3423       0.0016       2.8083    -999.2500       0.8846       1.7217
   2940.1401       8.5911       4.8540    -999.2500      44.0109      20.8223    -999.2500    -999.2500   40000.0039    6540.5420     179.5016       0.0211       3.3348       0.0013       2.8053    -999.2500       1.0190       1.7682
   2940.2925       8.6428       4.6821    -999.2500      43.3689      21.6937    -999.2500    -999.2500   39683.9375    6451.5488     122.8870       0.0218       3.3344       0.0010       2.8108    -999.2500       1.0793       1.8844
   2940.4451       8.6894       4.5372    -999.2500      43.0045      22.6709    -999.2500    -999.2500   39331.2461    6357.1719      74.8353       0.0223       3.3350       0.0007       2.8174    -999.2500       1.1309       2.0088
   2940.5974       8.5894       4.2355    -999.2500      43.6654      23.1947    -999.2500    -999.2500   37316.5664    6276.5298     249.2140       0.0221       3.3138       0.0004       2.8099    -999.2500       1.2383       2.0742
   2940.7498       8.4735       3.9166    -999.2500      44.7419      23.6690    -999.2500    -999.2500   35120.7109    6197.3853     447.8402       0.0215       3.2903       0.0002       2.8009    -999.2500       1.3518       2.1332
   2940.9021       8.5407       6.4987    -999.2500      45.7103      24.9918    -999.2500    -999.2500   33230.7031    6069.9321     317.6508       0.0221       3.2853       0.0015       2.8058    -999.2500       1.6131       1.9883
   2941.0547       8.6281       9.4001    -999.2500      46.5618      26.4081    -999.2500    -999.2500   31374.3652    5937.1616     151.2669       0.0231       3.2823       0.0030       2.8123    -999.2500       1.8908       1.8210
   2941.2070       8.6693       7.8510    -999.2500      47.0170      25.9872    -999.2500    -999.2500   28754.0723    5854.9189     105.0827       0.0247       3.2919       0.0029       2.8040    -999.2500       1.2581       1.9827
   2941.3594       8.7053       5.7984    -999.2500      47.2964      25.3584    -999.2500    -999.2500   26047.3594    5778.3921      72.4958       0.0267       3.3029       0.0026       2.7940    -999.2500       0.5224       2.1816
   2941.5117       8.6248       5.0876    -999.2500      48.1454      24.9475    -999.2500    -999.2500   25191.3398    5649.8081     172.6512       0.0291       3.2914       0.0019       2.7813    -999.2500       0.6531       2.2281
   2941.6641       8.5311       4.5301    -999.2500      48.9679      24.5614    -999.2500    -999.2500   24546.6582    5515.2798     287.9648       0.0312       3.2774       0.0011       2.7683    -999.2500       0.8827       2.2572
   2941.8167       8.6100       4.6380    -999.2500      49.4080      25.2570    -999.2500    -999.2500   23854.8457    5449.0439     348.6917       0.0321       3.3265       0.0012       2.7774    -999.2500       0.7872       2.3259
   2941.9690       8.7075       4.8175    -999.2500      49.5500      26.0686    -999.2500    -999.2500   23157.9727    5390.1392     403.5585       0.0325       3.3825       0.0014       2.7889    -999.2500       0.6568       2.3989
   2942.1213       8.7102       4.4295    -999.2500      48.3291      27.2410    -999.2500    -999.2500   21562.9512    5357.6553     259.2525       0.0315       3.4051       0.0012       2.8017    -999.2500       0.7409       2.5263
   2942.2737       8.7028       3.9801    -999.2500      46.8987      28.4525    -999.2500    -999.2500   19870.5586    5328.0352      93.3535       0.0307       3.4241       0.0010       2.8147    -999.2500       0.8482       2.6596
   2942.4263       8.6377       6.4522    -999.2500      46.2071      31.0809    -999.2500    -999.2500   16729.5879    4863.2905     185.4311       0.0326       3.4085       0.0021       2.7836    -999.2500       1.0218       2.7018
   2942.5786       8.5662       9.2500    -999.2500      46.0061      33.8672    -999.2500    -999.2500   13427.1729    4350.0508     306.2604       0.0360       3.3890       0.0034       2.7476    -999.2500       1.2027       2.7338
   2942.7310       8.6183      10.8439    -999.2500      47.1466      35.0735    -999.2500    -999.2500   11418.8643    3976.5220     385.2955       0.0429       3.3830       0.0042       2.7220    -999.2500       1.2852       2.6561
   2942.8833       8.6843      12.3022    -999.2500      48.7924      36.1021    -999.2500    -999.2500    9556.1680    3618.7136     459.6279       0.0511       3.3785       0.0050       2.6975    -999.2500       1.3567       2.5662
   2943.0359       8.7126      11.6050    -999.2500      50.9385      35.8495    -999.2500    -999.2500    8996.7295    3537.0251     301.2198       0.0600       3.3969       0.0046       2.6783    -999.2500       1.3050       2.6412
   2943.1882       8.7367      10.6629    -999.2500      53.1655      35.4514    -999.2500    -999.2500    8585.3271    3486.7012     116.3749       0.0697       3.4180       0.0042       2.6598    -999.2500       1.2393       2.7350
   2943.3406       8.7074       9.9150    -999.2500      55.3556      37.3194    -999.2500    -999.2500    8155.8296    3522.5308     267.6990       0.0817       3.4227       0.0039       2.6368    -999.2500       1.5164       3.0215
   2943.4929       8.6725       9.1879    -999.2500      57.5300      39.4293    -999.2500    -999.2500    7724.4009    3567.5576     454.9112       0.0948       3.4257       0.0036       2.6133    -999.2500       1.8300       3.3286
   2943.6453       8.6532       8.5008    -999.2500      58.7479      39.4628    -999.2500    -999.2500    6590.5874    3204.4238     352.0833       0.1009       3.3949       0.0033       2.5979    -999.2500       1.4071       3.4189
   2943.7979       8.6357       7.8181    -999.2500      59.6169      39.2684    -999.2500    -999.2500    5379.6631    2796.4800     217.4135       0.1055       3.3604       0.0031       2.5834    -999.2500       0.9033       3.4854
   2943.9502       8.6916       5.6624    -999.2500      59.5617      39.9707    -999.2500    -999.2500    4660.8867    2525.8289     166.9671       0.1078       3.3696       0.0018       2.5856    -999.2500       0.8822       3.7736
   2944.1025       8.7556       3.3434    -999.2500      59.0883      40.7723    -999.2500    -999.2500    3996.6643    2270.3967     125.8568       0.1088       3.3836       0.0004       2.5896    -999.2500       0.9147       4.0865
   2944.2549       8.6906       3.7343    -999.2500      58.2359      43.1947    -999.2500    -999.2500    3758.7634    2190.9565     141.2665       0.1050       3.3774       0.0009       2.6084    -999.2500       0.7568       4.3367
   2944.4075       8.6112       4.4284    -999.2500      57.2532      45.7985    -999.2500    -999.2500    3568.5747    2131.2126     163.0017       0.0998       3.3689       0.0016       2.6289    -999.2500       0.5775       4.5799
   2944.5598       8.5770       4.9523    -999.2500      55.9480      46.8115    -999.2500    -999.2500    3611.7834    2107.8030     161.0685       0.0920       3.3823       0.0022       2.6628    -999.2500       0.4474       4.6382
   2944.7122       8.5480       5.4566    -999.2500      54.5374      47.6417    -999.2500    -999.2500    3681.8269    2088.5708     156.4140       0.0825       3.3983       0.0027       2.6983    -999.2500       0.3229       4.6752
