#------------------------------------------------------------------------------
#
#   Created by  : [OpenWorks] Log Export Utility (LEXP)
#   Created on  : 2016-05-23 11:56:12
#   Project     : CANT971
#   User        : R5K
#   Interpreter : PEP
#
#------------------------------------------------------------------------------
~VERSION INFORMATION
VERS. 2.0 : CWLS Log ASCII Standard - version 2.0
WRAP.  NO : One line per depth step
~WELL INFORMATION
#MNEMONIC   .UNIT                                           VALUE :DESCRIPTION
#------------------------------------------------------------------------------
STRT        .M                                           365.7604 :START DEPTH
STOP        .M                                          2883.8655 :STOP DEPTH
STEP        .M                                             0.1524 :STEP
NULL        .                                           -999.2500 :NULL VALUE
COMP        .                                   PEMEX EXPL & PROD :COMPANY
WELL        .                                                  44 :WELL
FLD         .                                           CANTARELL :FIELD
LOC         .                                             UNKNOWN :LOCATION
CNTY        .                                      CD. DEL CARMEN :COUNTY
STAT        .                                            CAMPECHE :STATE
CTRY        .                                              MEXICO :COUNTRY
SRVC        .                                             UNKNOWN :SERVICE COMPANY
DATE        .                                             UNKNOWN :LOG DATE
UWI         .                                          3060000162 :UNIQUE WELL ID
XCOORD      .                                       599695.380000 :SURFACE X
YCOORD      .                                      2143038.730000 :SURFACE Y
LAT         .                                           19.380164 :LATITUDE
LON         .                                          -92.050646 :LONGITUDE
ELEV        .M                                            26.7400 :SURFACE ELEV
ELEV_TYPE   .                                                  KB :ELEV TYPE
~CURVE INFORMATION
#MNEMONIC.UNIT        API CODE       : CURVE DESCRIPTION
#------------------------------------------------------------------------------
DEPTH    .M                          : Measured Depth
CALI     .inches      UNKNOWN        : CALI:registros:rC:NONE:v0 (auto-composite)
CGR      .API         UNKNOWN        : CGR:registros:rC:NONE:v0 (auto-composite)
DRHO     .g/cm3       UNKNOWN        : DRHO:registros:rC:NONE:v0 (auto-composite)
DT       .UNKNOWN     UNKNOWN        : DT:registros:rC:NONE:v0 (auto-composite)
GR       .API         UNKNOWN        : GR:registros:rC:NONE:v0 (auto-composite)
ILD      .ohm.m       UNKNOWN        : ILD:registros:rC:NONE:v0 (auto-composite)
LLD      .ohm.m       UNKNOWN        : LLD:registros:rC:NONE:v0 (auto-composite)
LLS      .ohm.m       UNKNOWN        : LLS:registros:rC:NONE:v0 (auto-composite)
MSFL     .ohm.m       UNKNOWN        : MSFL:registros:rC:NONE:v0 (auto-composite)
NPHI     .UNKNOWN     UNKNOWN        : NPHI:registros:rC:NONE:v0 (auto-composite)
PEF      .b/elec      UNKNOWN        : PEF:registros:rC:NONE:v0 (auto-composite)
POTA     .wtpercent   UNKNOWN        : POTA:registros:rC:NONE:v0 (auto-composite)
RHOB     .g/cm3       UNKNOWN        : RHOB:registros:rC:NONE:v0 (auto-composite)
THOR     .ppm         UNKNOWN        : THOR:registros:rC:NONE:v0 (auto-composite)
URAN     .ppm         UNKNOWN        : URAN:registros:rC:NONE:v0 (auto-composite)
~A     DEPTH         CALI          CGR         DRHO           DT           GR          ILD          LLD          LLS         MSFL         NPHI          PEF         POTA         RHOB         THOR         URAN
# ...
   1750.6191       8.7360    -999.2500      -0.7158      56.4097      42.3376       1.2134    -999.2500    -999.2500    -999.2500       0.3582    -999.2500    -999.2500       2.1546    -999.2500    -999.2500
   1750.7716       8.7340    -999.2500      -0.7560      56.3570      41.3150       1.3040    -999.2500    -999.2500    -999.2500       0.3495    -999.2500    -999.2500       2.0950    -999.2500    -999.2500
   1750.9240       8.7355    -999.2500      -0.7374      56.3189      38.3443       1.3918    -999.2500    -999.2500    -999.2500       0.3399    -999.2500    -999.2500       2.1186    -999.2500    -999.2500
   1751.0764       8.7370    -999.2500      -0.7190      56.2810      35.3920       1.4790       0.1680       0.1680       0.1680       0.3307    -999.2500    -999.2500       2.1420    -999.2500    -999.2500
   1751.2288       8.7375    -999.2500      -0.6969      56.3096      34.0215       1.5267       0.2522       0.2046       0.2777       0.3323    -999.2500    -999.2500       2.2129    -999.2500    -999.2500
   1751.3812       8.7380    -999.2500      -0.6750      56.3380      32.6560       1.5740       0.3360       0.2410       0.3870       0.3348    -999.2500    -999.2500       2.2830    -999.2500    -999.2500
   1751.5336       8.7380    -999.2500      -0.6770      56.3164      32.6911       1.5941       0.3726       0.2490       0.4899       0.3511    -999.2500    -999.2500       2.2785    -999.2500    -999.2500
   1751.6860       8.7380    -999.2500      -0.6790      56.2950      32.7260       1.6140       0.4090       0.2570       0.5920       0.3678    -999.2500    -999.2500       2.2740    -999.2500    -999.2500
   1751.8384       8.7395    -999.2500      -0.6342      56.2502      33.6638       1.5919       0.4105       0.2560       0.5462       0.3888    -999.2500    -999.2500       2.2911    -999.2500    -999.2500
   1751.9907       8.7410    -999.2500      -0.5900      56.2060      34.5910       1.5700       0.4120       0.2550       0.5010       0.4081    -999.2500    -999.2500       2.3080    -999.2500    -999.2500
   1752.1432       8.7460    -999.2500      -0.6217      56.2341      34.2354       1.5434       0.4050       0.2555       0.5407       0.3794    -999.2500    -999.2500       2.2924    -999.2500    -999.2500
   1752.2955       8.7510    -999.2500      -0.6530      56.2620      33.8830       1.5170       0.3980       0.2560       0.5800       0.3499    -999.2500    -999.2500       2.2770    -999.2500    -999.2500
   1752.4480       8.7651    -999.2500      -0.6414      56.3187      34.0962       1.4904       0.3915       0.2560       0.5133       0.3352    -999.2500    -999.2500       2.2594    -999.2500    -999.2500
   1752.6003       8.7790    -999.2500      -0.6300      56.3750      34.3080       1.4640       0.3850       0.2560       0.4470       0.3219    -999.2500    -999.2500       2.2420    -999.2500    -999.2500
   1752.7528       8.7870    -999.2500      -0.6310      56.3484      36.0103       1.4334       0.3780       0.2550       0.5717       0.3358    -999.2500    -999.2500       2.2133    -999.2500    -999.2500
   1752.9052       8.7950    -999.2500      -0.6320      56.3220      37.7060       1.4030       0.3710       0.2540       0.6960       0.3503    -999.2500    -999.2500       2.1850    -999.2500    -999.2500
   1753.0576       8.8041    -999.2500      -0.5525      56.4269      36.9953       1.4306       0.3886       0.2535       0.6102       0.3587    -999.2500    -999.2500       2.2217    -999.2500    -999.2500
   1753.2100       8.8130    -999.2500      -0.4740      56.5310      36.2900       1.4580       0.4060       0.2530       0.5250       0.3670    -999.2500    -999.2500       2.2580    -999.2500    -999.2500
   1753.3624       8.8256    -999.2500      -0.4081      56.4586      36.4565       1.4886       0.3904       0.2505       0.4812       0.3761    -999.2500    -999.2500       2.2847    -999.2500    -999.2500
   1753.5148       8.8380    -999.2500      -0.3430      56.3870      36.6210       1.5190       0.3750       0.2480       0.4380       0.3848    -999.2500    -999.2500       2.3110    -999.2500    -999.2500
   1753.6672       8.8546    -999.2500      -0.3239      56.2147      34.8902       1.5481       0.4704       0.2495       0.4541       0.3775    -999.2500    -999.2500       2.3241    -999.2500    -999.2500
   1753.8196       8.8710    -999.2500      -0.3050      56.0440      33.1750       1.5770       0.5650       0.2510       0.4700       0.3698    -999.2500    -999.2500       2.3370    -999.2500    -999.2500
   1753.9719       8.8921    -999.2500      -0.3060      56.0691      33.1750       1.6071       0.5138       0.2455       0.5076       0.3585    -999.2500    -999.2500       2.3365    -999.2500    -999.2500
   1754.1244       8.9130    -999.2500      -0.3070      56.0940      33.1750       1.6370       0.4630       0.2400       0.5450       0.3472    -999.2500    -999.2500       2.3360    -999.2500    -999.2500
   1754.2767       8.9110    -999.2500      -0.2949      56.0659      33.1044       1.6169       0.5732       0.2175       0.5124       0.3371    -999.2500    -999.2500       2.3551    -999.2500    -999.2500
   1754.4292       8.9090    -999.2500      -0.2830      56.0380      33.0340       1.5970       0.6830       0.1950       0.4800       0.3271    -999.2500    -999.2500       2.3740    -999.2500    -999.2500
   1754.5815       8.9045    -999.2500      -0.2709      56.5219      34.1338       1.5543       1.0399       0.2633       0.5553       0.3218    -999.2500    -999.2500       2.3946    -999.2500    -999.2500
   1754.7340       8.9000    -999.2500      -0.2590      57.0020      35.2250       1.5120       1.3940       0.3310       0.6300       0.3169    -999.2500    -999.2500       2.4150    -999.2500    -999.2500
   1754.8864       8.8779    -999.2500      -0.2665      59.9352      38.3010       1.5200       6.0060       0.4009       0.6607       0.3236    -999.2500    -999.2500       2.4291    -999.2500    -999.2500
   1755.0388       8.8560    -999.2500      -0.2740      62.8340      41.3410       1.5280      10.5640       0.4700       0.6910       0.3304    -999.2500    -999.2500       2.4430    -999.2500    -999.2500
   1755.1912       8.8781    -999.2500      -0.2277      66.6149      40.4519       1.5416       5.3741       0.6207       0.7327       0.3292    -999.2500    -999.2500       2.4586    -999.2500    -999.2500
   1755.3436       8.9000    -999.2500      -0.1820      70.3610      39.5710       1.5550       0.2320       0.7700       0.7740       0.3279    -999.2500    -999.2500       2.4740    -999.2500    -999.2500
   1755.4960       9.0278    -999.2500      -0.0054      74.6564      37.9425       1.5670       0.5310       0.5613       0.9360       0.3300    -999.2500    -999.2500       2.5635    -999.2500    -999.2500
   1755.6483       9.1540    -999.2500       0.1690      78.9230      36.3250       1.5790       0.8280       0.3540       1.0970       0.3319    -999.2500    -999.2500       2.6520    -999.2500    -999.2500
   1755.8008       9.7023    -999.2500       0.2641      81.5380      35.7874       1.5900       0.4858       0.3670       0.9432       0.3283    -999.2500    -999.2500       2.6042    -999.2500    -999.2500
   1755.9531      10.2440    -999.2500       0.3580      84.1420      35.2520       1.6010       0.1450       0.3800       0.7900       0.3242    -999.2500    -999.2500       2.5570    -999.2500    -999.2500
   1756.1056      10.7918    -999.2500       0.3238      87.1737      35.9087       1.6065       1.0994       0.6375       1.9241       0.3000    -999.2500    -999.2500       2.4614    -999.2500    -999.2500
   1756.2579      11.3330    -999.2500       0.2900      90.1810      36.5600       1.6120       2.0460       0.8930       3.0490       0.2761    -999.2500    -999.2500       2.3670    -999.2500    -999.2500
   1756.4104      11.6625    -999.2500       0.2332      92.1366      37.2793       1.6130       1.2910       1.3603       2.6939       0.2840    -999.2500    -999.2500       2.3348    -999.2500    -999.2500
