#------------------------------------------------------------------------------
#
#   Created by  : [OpenWorks] Log Export Utility (LEXP)
#   Created on  : 2016-05-23 11:57:11
#   Project     : CANT971
#   User        : R5K
#   Interpreter : PEP
#
#------------------------------------------------------------------------------
~VERSION INFORMATION
VERS. 2.0 : CWLS Log ASCII Standard - version 2.0
WRAP.  NO : One line per depth step
~WELL INFORMATION
#MNEMONIC   .UNIT                                           VALUE :DESCRIPTION
#------------------------------------------------------------------------------
STRT        .M                                           319.2782 :START DEPTH
STOP        .M                                          2532.8882 :STOP DEPTH
STEP        .M                                             0.1524 :STEP
NULL        .                                           -999.2500 :NULL VALUE
COMP        .                                   PEMEX EXPL & PROD :COMPANY
WELL        .                                                 73A :WELL
FLD         .                                           CANTARELL :FIELD
LOC         .                                             UNKNOWN :LOCATION
CNTY        .                                      CD. DEL CARMEN :COUNTY
STAT        .                                            CAMPECHE :STATE
CTRY        .                                              MEXICO :COUNTRY
SRVC        .                                             UNKNOWN :SERVICE COMPANY
DATE        .                                             UNKNOWN :LOG DATE
UWI         .                                          3060000177 :UNIQUE WELL ID
XCOORD      .                                       599722.890000 :SURFACE X
YCOORD      .                                      2147218.550000 :SURFACE Y
LAT         .                                           19.417934 :LATITUDE
LON         .                                          -92.050165 :LONGITUDE
ELEV        .M                                            27.8000 :SURFACE ELEV
ELEV_TYPE   .                                                  KB :ELEV TYPE
~CURVE INFORMATION
#MNEMONIC.UNIT        API CODE       : CURVE DESCRIPTION
#------------------------------------------------------------------------------
DEPTH    .M                          : Measured Depth
CALI     .inches      UNKNOWN        : CALI:registros:rC:NONE:v0 (auto-composite)
DRHO     .g/cm3       UNKNOWN        : DRHO:registros:rC:NONE:v0 (auto-composite)
DT       .UNKNOWN     UNKNOWN        : DT:registros:rC:NONE:v0 (auto-composite)
GR       .API         UNKNOWN        : GR:registros:rC:NONE:v0 (auto-composite)
ILD      .ohm.m       UNKNOWN        : ILD:registros:rC:NONE:v0 (auto-composite)
LLD      .ohm.m       UNKNOWN        : LLD:registros:rC:NONE:v0 (auto-composite)
LLS      .ohm.m       UNKNOWN        : LLS:registros:rC:NONE:v0 (auto-composite)
MSFL     .ohm.m       UNKNOWN        : MSFL:registros:rC:NONE:v0 (auto-composite)
RHOB     .g/cm3       UNKNOWN        : RHOB:registros:rC:NONE:v0 (auto-composite)
~A     DEPTH         CALI         DRHO           DT           GR          ILD          LLD          LLS         MSFL         RHOB
# ...
    678.3326      22.8500       0.0595     138.9833      44.9496       0.9349    -999.2500    -999.2500    -999.2500       2.1850
    678.4850      22.8500       0.0540     138.6730      45.2500       0.9500    -999.2500    -999.2500    -999.2500       2.1700
    678.6374      22.8500       0.0560     138.1320      44.7507       0.9470    -999.2500    -999.2500    -999.2500       2.1730
    678.7898      22.8500       0.0580     137.5900      44.2500       0.9440    -999.2500    -999.2500    -999.2500       2.1760
    678.9422      22.8500       0.0650     137.8717      44.7019       0.9320    -999.2500    -999.2500    -999.2500       2.1830
    679.0946      22.8500       0.0720     138.1540      45.1550       0.9200    -999.2500    -999.2500    -999.2500       2.1900
    679.2470      22.8500       0.0865     139.0510      48.1181       0.9200    -999.2500    -999.2500    -999.2500       2.1900
    679.3994      22.8500       0.1010     139.9500      51.0900       0.9200    -999.2500    -999.2500    -999.2500       2.1900
    679.5518      22.8500       0.0990     139.7727      50.8424       0.9200    -999.2500    -999.2500    -999.2500       2.1900
    679.7042      22.8500       0.0970     139.5950      50.5940       0.9200    -999.2500    -999.2500    -999.2500       2.1900
    679.8566      22.8500       0.0905     138.1692      48.4255       0.9255    -999.2500    -999.2500    -999.2500       2.1950
    680.0090      22.8500       0.0840     136.7400      46.2500       0.9310    -999.2500    -999.2500    -999.2500       2.2000
    680.1614      22.8500       0.0695     136.8124      46.3588       0.9464    -999.2500    -999.2500    -999.2500       2.1900
    680.3138      22.8500       0.0550     136.8850      46.4680       0.9620    -999.2500    -999.2500    -999.2500       2.1800
    680.4662      22.8500       0.0620     137.5774      47.0088       0.9660    -999.2500    -999.2500    -999.2500       2.1850
    680.6186      22.8500       0.0690     138.2710      47.5510       0.9700    -999.2500    -999.2500    -999.2500       2.1900
    680.7710      22.8500       0.0665     139.8439      48.2560       0.9700    -999.2500    -999.2500    -999.2500       2.1700
    680.9234      22.8500       0.0640     141.4200      48.9630       0.9700    -999.2500    -999.2500    -999.2500       2.1500
    681.0758      22.8500       0.0570     141.3701      50.1248       0.9700    -999.2500    -999.2500    -999.2500       2.1500
    681.2282      22.8500       0.0500     141.3200      51.2900       0.9700    -999.2500    -999.2500    -999.2500       2.1500
    681.3806      22.8500       0.0485     141.5333      51.1832       0.9700    -999.2500    -999.2500    -999.2500       2.1450
    681.5330      22.8500       0.0470     141.7470      51.0760       0.9700    -999.2500    -999.2500    -999.2500       2.1400
    681.6854      22.8500       0.0410     142.3228      50.5124       0.9700    -999.2500    -999.2500    -999.2500       2.1415
    681.8378      22.8500       0.0350     142.9000      49.9470       0.9700    -999.2500    -999.2500    -999.2500       2.1430
    681.9902      22.8500       0.0365     142.3256      47.2524       0.9700    -999.2500    -999.2500    -999.2500       2.1465
    682.1426      22.8500       0.0380     141.7500      44.5500       0.9700    -999.2500    -999.2500    -999.2500       2.1500
    682.2950      22.8500       0.0475     141.8959      44.5500       0.9670    -999.2500    -999.2500    -999.2500       2.1550
    682.4474      22.8500       0.0570     142.0420      44.5500       0.9640    -999.2500    -999.2500    -999.2500       2.1600
    682.5998      22.8350       0.0565     143.0301      45.3988       0.9501    -999.2500    -999.2500    -999.2500       2.1550
    682.7522      22.8200       0.0560     144.0200      46.2500       0.9360    -999.2500    -999.2500    -999.2500       2.1500
    682.9046      22.8350       0.0580     143.7098      45.3762       0.9081    -999.2500    -999.2500    -999.2500       2.1525
    683.0570      22.8500       0.0600     143.3990      44.5000       0.8800    -999.2500    -999.2500    -999.2500       2.1550
    683.2094      22.8350       0.0590     142.3327      44.5894       0.8800    -999.2500    -999.2500    -999.2500       2.1675
    683.3618      22.8200       0.0580     141.2640      44.6790       0.8800    -999.2500    -999.2500    -999.2500       2.1800
    683.5142      22.8240       0.0530     140.2532      44.9975       0.8800    -999.2500    -999.2500    -999.2500       2.1750
    683.6666      22.8280       0.0480     139.2400      45.3170       0.8800    -999.2500    -999.2500    -999.2500       2.1700
    683.8190      22.8390       0.0425     139.4073      45.7328       0.8800    -999.2500    -999.2500    -999.2500       2.1700
    683.9714      22.8500       0.0370     139.5750      46.1500       0.8800    -999.2500    -999.2500    -999.2500       2.1700
    684.1238      22.8350       0.0385     140.6463      45.1515       0.8651    -999.2500    -999.2500    -999.2500       2.1715
    684.2762      22.8200       0.0400     141.7200      44.1500       0.8500    -999.2500    -999.2500    -999.2500       2.1730
    684.4286      22.8350       0.0455     141.5352      44.2474       0.8530    -999.2500    -999.2500    -999.2500       2.1765
    684.5810      22.8500       0.0510     141.3500      44.3450       0.8560    -999.2500    -999.2500    -999.2500       2.1800
    684.7334      22.8350       0.0560     141.6862      46.1699       0.8645    -999.2500    -999.2500    -999.2500       2.1785
    684.8858      22.8200       0.0610     142.0230      48.0000       0.8730    -999.2500    -999.2500    -999.2500       2.1770
    685.0382      22.8240       0.0635     143.6747      46.8766       0.8765    -999.2500    -999.2500    -999.2500       2.1720
    685.1906      22.8280       0.0660     145.3300      45.7500       0.8800    -999.2500    -999.2500    -999.2500       2.1670
    685.3430      22.8390       0.0535     145.0338      46.5488       0.8800    -999.2500    -999.2500    -999.2500       2.1535
    685.4954      22.8500       0.0410     144.7370      47.3500       0.8800    -999.2500    -999.2500    -999.2500       2.1400
    685.6478      22.8200       0.0410     142.9806      47.1873       0.8800    -999.2500    -999.2500    -999.2500       2.1450
    685.8002      22.7900       0.0410     141.2200      47.0240       0.8800    -999.2500    -999.2500    -999.2500       2.1500
    685.9526      22.7985       0.0390     141.7345      46.0884       0.8800    -999.2500    -999.2500    -999.2500       2.1450
    686.1050      22.8070       0.0370     142.2500      45.1500       0.8800    -999.2500    -999.2500    -999.2500       2.1400
    686.2574      22.8285       0.0375     142.0352      45.2843       0.8800    -999.2500    -999.2500    -999.2500       2.1450
    686.4098      22.8500       0.0380     141.8200      45.4190       0.8800    -999.2500    -999.2500    -999.2500       2.1500
    686.5622      22.8350       0.0400     141.8749      45.8519       0.8770    -999.2500    -999.2500    -999.2500       2.1450
    686.7146      22.8200       0.0420     141.9300      46.2860       0.8740    -999.2500    -999.2500    -999.2500       2.1400
    686.8670      22.8200       0.0485     142.3146      46.5936       0.8521    -999.2500    -999.2500    -999.2500       2.1400
    687.0194      22.8200       0.0550     142.7000      46.9020       0.8300    -999.2500    -999.2500    -999.2500       2.1400
    687.1718      22.8240       0.0400     142.5641      48.6683       0.8300    -999.2500    -999.2500    -999.2500       2.1250
    687.3242      22.8280       0.0250     142.4280      50.4400       0.8300    -999.2500    -999.2500    -999.2500       2.1100
    687.4766      22.8390       0.0435     141.5001      49.2469       0.8315    -999.2500    -999.2500    -999.2500       2.1155
    687.6290      22.8500       0.0620     140.5700      48.0500       0.8330    -999.2500    -999.2500    -999.2500       2.1210
