#------------------------------------------------------------------------------
#
#   Created by  : [OpenWorks] Log Export Utility (LEXP)
#   Created on  : 2016-05-23 11:53:41
#   Project     : CANT971
#   User        : R5K
#   Interpreter : PEP
#
#------------------------------------------------------------------------------
~VERSION INFORMATION
VERS. 2.0 : CWLS Log ASCII Standard - version 2.0
WRAP.  NO : One line per depth step
~WELL INFORMATION
#MNEMONIC   .UNIT                                           VALUE :DESCRIPTION
#------------------------------------------------------------------------------
STRT        .M                                           901.1412 :START DEPTH
STOP        .M                                          2449.6777 :STOP DEPTH
STEP        .M                                             0.1524 :STEP
NULL        .                                           -999.2500 :NULL VALUE
COMP        .                                   PEMEX EXPL & PROD :COMPANY
WELL        .                                                  25 :WELL
FLD         .                                           CANTARELL :FIELD
LOC         .                                             UNKNOWN :LOCATION
CNTY        .                                      CD. DEL CARMEN :COUNTY
STAT        .                                            CAMPECHE :STATE
CTRY        .                                              MEXICO :COUNTRY
SRVC        .                                             UNKNOWN :SERVICE COMPANY
DATE        .                                             UNKNOWN :LOG DATE
UWI         .                                          3060000154 :UNIQUE WELL ID
XCOORD      .                                       603358.080000 :SURFACE X
YCOORD      .                                      2145091.420000 :SURFACE Y
LAT         .                                           19.398528 :LATITUDE
LON         .                                          -92.015660 :LONGITUDE
ELEV        .M                                            27.1400 :SURFACE ELEV
ELEV_TYPE   .                                                  KB :ELEV TYPE
~CURVE INFORMATION
#MNEMONIC.UNIT        API CODE       : CURVE DESCRIPTION
#------------------------------------------------------------------------------
DEPTH    .M                          : Measured Depth
CALI     .in          UNKNOWN        : CALI:registros:rC:NONE:v0 (auto-composite)
DRHO     .g/cm3       UNKNOWN        : DRHO:registros:rC:NONE:v0 (auto-composite)
DT       .us/ft       UNKNOWN        : DT:registros:rC:NONE:v0 (auto-composite)
GR       .api         UNKNOWN        : GR:registros:rC:NONE:v0 (auto-composite)
ILD      .ohmm        UNKNOWN        : ILD:registros:rC:NONE:v0 (auto-composite)
LLD      .ohmm        UNKNOWN        : LLD:registros:rC:NONE:v0 (auto-composite)
LLS      .ohmm        UNKNOWN        : LLS:registros:rC:NONE:v0 (auto-composite)
MSFL     .ohmm        UNKNOWN        : MSFL:registros:rC:NONE:v0 (auto-composite)
NPHI     .v/v_decimal UNKNOWN        : NPHI:registros:rC:NONE:v0 (auto-composite)
PEF      .b/elec      UNKNOWN        : PEF:registros:rC:NONE:v0 (auto-composite)
RHOB     .g/cm3       UNKNOWN        : RHOB:registros:rC:NONE:v0 (auto-composite)
~A     DEPTH         CALI         DRHO           DT           GR          ILD          LLD          LLS         MSFL         NPHI          PEF         RHOB
# ...
   2280.0564       6.3330      -0.0040      54.1094      23.9539    -999.2500     117.2587      63.8089      55.4019       0.0705       3.1191       2.7284
   2280.2087       6.3330      -0.0020      51.3120      23.9780    -999.2500     117.3900      68.2910      61.9930       0.0656       3.1870       2.7510
   2280.3613       6.3485       0.0045      51.6726      24.2105    -999.2500     117.9792      67.3451      59.6542       0.0685       3.1460       2.7485
   2280.5137       6.3640       0.0110      52.0360      24.4440    -999.2500     118.5710      66.3950      57.3050       0.0715       3.1050       2.7460
   2280.6660       6.3999       0.0100      53.5957      22.2270    -999.2500     121.2694      63.2601      59.6242       0.0787       3.0099       2.7310
   2280.8184       6.4360       0.0090      55.1650      20.0000    -999.2500     123.9800      60.1110      61.9540       0.0859       2.9150       2.7160
   2280.9709       6.4400       0.0045      57.5749      20.1147    -999.2500     133.0857      62.7533      69.9493       0.0852       2.9570       2.6906
   2281.1233       6.4440       0.0000      60.0000      20.2300    -999.2500     142.2340      65.4080      77.9820       0.0844       2.9990       2.6650
   2281.2756       6.4440       0.0000      59.7144      20.6131    -999.2500     141.7656      76.6071      83.0792       0.0855       3.1356       2.6869
   2281.4280       6.4440       0.0000      59.4270      20.9980    -999.2500     141.2950      87.8600      88.2010       0.0866       3.2720       2.7090
   2281.5803       6.4440       0.0000      58.4766      20.5002    -999.2500     136.8181      86.1791      81.8387       0.0900       3.2375       2.7040
   2281.7329       6.4440       0.0000      57.5200      20.0000    -999.2500     132.3190      84.4900      75.4450       0.0934       3.2030       2.6990
   2281.8853       6.4440      -0.0030      57.8185      20.5166    -999.2500     121.9163      79.5241      57.2470       0.0985       3.1189       2.6796
   2282.0376       6.4440      -0.0060      58.1190      21.0350    -999.2500     111.4610      74.5330      38.9570       0.1036       3.0350       2.6600
   2282.1899       6.4440      -0.0050      59.3673      22.4120    -999.2500     101.8095      70.2651      40.6252       0.1128       2.9735       2.6376
   2282.3425       6.4440      -0.0040      60.6240      23.7940    -999.2500      92.1080      65.9750      42.3020       0.1220       2.9120       2.6150
   2282.4949       6.4440       0.0010      62.2220      25.2278    -999.2500      83.5841      62.5292      51.3041       0.1200       2.9330       2.6245
   2282.6472       6.4440       0.0060      63.8310      26.6670    -999.2500      75.0150      59.0650      60.3540       0.1181       2.9540       2.6340
   2282.7996       6.4440       0.0045      63.1823      26.5542    -999.2500      67.7732      55.2339      57.3941       0.1101       3.0105       2.6644
   2282.9521       6.4440       0.0030      62.5290      26.4410    -999.2500      60.4920      51.3820      54.4180       0.1021       3.0670       2.6950
   2283.1045       6.4440      -0.0065      60.6757      25.9839    -999.2500      55.6730      46.1404      40.2705       0.1056       3.0890       2.6875
   2283.2568       6.4440      -0.0160      58.8090      25.5250    -999.2500      50.8350      40.8780      26.0670       0.1090       3.1110       2.6800
   2283.4092       6.4440      -0.0145      60.1516      25.0400    -999.2500      47.4300      37.3302      26.2297       0.1086       3.1585       2.6925
   2283.5615       6.4440      -0.0130      61.5040      24.5530    -999.2500      44.0110      33.7680      26.3930       0.1082       3.2060       2.7050
   2283.7141       6.4440      -0.0035      60.8001      24.2901    -999.2500      46.2358      34.9241      29.1716       0.1067       3.1029       2.6985
   2283.8665       6.4440       0.0060      60.0910      24.0260    -999.2500      48.4700      36.0850      31.9620       0.1051       3.0000       2.6920
   2284.0188       6.4440       0.0055      61.0165      23.1444    -999.2500      61.2328      40.3108      45.6598       0.1025       3.0000       2.6960
   2284.1711       6.4440       0.0050      61.9490      22.2590    -999.2500      74.0510      44.5550      59.4170       0.0999       3.0000       2.7000
   2284.3237       6.4440       0.0025      61.7313      22.8766    -999.2500      74.0425      49.4231      58.3973       0.0951       3.0130       2.7140
   2284.4761       6.4440       0.0000      61.5120      23.4970    -999.2500      74.0340      54.3130      57.3730       0.0902       3.0260       2.7280
   2284.6284       6.4440       0.0000      60.1931      25.0784    -999.2500      69.6670      57.9721      54.4198       0.0834       3.1096       2.7390
   2284.7808       6.4440       0.0000      58.8660      26.6670    -999.2500      65.2800      61.6480      51.4530       0.0767       3.1930       2.7500
   2284.9333       6.4440      -0.0010      55.9208      26.2739    -999.2500      65.8566      57.7292      49.5340       0.0779       3.3476       2.7395
   2285.0857       6.4440      -0.0020      52.9570      25.8790    -999.2500      66.4360      53.7920      47.6060       0.0792       3.5020       2.7290
   2285.2380       6.4370      -0.0065      53.1793      24.8515    -999.2500      68.5993      54.5567      46.4812       0.0831       3.4490       2.6971
   2285.3904       6.4300      -0.0110      53.4030      23.8190    -999.2500      70.7730      55.3250      45.3510       0.0871       3.3960       2.6650
   2285.5427       6.3486      -0.0110      54.1874      23.3527    -999.2500      75.1860      57.2447      47.1296       0.0915       3.2534       2.6321
   2285.6953       6.2670      -0.0110      54.9770      22.8840    -999.2500      79.6210      59.1740      48.9170       0.0959       3.1110       2.5990
   2285.8477       6.2745      -0.0095      56.3972      23.1081    -999.2500      79.0774      60.4079      53.1338       0.1013       3.1110       2.5631
   2286.0000       6.2820      -0.0080      57.8270      23.3330    -999.2500      78.5310      61.6480      57.3720       0.1067       3.1110       2.5270
   2286.1523       6.3189      -0.0010      59.6802      23.1364    -999.2500      76.6594      61.1119      42.2979       0.1147       3.1300       2.5395
   2286.3049       6.3560       0.0060      61.5460      22.9390    -999.2500      74.7780      60.5730      27.1450       0.1228       3.1490       2.5520
   2286.4573       6.3999       0.0030      60.7318      21.4722    -999.2500      71.7700      58.4811      27.4612       0.1196       3.2100       2.5859
   2286.6096       6.4440       0.0000      59.9120      20.0000    -999.2500      68.7460      56.3780      27.7790       0.1163       3.2710       2.6200
   2286.7620       6.4440       0.0015      56.8922      20.2610    -999.2500      64.9798      56.7934      32.0363       0.1041       3.3385       2.6469
   2286.9146       6.4440       0.0030      53.8510      20.5230    -999.2500      61.1930      57.2110      36.3170       0.0918       3.4060       2.6740
   2287.0669       6.4440       0.0060      54.0149      22.3044    -999.2500      58.4275      56.6147      34.8424       0.0920       3.4810       2.6919
   2287.2192       6.4440       0.0090      54.1800      24.0930    -999.2500      55.6510      56.0160      33.3620       0.0923       3.5560       2.7100
   2287.3716       6.4440       0.0070      54.7843      23.8136    -999.2500      56.9952      54.3245      33.8939       0.0914       3.5390       2.7150
   2287.5239       6.4440       0.0050      55.3930      23.5330    -999.2500      58.3450      52.6260      34.4280       0.0906       3.5220       2.7200
   2287.6765       6.4440      -0.0005      56.0182      22.7621    -999.2500      62.5900      51.2858      41.5294       0.0857       3.4654       2.7240
   2287.8289       6.4440      -0.0060      56.6480      21.9880    -999.2500      66.8530      49.9400      48.6610       0.0808       3.4090       2.7280
