#------------------------------------------------------------------------------
#
#   Created by  : [OpenWorks] Log Export Utility (LEXP)
#   Created on  : 2016-05-23 11:50:37
#   Project     : CANT971
#   User        : R5K
#   Interpreter : PEP
#
#------------------------------------------------------------------------------
~VERSION INFORMATION
VERS. 2.0 : CWLS Log ASCII Standard - version 2.0
WRAP.  NO : One line per depth step
~WELL INFORMATION
#MNEMONIC   .UNIT                                           VALUE :DESCRIPTION
#------------------------------------------------------------------------------
STRT        .M                                           690.6770 :START DEPTH
STOP        .M                                          3400.6538 :STOP DEPTH
STEP        .M                                             0.1524 :STEP
NULL        .                                           -999.2500 :NULL VALUE
COMP        .                                   PEMEX EXPL & PROD :COMPANY
WELL        .                                                1024 :WELL
FLD         .                                           CANTARELL :FIELD
LOC         .                                             UNKNOWN :LOCATION
CNTY        .                                      CD. DEL CARMEN :COUNTY
STAT        .                                            CAMPECHE :STATE
CTRY        .                                              MEXICO :COUNTRY
SRVC        .                                             UNKNOWN :SERVICE COMPANY
DATE        .                                             UNKNOWN :LOG DATE
UWI         .                                          3060000490 :UNIQUE WELL ID
XCOORD      .                                       596162.640000 :SURFACE X
YCOORD      .                                      2150611.280000 :SURFACE Y
LAT         .                                           19.448767 :LATITUDE
LON         .                                          -92.083900 :LONGITUDE
ELEV        .M                                            30.0000 :SURFACE ELEV
ELEV_TYPE   .                                                  KB :ELEV TYPE
~CURVE INFORMATION
#MNEMONIC.UNIT        API CODE       : CURVE DESCRIPTION
#------------------------------------------------------------------------------
DEPTH    .M                          : Measured Depth
CALI     .inches      UNKNOWN        : CALI:registros:rC:NONE:v0 (auto-composite)
DRHO     .g/cm3       UNKNOWN        : DRHO:registros:rC:NONE:v0 (auto-composite)
DT       .us/ft       UNKNOWN        : DT:registros:rC:NONE:v0 (auto-composite)
GR       .API         UNKNOWN        : GR:registros:rC:NONE:v0 (auto-composite)
ILD      .ohm.m       UNKNOWN        : ILD:registros:rC:NONE:v0 (auto-composite)
ILM      .ohm.m       UNKNOWN        : ILM:registros:rC:NONE:v0 (auto-composite)
LLD      .ohm.m       UNKNOWN        : LLD:registros:rC:NONE:v0 (auto-composite)
LLS      .ohm.m       UNKNOWN        : LLS:registros:rC:NONE:v0 (auto-composite)
MSFL     .ohm.m       UNKNOWN        : MSFL:registros:rC:NONE:v0 (auto-composite)
NPHI     .v/v_decimal UNKNOWN        : NPHI:registros:rC:NONE:v0 (auto-composite)
PEF      .b/elec      UNKNOWN        : PEF:registros:rC:NONE:v0 (auto-composite)
RHOB     .g/cm3       UNKNOWN        : RHOB:registros:rC:NONE:v0 (auto-composite)
~A     DEPTH         CALI         DRHO           DT           GR          ILD          ILM          LLD          LLS         MSFL         NPHI          PEF         RHOB
# ...
   3309.5186       8.3440      -0.0020      55.4580      39.2740    -999.2500    -999.2500    1101.3580     763.9900     223.7420       0.0825       3.6690       2.7280
   3309.6709       8.3440      -0.0080      55.7869      39.7590    -999.2500    -999.2500     967.4656     681.6125     223.3259       0.0874       3.6445       2.7105
   3309.8235       8.3440      -0.0140      56.1170      40.2410    -999.2500    -999.2500     833.1110     599.2150     222.9090       0.0939       3.6200       2.6930
   3309.9758       8.3735      -0.0135      56.9335      45.2817    -999.2500    -999.2500     677.3968     446.0343     216.7516       0.1030       3.5146       2.6535
   3310.1282       8.4030      -0.0130      57.7530      50.2920    -999.2500    -999.2500     521.1250     292.7970     210.5820       0.1108       3.4090       2.6140
   3310.2805       8.4000      -0.0115      59.2749      50.1411    -999.2500    -999.2500     427.3709     292.7995     193.7482       0.1127       3.3571       2.6180
   3310.4331       8.3970      -0.0100      60.8000      49.9910    -999.2500    -999.2500     333.4200     292.8020     176.8790       0.1125       3.3050       2.6220
   3310.5854       8.3810      -0.0050      60.7555      48.7233    -999.2500    -999.2500     340.8477     301.5268     171.6758       0.1117       3.2591       2.6420
   3310.7378       8.3650       0.0000      60.7110      47.4630    -999.2500    -999.2500     348.2920     310.2570     166.4610       0.1103       3.2130       2.6620
   3310.8901       8.3800       0.0050      60.3384      44.3337    -999.2500    -999.2500     382.0213     364.1414     199.8238       0.1075       3.2085       2.6855
   3311.0425       8.3950       0.0100      59.9650      41.2270    -999.2500    -999.2500     415.8300     418.0660     233.2650       0.1043       3.2040       2.7090
   3311.1951       8.3930       0.0095      59.0946      41.3605    -999.2500    -999.2500     427.8246     417.5787     232.0011       0.1017       3.1785       2.7060
   3311.3474       8.3910       0.0090      58.2220      41.4930    -999.2500    -999.2500     439.8490     417.0910     230.7340       0.0994       3.1530       2.7030
   3311.4998       8.3635       0.0085      57.7077      43.6345    -999.2500    -999.2500     463.0204     424.2284     201.2124       0.0978       3.1580       2.6905
   3311.6521       8.3360       0.0080      57.1920      45.7610    -999.2500    -999.2500     486.2520     431.3730     171.6140       0.0964       3.1630       2.6780
   3311.8047       8.3390       0.0085      56.5703      45.6727    -999.2500    -999.2500     469.6946     420.4931     203.0761       0.0947       3.2324       2.6885
   3311.9570       8.3420       0.0090      55.9470      45.5850    -999.2500    -999.2500     453.0920     409.6010     234.6240       0.0926       3.3020       2.6990
   3312.1094       8.3640       0.0060      55.4877      44.5008    -999.2500    -999.2500     383.1793     364.5406     231.0791       0.0898       3.3005       2.6940
   3312.2617       8.3860       0.0030      55.0270      43.4240    -999.2500    -999.2500     313.0670     319.4240     227.5240       0.0862       3.2990       2.6890
   3312.4143       8.3580       0.0040      54.6396      39.5030    -999.2500    -999.2500     339.8161     342.2878     183.9275       0.0815       3.2551       2.6910
   3312.5667       8.3300       0.0050      54.2510      35.6080    -999.2500    -999.2500     366.6450     365.1830     140.2710       0.0762       3.2110       2.6930
   3312.7190       8.3325       0.0110      52.8572      29.3241    -999.2500    -999.2500     550.8748     517.9423     146.6702       0.0699       3.2125       2.7015
   3312.8713       8.3350       0.0170      51.4590      23.0810    -999.2500    -999.2500     735.6770     670.6860     153.0790       0.0639       3.2140       2.7100
   3313.0237       8.3575       0.0165      51.4760      23.6272    -999.2500    -999.2500    1103.3829     993.0463     251.9336       0.0592       3.2719       2.7185
   3313.1763       8.3800       0.0160      51.4930      24.1700    -999.2500    -999.2500    1472.2770    1315.4139     350.9490       0.0560       3.3300       2.7270
   3313.3286       8.3755       0.0140      51.7760      26.8062    -999.2500    -999.2500    1446.5277    1293.4341     348.4422       0.0556       3.3160       2.7425
   3313.4810       8.3710       0.0120      52.0600      29.4260    -999.2500    -999.2500    1420.6920    1271.4510     345.9310       0.0569       3.3020       2.7580
   3313.6333       8.3500       0.0080      53.0787      32.5139    -999.2500    -999.2500    1293.9397    1161.9590     276.0651       0.0598       3.3115       2.7545
   3313.7859       8.3290       0.0040      54.1010      35.5830    -999.2500    -999.2500    1166.7460    1052.4370     206.0680       0.0634       3.3210       2.7510
   3313.9382       8.3385       0.0040      55.0907      39.8142    -999.2500    -999.2500     983.2019     887.5880     208.3202       0.0677       3.4519       2.7370
   3314.0906       8.3480       0.0040      56.0840      44.0200    -999.2500    -999.2500     798.9950     722.6730     210.5770       0.0716       3.5830       2.7230
   3314.2429       8.3895       0.0050      56.0480      44.0014    -999.2500    -999.2500     803.0507     725.6332     196.0750       0.0735       3.5815       2.7130
   3314.3955       8.4310       0.0060      56.0120      43.9830    -999.2500    -999.2500     807.1150     728.5950     181.5420       0.0748       3.5800       2.7030
   3314.5479       8.4215       0.0085      55.6924      43.7298    -999.2500    -999.2500     831.6948     748.4680     184.1336       0.0760       3.5515       2.7035
   3314.7002       8.4120       0.0110      55.3720      43.4780    -999.2500    -999.2500     856.3300     768.3540     186.7310       0.0773       3.5230       2.7040
   3314.8525       8.3725       0.0155      55.3980      42.4909    -999.2500    -999.2500     913.5458     821.4169     225.4079       0.0791       3.3802       2.7050
   3315.0049       8.3330       0.0200      55.4240      41.5110    -999.2500    -999.2500     970.8980     874.5210     264.1770       0.0809       3.2370       2.7060
   3315.1575       8.3685       0.0195      55.8140      40.0323    -999.2500    -999.2500    1120.8496    1013.9341     264.1335       0.0817       3.2385       2.7065
   3315.3098       8.4040       0.0190      56.2050      38.5640    -999.2500    -999.2500    1271.1770    1153.4730     264.0900       0.0824       3.2400       2.7070
   3315.4622       8.3995       0.0185      57.4683      37.1114    -999.2500    -999.2500    1263.0312    1144.9808     259.8880       0.0837       3.2525       2.7120
   3315.6145       8.3950       0.0180      58.7350      35.6690    -999.2500    -999.2500    1254.8640    1136.4800     255.6750       0.0852       3.2650       2.7170
   3315.7671       8.3586       0.0135      60.0532      33.5999    -999.2500    -999.2500    1195.2183    1078.8313     240.4819       0.0868       3.3005       2.7155
   3315.9194       8.3220       0.0090      61.3750      31.5450    -999.2500    -999.2500    1135.4080    1021.1160     225.2470       0.0883       3.3360       2.7140
   3316.0718       8.3320       0.0100      61.2622      31.6042    -999.2500    -999.2500     981.8316     882.9049     215.1960       0.0898       3.3944       2.7035
   3316.2241       8.3420       0.0110      61.1490      31.6630    -999.2500    -999.2500     827.8120     744.5170     205.1160       0.0917       3.4530       2.6930
   3316.3767       8.3345       0.0110      60.4920      32.4586    -999.2500    -999.2500     839.3292     754.7593     154.9678       0.0947       3.5573       2.6655
   3316.5291       8.3270       0.0110      59.8330      33.2490    -999.2500    -999.2500     850.8810     765.0160     104.7490       0.0974       3.6620       2.6380
   3316.6814       8.3275       0.0100      58.6683      32.9525    -999.2500    -999.2500     917.2873     837.1198     106.9208       0.0979       3.6445       2.6395
