#------------------------------------------------------------------------------
#
#   Created by  : [OpenWorks] Log Export Utility (LEXP)
#   Created on  : 2016-05-12 17:01:14
#   Project     : CANT971
#   User        : R5K
#   Interpreter : PEP
#
#------------------------------------------------------------------------------
~VERSION INFORMATION
VERS. 2.0 : CWLS Log ASCII Standard - version 2.0
WRAP.  NO : One line per depth step
~WELL INFORMATION
#MNEMONIC   .UNIT                                           VALUE :DESCRIPTION
#------------------------------------------------------------------------------
STRT        .M                                          1708.0991 :START DEPTH
STOP        .M                                          2834.0303 :STOP DEPTH
STEP        .M                                             0.1524 :STEP
NULL        .                                           -999.2500 :NULL VALUE
COMP        .                                             UNKNOWN :COMPANY
WELL        .                                                3016 :WELL
FLD         .                                           CANTARELL :FIELD
LOC         .                                             UNKNOWN :LOCATION
CNTY        .                                             UNKNOWN :COUNTY
STAT        .                                            CAMPECHE :STATE
CTRY        .                                              MEXICO :COUNTRY
SRVC        .                                             UNKNOWN :SERVICE COMPANY
DATE        .                                             UNKNOWN :LOG DATE
UWI         .                                                3016 :UNIQUE WELL ID
XCOORD      .                                       192548.498000 :SURFACE X
YCOORD      .                                        92151.948000 :SURFACE Y
LAT         .                                            0.832805 :LATITUDE
LON         .                                          -95.762171 :LONGITUDE
ELEV        .M                                            46.0000 :SURFACE ELEV
ELEV_TYPE   .                                                  KB :ELEV TYPE
~CURVE INFORMATION
#MNEMONIC.UNIT        API CODE       : CURVE DESCRIPTION
#------------------------------------------------------------------------------
DEPTH    .M                          : Measured Depth
CALI     .inches      UNKNOWN        : CALI:litodensidad:rC:NONE:v0 (auto-composite)
CGR      .API         UNKNOWN        : CGR:Espectrometria:rC:NONE:v0 (auto-composite)
DRHO     .g/cm3       UNKNOWN        : DRHO:litodensidad:rC:NONE:v0 (auto-composite)
DT       .us/ft       UNKNOWN        : DT:DT-Load:rC:NONE:v0 (auto-composite)
GR       .API         UNKNOWN        : GR:PETROWORKS:rC:NONE:v1 
GR-LWD   .API         UNKNOWN        : GR-LWD:PETROWORKS:rC:NONE:v1 
ILD-LWD  .ohm.m       UNKNOWN        : ILD-LWD:PETROWORKS:rC:NONE:v1 
ILM-LWD  .ohm.m       UNKNOWN        : ILM-LWD:PETROWORKS:rC:NONE:v1 
LLD      .ohm.m       UNKNOWN        : LLD:Resistivos:rC:NONE:v0 (auto-composite)
LLS      .ohm.m       UNKNOWN        : LLS:Resistivos:rC:NONE:v0 (auto-composite)
MSFL     .ohm.m       UNKNOWN        : MSFL:Resistivos:rC:NONE:v0 (auto-composite)
NPHI     .v/v_decimal UNKNOWN        : NPHI:Porosidad:rC:NONE:v0 (auto-composite)
PEF      .UNKNOWN     UNKNOWN        : PEF:litodensidad:rC:NONE:v0 (auto-composite)
POTA     .wtpercent   UNKNOWN        : POTA:Espectrometria:rC:NONE:v0 (auto-composite)
RHOB     .g/cm3       UNKNOWN        : RHOB:litodensidad:rC:NONE:v0 (auto-composite)
SP       .mV          UNKNOWN        : SP:SP-Load:rC:NONE:v0 (auto-composite)
THOR     .ppm         UNKNOWN        : THOR:Espectrometria:rC:NONE:v0 (auto-composite)
URAN     .ppm         UNKNOWN        : URAN:Espectrometria:rC:NONE:v0 (auto-composite)
~A     DEPTH         CALI          CGR         DRHO           DT           GR       GR-LWD      ILD-LWD      ILM-LWD          LLD          LLS         MSFL         NPHI          PEF         POTA         RHOB           SP         THOR         URAN
# ...
   2482.5959    -999.2500       7.9051    -999.2500    -999.2500      24.1640      31.5500      67.8714      63.3945    -999.2500    -999.2500    -999.2500       0.1263    -999.2500       0.0025    -999.2500    -233.1250       1.0949       2.1590
   2482.7483    -999.2500       6.3991    -999.2500    -999.2500      20.5322      28.4929      75.3017      71.6035    -999.2500    -999.2500    -999.2500       0.1252    -999.2500       0.0018    -999.2500    -233.8125       1.0153       1.8698
   2482.9006    -999.2500       6.4846    -999.2500    -999.2500      19.4035      24.9423      73.5288      72.6684    -999.2500    -999.2500    -999.2500       0.1199    -999.2500       0.0016    -999.2500    -233.8125       1.1515       1.7103
   2483.0532    -999.2500       5.6865    -999.2500    -999.2500      17.4923      21.3333      81.6507      82.3131    -999.2500    -999.2500    -999.2500       0.1088    -999.2500       0.0013    -999.2500    -233.5000       1.0634       1.5500
   2483.2056    -999.2500       5.2314    -999.2500    -999.2500      18.0300      18.5196      96.8291      97.4187    -999.2500    -999.2500    -999.2500       0.0995    -999.2500       0.0011    -999.2500    -232.3750       1.0503       1.7188
   2483.3579    -999.2500       4.4359    -999.2500    -999.2500      17.4846      17.4495     101.0035     102.1364    -999.2500    -999.2500    -999.2500       0.0976    -999.2500       0.0009    -999.2500    -233.3125       0.9200       1.7035
   2483.5103    -999.2500       4.2621    -999.2500    -999.2500      17.1297      17.2814      95.1357     101.7080    -999.2500    -999.2500    -999.2500       0.0995    -999.2500       0.0013    -999.2500    -233.3125       0.6191       1.6682
   2483.6628    -999.2500       3.7953    -999.2500    -999.2500      15.3954      18.9432      93.4876      96.8486    -999.2500    -999.2500    -999.2500       0.0944    -999.2500       0.0010    -999.2500    -233.7500       0.6149       1.4946
   2483.8152    -999.2500       3.9178    -999.2500    -999.2500      13.7956      20.0059      90.3882      98.1390    -999.2500    -999.2500    -999.2500       0.0940    -999.2500       0.0011    -999.2500    -233.6875       0.6448       1.2680
   2483.9675    -999.2500       4.4258    -999.2500    -999.2500      14.7889      19.5926      72.3196      79.1762    -999.2500    -999.2500    -999.2500       0.0923    -999.2500       0.0014    -999.2500    -233.1875       0.5807       1.3593
   2484.1199    -999.2500       3.7184    -999.2500    -999.2500      15.1787      18.6778      67.5188      74.8180    -999.2500    -999.2500    -999.2500       0.0987    -999.2500       0.0012    -999.2500    -233.4375       0.5034       1.5621
   2484.2722    -999.2500       3.7360    -999.2500    -999.2500      17.1968      18.8088      56.5813      61.3399    -999.2500    -999.2500    -999.2500       0.1021    -999.2500       0.0013    -999.2500    -233.8125       0.4474       1.8512
   2484.4248    -999.2500       5.0959    -999.2500    -999.2500      19.4840      23.8883      41.8629      44.4332    -999.2500    -999.2500    -999.2500       0.1145    -999.2500       0.0021    -999.2500    -234.6250       0.4014       1.9798
   2484.5771    -999.2500       5.5844    -999.2500    -999.2500      23.9946      31.2672      38.5049      41.0356    -999.2500    -999.2500    -999.2500       0.1372    -999.2500       0.0023    -999.2500    -234.1250       0.4262       2.5782
   2484.7295    -999.2500       8.5602    -999.2500    -999.2500      28.1978      38.4762      27.5538      28.5967    -999.2500    -999.2500    -999.2500       0.1769    -999.2500       0.0032    -999.2500    -233.8125       0.8812       2.7615
   2484.8818    -999.2500      10.6507    -999.2500    -999.2500      32.1355      43.2458      19.9493      19.8829    -999.2500    -999.2500    -999.2500       0.2031    -999.2500       0.0041    -999.2500    -233.8125       1.0483       3.0398
   2485.0344    -999.2500      12.2573    -999.2500    -999.2500      36.3666      48.0543      15.2613      14.8124    -999.2500    -999.2500    -999.2500       0.2241    -999.2500       0.0049    -999.2500    -234.1250       1.0587       3.4277
   2485.1868    -999.2500      14.2421    -999.2500    -999.2500      40.3542      54.3797      13.1761      12.6903    -999.2500    -999.2500    -999.2500       0.2310    -999.2500       0.0054    -999.2500    -235.7500       1.4029       3.7414
   2485.3391    -999.2500      14.2998    -999.2500    -999.2500      39.6505      57.7398      11.6209      10.9813    -999.2500    -999.2500    -999.2500       0.2588    -999.2500       0.0058    -999.2500    -235.1875       1.2087       3.5673
   2485.4915    -999.2500      12.9724    -999.2500      55.0663      36.2732      55.6774       9.9993       9.3535    -999.2500    -999.2500    -999.2500       0.2636    -999.2500       0.0056    -999.2500    -235.5000       0.8880       3.2290
   2485.6440    -999.2500      11.8978    -999.2500      55.0663      32.1189    -999.2500       9.3316       8.7523    -999.2500    -999.2500    -999.2500       0.2579    -999.2500       0.0051    -999.2500    -237.3125       0.8571       2.7516
   2485.7964    -999.2500      12.7495    -999.2500      55.0663      31.1923    -999.2500       8.7759       8.4462    -999.2500    -999.2500    -999.2500       0.2256    -999.2500       0.0052    -999.2500    -234.1875       1.0734       2.4789
   2485.9487    -999.2500      13.1180    -999.2500      55.0663      32.6693    -999.2500       8.1363       7.7762    -999.2500    -999.2500    -999.2500       0.2334    -999.2500       0.0053    -999.2500    -233.6250       1.0998       2.6903
   2486.1011    -999.2500      12.8954    -999.2500      55.0663      33.9408    -999.2500       7.5405       7.1800    -999.2500    -999.2500    -999.2500       0.2455    -999.2500       0.0051    -999.2500    -225.6250       1.1767       2.9646
   2486.2534    -999.2500      13.6636    -999.2500      55.0663      33.8851    -999.2500       6.6989       6.2970    -999.2500    -999.2500    -999.2500       0.2646    -999.2500       0.0054    -999.2500    -224.0000       1.2357       2.8851
   2486.4060    -999.2500      12.7076    -999.2500      55.0663      33.7298    -999.2500       6.2099       5.8824    -999.2500    -999.2500    -999.2500       0.2692    -999.2500       0.0051    -999.2500    -224.2500       1.0814       2.9798
   2486.5583    -999.2500      14.2199    -999.2500      55.0663      36.7643    -999.2500       5.9198       5.6437    -999.2500    -999.2500    -999.2500       0.2864    -999.2500       0.0056    -999.2500    -224.2500       1.2802       3.2040
   2486.7107    -999.2500      15.7519    -999.2500      55.0663      41.0745    -999.2500       5.6487       5.4893    -999.2500    -999.2500    -999.2500       0.3188    -999.2500       0.0059    -999.2500    -232.6875       1.5890       3.6803
   2486.8630    -999.2500      15.9972    -999.2500      55.0663      44.5994    -999.2500       5.4361       5.2550    -999.2500    -999.2500    -999.2500       0.3294    -999.2500       0.0061    -999.2500    -233.8125       1.5884       4.1356
   2487.0156    -999.2500      14.6236    -999.2500      55.0663      44.6373    -999.2500       5.1092       4.9560    -999.2500    -999.2500    -999.2500       0.3441    -999.2500       0.0053    -999.2500    -234.3750       1.6054       4.3887
   2487.1680    -999.2500      13.2417    -999.2500      55.0663      41.6821    -999.2500       4.5023       4.3378    -999.2500    -999.2500    -999.2500       0.3517    -999.2500       0.0047    -999.2500    -236.8750       1.5328       4.1558
   2487.3203    -999.2500      12.9157    -999.2500      55.0663      39.8522    -999.2500       4.1937       4.0871    -999.2500    -999.2500    -999.2500       0.3959    -999.2500       0.0045    -999.2500    -234.3750       1.5463       3.9035
   2487.4727    -999.2500      11.3914    -999.2500      55.0663      39.2207    -999.2500       4.1148       4.0155    -999.2500    -999.2500    -999.2500       0.4407    -999.2500       0.0039    -999.2500    -234.5625       1.3858       4.0283
