#------------------------------------------------------------------------------
#
#   Created by  : [OpenWorks] Log Export Utility (LEXP)
#   Created on  : 2016-05-23 11:52:51
#   Project     : CANT971
#   User        : R5K
#   Interpreter : PEP
#
#------------------------------------------------------------------------------
~VERSION INFORMATION
VERS. 2.0 : CWLS Log ASCII Standard - version 2.0
WRAP.  NO : One line per depth step
~WELL INFORMATION
#MNEMONIC   .UNIT                                           VALUE :DESCRIPTION
#------------------------------------------------------------------------------
STRT        .M                                           691.4386 :START DEPTH
STOP        .M                                          2836.4685 :STOP DEPTH
STEP        .M                                             0.1524 :STEP
NULL        .                                           -999.2500 :NULL VALUE
COMP        .                                   PEMEX EXPL & PROD :COMPANY
WELL        .                                                2094 :WELL
FLD         .                                           CANTARELL :FIELD
LOC         .                                             UNKNOWN :LOCATION
CNTY        .                                      CD. DEL CARMEN :COUNTY
STAT        .                                            CAMPECHE :STATE
CTRY        .                                              MEXICO :COUNTRY
SRVC        .                                             UNKNOWN :SERVICE COMPANY
DATE        .                                             UNKNOWN :LOG DATE
UWI         .                                          3060000525 :UNIQUE WELL ID
XCOORD      .                                       601711.170000 :SURFACE X
YCOORD      .                                      2142342.970000 :SURFACE Y
LAT         .                                           19.373776 :LATITUDE
LON         .                                          -92.031490 :LONGITUDE
ELEV        .M                                            24.0000 :SURFACE ELEV
ELEV_TYPE   .                                                  KB :ELEV TYPE
~CURVE INFORMATION
#MNEMONIC.UNIT        API CODE       : CURVE DESCRIPTION
#------------------------------------------------------------------------------
DEPTH    .M                          : Measured Depth
CALI     .in          UNKNOWN        : CALI:registros:rC:NONE:v0 (auto-composite)
DRHO     .g/cm3       UNKNOWN        : DRHO:registros:rC:NONE:v0 (auto-composite)
DT       .us/ft       UNKNOWN        : DT:registros:rC:NONE:v0 (auto-composite)
GR       .API         UNKNOWN        : GR:registros:rC:NONE:v0 (auto-composite)
ILD      .ohm.m       UNKNOWN        : ILD:registros:rC:NONE:v0 (auto-composite)
ILM      .ohm.m       UNKNOWN        : ILM:registros:rC:NONE:v0 (auto-composite)
LLD      .ohm.m       UNKNOWN        : LLD:registros:rC:NONE:v0 (auto-composite)
LLS      .ohm.m       UNKNOWN        : LLS:registros:rC:NONE:v0 (auto-composite)
MSFL     .ohm.m       UNKNOWN        : MSFL:registros:rC:NONE:v0 (auto-composite)
NPHI     .v/v_decimal UNKNOWN        : NPHI:registros:rC:NONE:v0 (auto-composite)
PEF      .b/elec      UNKNOWN        : PEF:registros:rC:NONE:v0 (auto-composite)
RHOB     .g/cm3       UNKNOWN        : RHOB:registros:rC:NONE:v0 (auto-composite)
~A     DEPTH         CALI         DRHO           DT           GR          ILD          ILM          LLD          LLS         MSFL         NPHI          PEF         RHOB
# ...
   2205.6851       9.2118       0.0790      68.8828      47.1210    -999.2500    -999.2500       5.7271       5.3359       7.3961       0.3009       3.7635       2.0628
   2205.8374       9.4477       0.1058      78.6845      48.2500    -999.2500    -999.2500       5.7660       5.3110       7.0650       0.2879       3.6348       2.0926
   2205.9897       9.9610       0.1005      84.6757      46.9214    -999.2500    -999.2500       5.6540       5.2302       6.2238       0.2703       3.5442       2.0162
   2206.1421      10.4907       0.0924      90.4281      45.6020    -999.2500    -999.2500       5.5430       5.1500       5.3870       0.2594       3.4459       1.9294
   2206.2947      10.8860       0.0880      97.9007      44.0773    -999.2500    -999.2500       5.3391       5.5356       7.4741       0.2663       3.2316       1.8457
   2206.4470      11.3761       0.0847     104.0600      42.5630    -999.2500    -999.2500       5.1370       5.9180       9.5470       0.2691       3.0557       1.7765
   2206.5994      13.0141       0.0890      94.8928      45.6196    -999.2500    -999.2500       5.5306       5.7493       8.7524       0.2460       3.4196       1.8613
   2206.7517      14.6216       0.0930      85.0905      48.6560    -999.2500    -999.2500       5.9210       5.5820       7.9630       0.2196       3.7898       1.9607
   2206.9043      14.6917       0.0865      83.2395      48.4970    -999.2500    -999.2500       5.8151       5.5860       7.9871       0.2127       3.6651       2.0581
   2207.0566      14.5753       0.0796      81.9989      48.3390    -999.2500    -999.2500       5.7100       5.5900       8.0110       0.2234       3.5065       2.1516
   2207.2090      14.0010       0.0795      79.2375      46.9802    -999.2500    -999.2500       6.0694       5.6462       9.4416       0.2496       3.4935       2.1984
   2207.3613      13.4093       0.0808      76.5808      45.6300    -999.2500    -999.2500       6.4260       5.7020      10.8630       0.2750       3.4946       2.2457
   2207.5139      13.1110       0.0915      76.4788      44.0832    -999.2500    -999.2500       6.6353       6.4299      10.8605       0.2830       3.5030       2.3468
   2207.6663      12.7584       0.1021      76.9121      42.5460    -999.2500    -999.2500       6.8430       7.1520      10.8580       0.2777       3.5161       2.4460
   2207.8186      11.4762       0.1030      80.8407      38.6565    -999.2500    -999.2500       7.3138       7.5094      10.7687       0.2630       3.5768       2.4675
   2207.9709      10.1836       0.1029      84.9323      34.7970    -999.2500    -999.2500       7.7810       7.8640      10.6800       0.2505       3.6412       2.4813
   2208.1233       9.7818       0.1015      87.7048      36.3890    -999.2500    -999.2500       7.5541       8.0904      10.5311       0.2521       3.6968       2.4875
   2208.2759       9.4956       0.0976      90.0846      37.9690    -999.2500    -999.2500       7.3290       8.3150      10.3830       0.2577       3.7592       2.4846
   2208.4282       9.6595       0.0660      89.3644      37.4280    -999.2500    -999.2500       7.0023       8.4560       8.1951       0.2572       3.9071       2.3838
   2208.5806       9.8413       0.0345      88.1741      36.8910    -999.2500    -999.2500       6.6780       8.5960       6.0200       0.2476       4.0620       2.2828
   2208.7329       9.7647       0.0330      84.4318      37.9730    -999.2500    -999.2500       7.4820       8.9874       6.4878       0.2260       4.2082       2.2865
   2208.8855       9.6499       0.0342      80.8689      39.0470    -999.2500    -999.2500       8.2800       9.3760       6.9530       0.2066       4.3429       2.3040
   2209.0378       9.3360       0.0385      81.7768      36.0597    -999.2500    -999.2500       9.8883      11.1253      15.9784       0.2039       4.3440       2.3832
   2209.1902       9.0275       0.0431      82.6780      33.0940    -999.2500    -999.2500      11.4850      12.8620      24.9530       0.2164       4.3171       2.4616
   2209.3425       9.0065       0.0485      78.9677      33.1050    -999.2500    -999.2500      11.1719      12.5835      22.5188       0.2429       4.0802       2.4620
   2209.4951       9.0125       0.0538      75.1936      33.1160    -999.2500    -999.2500      10.8610      12.3070      20.0980       0.2672       3.8433       2.4566
   2209.6475       9.0643       0.0560      75.1039      33.2986    -999.2500    -999.2500       7.9157       9.4234      20.3261       0.2733       3.8350       2.4580
   2209.7998       9.1354       0.0589      75.4981      33.4800    -999.2500    -999.2500       4.9910       6.5600      20.5530       0.2599       3.8543       2.4616
   2209.9521       9.4089       0.0735      78.3883      33.9210    -999.2500    -999.2500       4.5687       5.5362      24.6964       0.2256       3.9952       2.4865
   2210.1045       9.6702       0.0891      81.4585      34.3590    -999.2500    -999.2500       4.1500       4.5210      28.8180       0.1947       4.1242       2.5127
   2210.2571       9.5569       0.1065      84.6813      33.8769    -999.2500    -999.2500       3.9698       4.3583      18.4451       0.1921       3.9676       2.5350
   2210.4094       9.4276       0.1235      87.8157      33.3980    -999.2500    -999.2500       3.7910       4.1970       8.1420       0.2111       3.8096       2.5515
   2210.5618       9.4788       0.1345      89.8541      33.6137    -999.2500    -999.2500       6.2516       6.7284      10.5710       0.2455       3.9386       2.4947
   2210.7141       9.5451       0.1452      91.4446      33.8280    -999.2500    -999.2500       8.6920       9.2390      12.9840       0.2856       4.0689       2.4323
   2210.8667       9.6293       0.1590      88.1398      34.8237    -999.2500    -999.2500       8.4445       9.7737      15.7199       0.3216       3.9105       2.3717
   2211.0190       9.7051       0.1715      84.7363      35.8130    -999.2500    -999.2500       8.1990      10.3040      18.4380       0.3363       3.7436       2.3169
   2211.1714       9.6432       0.1640      84.6002      34.7227    -999.2500    -999.2500       8.4364      10.2799      17.1429       0.3120       3.7644       2.3444
   2211.3237       9.5629       0.1539      84.6892      33.6410    -999.2500    -999.2500       8.6720      10.2560      15.8560       0.2653       3.7987       2.3831
   2211.4763       9.3660       0.1275      84.6248      33.9301    -999.2500    -999.2500       8.4928       9.9433      15.0811       0.2119       3.8294       2.4957
   2211.6287       9.1761       0.0989      84.6396      34.2170    -999.2500    -999.2500       8.3150       9.6330      14.3110       0.1847       3.8317       2.6026
   2211.7810       9.2183       0.0546      85.9534      35.3474    -999.2500    -999.2500       8.0063       9.4889      13.7533       0.2171       3.4130       2.5437
   2211.9333       9.2736       0.0111      87.1437      36.4690    -999.2500    -999.2500       7.7000       9.3460      13.1990       0.2624       2.9923       2.4731
   2212.0857       9.2800      -0.0010      85.2511      34.7906    -999.2500    -999.2500       9.5174      11.2557      14.2968       0.2738       2.9855       2.4017
   2212.2383       9.2847      -0.0107      83.1993      33.1250    -999.2500    -999.2500      11.3210      13.1510      15.3880       0.2562       3.0189       2.3333
   2212.3906       9.3154      -0.0165      81.6545      33.2349    -999.2500    -999.2500      12.9290      14.6641      42.3118       0.2132       3.2349       2.3135
   2212.5430       9.3413      -0.0210      80.3457      33.3440    -999.2500    -999.2500      14.5250      16.1660      69.0780       0.1659       3.4692       2.2986
   2212.6953       9.2642      -0.0105      82.0693      35.8130    -999.2500    -999.2500      13.3703      14.9214      44.6304       0.1348       3.7886       2.3080
   2212.8479       9.1837       0.0019      83.9481      38.2640    -999.2500    -999.2500      12.2240      13.6860      20.3230       0.1311       4.0839       2.3175
