#------------------------------------------------------------------------------
#
#   Created by  : [OpenWorks] Log Export Utility (LEXP)
#   Created on  : 2016-05-23 11:56:01
#   Project     : CANT971
#   User        : R5K
#   Interpreter : PEP
#
#------------------------------------------------------------------------------
~VERSION INFORMATION
VERS. 2.0 : CWLS Log ASCII Standard - version 2.0
WRAP.  NO : One line per depth step
~WELL INFORMATION
#MNEMONIC   .UNIT                                           VALUE :DESCRIPTION
#------------------------------------------------------------------------------
STRT        .M                                          1572.0055 :START DEPTH
STOP        .M                                          3732.1230 :STOP DEPTH
STEP        .M                                             0.1524 :STEP
NULL        .                                           -999.2500 :NULL VALUE
COMP        .                                             UNKNOWN :COMPANY
WELL        .                                               428-V :WELL
FLD         .                                             UNKNOWN :FIELD
LOC         .                                             UNKNOWN :LOCATION
CNTY        .                                             UNKNOWN :COUNTY
STAT        .                                             UNKNOWN :STATE
CTRY        .                                             UNKNOWN :COUNTRY
SRVC        .                                             UNKNOWN :SERVICE COMPANY
DATE        .                                             UNKNOWN :LOG DATE
UWI         .                                               428-V :UNIQUE WELL ID
XCOORD      .                                            0.000000 :SURFACE X
YCOORD      .                                            0.000000 :SURFACE Y
LAT         .                                            0.000000 :LATITUDE
LON         .                                            0.000000 :LONGITUDE
ELEV        .M                                             0.0000 :SURFACE ELEV
ELEV_TYPE   .                                                  KB :ELEV TYPE
~CURVE INFORMATION
#MNEMONIC .UNIT        API CODE       : CURVE DESCRIPTION
#------------------------------------------------------------------------------
DEPTH     .M                          : Measured Depth
CALIH-LWD .inches      UNKNOWN        : CALIH-LWD:PETROWORKS:rC:NONE:v5 
CALIV-LWD .inches      UNKNOWN        : CALIV-LWD:PETROWORKS:rC:NONE:v5 
CGR       .API         UNKNOWN        : CGR:Espectrometria:rC:NONE:v0 (auto-composite)
DRHO-LWD  .g/cm3       UNKNOWN        : DRHO-LWD:PETROWORKS:rC:NONE:v5 
DT        .us/ft       UNKNOWN        : DT:sonico:rC:NONE:v0 (auto-composite)
GR        .API         UNKNOWN        : GR:Espectrometria:rC:NONE:v0 (auto-composite)
GR-LWD    .API         UNKNOWN        : GR-LWD:PETROWORKS:rC:NONE:v3 
ILD-LWD   .ohm.m       UNKNOWN        : ILD-LWD:PETROWORKS:rC:NONE:v2 
ILM-LWD   .ohm.m       UNKNOWN        : ILM-LWD:PETROWORKS:rC:NONE:v2 
LLD-LWD   .ohm.m       UNKNOWN        : LLD-LWD:registros-LWD:rC:NONE:v0 (auto-composite)
LLS-LWD   .ohm.m       UNKNOWN        : LLS-LWD:registros-LWD:rC:NONE:v0 (auto-composite)
MSFL-LWD  .ohm.m       UNKNOWN        : MSFL-LWD:registros-LWD:rC:NONE:v0 (auto-composite)
NPHI-LWD  .v/v_decimal UNKNOWN        : NPHI-LWD:PETROWORKS:rC:NONE:v5 
PEF-LWD   .b/elec      UNKNOWN        : PEF-LWD:PETROWORKS:rC:NONE:v5 
POTA      .wtpercent   UNKNOWN        : POTA:Espectrometria:rC:NONE:v0 (auto-composite)
RHOB-LWD  .g/cm3       UNKNOWN        : RHOB-LWD:PETROWORKS:rC:NONE:v5 
THOR      .UNKNOWN     UNKNOWN        : THOR:Espectrometria:rC:NONE:v0 (auto-composite)
URAN      .UNKNOWN     UNKNOWN        : URAN:Espectrometria:rC:NONE:v0 (auto-composite)
~A     DEPTH    CALIH-LWD    CALIV-LWD          CGR     DRHO-LWD           DT           GR       GR-LWD      ILD-LWD      ILM-LWD      LLD-LWD      LLS-LWD     MSFL-LWD     NPHI-LWD      PEF-LWD         POTA     RHOB-LWD         THOR         URAN
# ...
   3719.4739       6.4644       6.4136    -999.2500       0.1948      51.9278    -999.2500      25.8593      63.4239      59.6291    -999.2500    -999.2500    -999.2500       0.0719       2.6918    -999.2500       2.6996    -999.2500    -999.2500
   3719.6262       6.3766       6.3077    -999.2500       0.1703      51.8478    -999.2500      26.0813      63.9304      61.0787    -999.2500    -999.2500    -999.2500       0.0724       2.8044    -999.2500       2.7120    -999.2500    -999.2500
   3719.7788       6.3425       6.3105    -999.2500       0.1539      51.7947    -999.2500      27.2200      64.2021      61.6409    -999.2500    -999.2500    -999.2500       0.0703       2.8894    -999.2500       2.7259    -999.2500    -999.2500
   3719.9312       6.3626       6.3947    -999.2500       0.1506      51.7856    -999.2500      28.1132      63.9771      62.0724    -999.2500    -999.2500    -999.2500       0.0667       2.8787    -999.2500       2.7350    -999.2500    -999.2500
   3720.0835       6.3344       6.4335    -999.2500       0.1448      51.7975    -999.2500      28.5780      61.1194      61.0356    -999.2500    -999.2500    -999.2500       0.0639       2.8660    -999.2500       2.7286    -999.2500    -999.2500
   3720.2358       6.2747       6.4045    -999.2500       0.1400      51.8136    -999.2500      29.5380      59.6027      59.6587    -999.2500    -999.2500    -999.2500       0.0637       2.9078    -999.2500       2.7268    -999.2500    -999.2500
   3720.3882       6.2532       6.3755    -999.2500       0.1414      51.8298    -999.2500      30.6319      58.0517      57.5867    -999.2500    -999.2500    -999.2500       0.0650       2.9482    -999.2500       2.7352    -999.2500    -999.2500
   3720.5408       6.2498       6.3563    -999.2500       0.1441      51.8460    -999.2500      30.4764      57.4829      56.3776    -999.2500    -999.2500    -999.2500       0.0661       2.9747    -999.2500       2.7439    -999.2500    -999.2500
   3720.6931       6.2434       6.3186    -999.2500       0.1456      51.8622    -999.2500      29.5568      58.1711      56.7153    -999.2500    -999.2500    -999.2500       0.0671       2.9895    -999.2500       2.7555    -999.2500    -999.2500
   3720.8455       6.2495       6.2985    -999.2500       0.1481      51.8784    -999.2500      28.3836      58.8620      56.6966    -999.2500    -999.2500    -999.2500       0.0676       2.9954    -999.2500       2.7701    -999.2500    -999.2500
   3720.9978       6.2620       6.2989    -999.2500       0.1566      51.8946    -999.2500      28.4521      56.3349      54.1911    -999.2500    -999.2500    -999.2500       0.0668       2.9730    -999.2500       2.7875    -999.2500    -999.2500
   3721.1504       6.3013       6.3373    -999.2500       0.1688      51.9108    -999.2500      29.0808      54.5767      52.5592    -999.2500    -999.2500    -999.2500       0.0658       2.9215    -999.2500       2.7993    -999.2500    -999.2500
   3721.3027       6.3475       6.3676    -999.2500       0.1711      51.9270    -999.2500      30.1434      52.2913      50.2318    -999.2500    -999.2500    -999.2500       0.0649       2.9015    -999.2500       2.7881    -999.2500    -999.2500
   3721.4551       6.3399       6.3324    -999.2500       0.1645      51.9431    -999.2500      31.5159      49.9391      47.6975    -999.2500    -999.2500    -999.2500       0.0643       2.8519    -999.2500       2.7622    -999.2500    -999.2500
   3721.6074       6.3321       6.3230    -999.2500       0.1557      51.9593    -999.2500      32.8843      50.0238      47.5918    -999.2500    -999.2500    -999.2500       0.0644       2.7488    -999.2500       2.7342    -999.2500    -999.2500
   3721.7600       6.3276       6.3328    -999.2500       0.1498      51.9756    -999.2500      34.5726      49.6829      47.4385    -999.2500    -999.2500    -999.2500       0.0647       2.6912    -999.2500       2.7143    -999.2500    -999.2500
   3721.9124       6.3199       6.3408    -999.2500       0.1452      51.9917    -999.2500      36.0589      49.2327      46.9501    -999.2500    -999.2500    -999.2500       0.0651       2.6583    -999.2500       2.6979    -999.2500    -999.2500
   3722.0647       6.3516       6.4095    -999.2500       0.1481      52.0079    -999.2500      36.7483      48.6161      46.2974    -999.2500    -999.2500    -999.2500       0.0657       2.7483    -999.2500       2.6917    -999.2500    -999.2500
   3722.2170       6.4528       6.5004    -999.2500       0.1638      52.0241    -999.2500      36.8600      46.2460      45.1022    -999.2500    -999.2500    -999.2500       0.0672       2.9200    -999.2500       2.7138    -999.2500    -999.2500
   3722.3694       6.5557       6.5797    -999.2500       0.1961      52.0403    -999.2500      36.8656      45.1530      44.7125    -999.2500    -999.2500    -999.2500       0.0697       2.9586    -999.2500       2.7674    -999.2500    -999.2500
   3722.5220       6.5739       6.5670    -999.2500       0.1920      52.0565    -999.2500      37.2255      44.2698      43.7371    -999.2500    -999.2500    -999.2500       0.0712       2.8961    -999.2500       2.7727    -999.2500    -999.2500
   3722.6743       6.5511       6.5444    -999.2500       0.1842      52.0727    -999.2500      37.6765      43.2341      42.6043    -999.2500    -999.2500    -999.2500       0.0712       2.8833    -999.2500       2.7654    -999.2500    -999.2500
   3722.8267       6.4477       6.4764    -999.2500       0.1565      52.0889    -999.2500      37.7419      40.1212      39.8941    -999.2500    -999.2500    -999.2500       0.0688       2.9609    -999.2500       2.7319    -999.2500    -999.2500
   3722.9790       6.3974       6.4607    -999.2500       0.1516      52.1051    -999.2500      36.5850      39.1639      38.4746    -999.2500    -999.2500    -999.2500       0.0664       2.9729    -999.2500       2.7336    -999.2500    -999.2500
   3723.1316       6.3655       6.4386    -999.2500       0.1571      52.1213    -999.2500      34.4403      38.5748      38.2567    -999.2500    -999.2500    -999.2500       0.0574       2.8829    -999.2500       2.7488    -999.2500    -999.2500
   3723.2839       6.3852       6.4539    -999.2500       0.1565      52.1375    -999.2500      32.1870      38.9889      38.1500    -999.2500    -999.2500    -999.2500       0.0119       2.8063    -999.2500       2.7582    -999.2500    -999.2500
   3723.4363       6.3879       6.4551    -999.2500       0.1535      52.1537    -999.2500      31.5455      39.5805      38.4680    -999.2500    -999.2500    -999.2500       0.0058       2.8058    -999.2500       2.7565    -999.2500    -999.2500
   3723.5886       6.3597       6.4296    -999.2500       0.1429      52.1699    -999.2500      33.1371      39.8644      38.9555    -999.2500    -999.2500    -999.2500       0.0121       2.8420    -999.2500       2.7415    -999.2500    -999.2500
   3723.7412       6.2857       6.3727    -999.2500       0.1295      52.1861    -999.2500      35.7938      40.2467      39.0478    -999.2500    -999.2500    -999.2500       0.0657       2.9783    -999.2500       2.7225    -999.2500    -999.2500
   3723.8936       6.2498       6.3375    -999.2500       0.1297      52.2023    -999.2500      38.0760      38.9812      38.5907    -999.2500    -999.2500    -999.2500       0.0701       3.0227    -999.2500       2.7124    -999.2500    -999.2500
   3724.0459    -999.2500    -999.2500    -999.2500    -999.2500      52.2185    -999.2500      38.2100      39.9515      38.6174    -999.2500    -999.2500    -999.2500    -999.2500    -999.2500    -999.2500    -999.2500    -999.2500    -999.2500
   3724.1982    -999.2500    -999.2500    -999.2500    -999.2500      52.2347    -999.2500      38.1875      40.0815      38.6923    -999.2500    -999.2500    -999.2500    -999.2500    -999.2500    -999.2500    -999.2500    -999.2500    -999.2500
   3724.3506    -999.2500    -999.2500    -999.2500    -999.2500      52.2509    -999.2500      36.8309      44.9197      43.0007    -999.2500    -999.2500    -999.2500    -999.2500    -999.2500    -999.2500    -999.2500    -999.2500    -999.2500
