#------------------------------------------------------------------------------
#
#   Created by  : [OpenWorks] Log Export Utility (LEXP)
#   Created on  : 2016-05-23 11:56:14
#   Project     : CANT971
#   User        : R5K
#   Interpreter : PEP
#
#------------------------------------------------------------------------------
~VERSION INFORMATION
VERS. 2.0 : CWLS Log ASCII Standard - version 2.0
WRAP.  NO : One line per depth step
~WELL INFORMATION
#MNEMONIC   .UNIT                                           VALUE :DESCRIPTION
#------------------------------------------------------------------------------
STRT        .M                                          1862.0000 :START DEPTH
STOP        .M                                          3052.8535 :STOP DEPTH
STEP        .M                                             0.1524 :STEP
NULL        .                                           -999.2500 :NULL VALUE
COMP        .                                   PEMEX EXPL & PROD :COMPANY
WELL        .                                                446D :WELL
FLD         .                                           CANTARELL :FIELD
LOC         .                                             UNKNOWN :LOCATION
CNTY        .                                      CD. DEL CARMEN :COUNTY
STAT        .                                            CAMPECHE :STATE
CTRY        .                                              MEXICO :COUNTRY
SRVC        .                                             UNKNOWN :SERVICE COMPANY
DATE        .                                             UNKNOWN :LOG DATE
UWI         .                                            W-C-446D :UNIQUE WELL ID
XCOORD      .                                       598705.170000 :SURFACE X
YCOORD      .                                      2143305.170000 :SURFACE Y
LAT         .                                           19.382621 :LATITUDE
LON         .                                          -92.060061 :LONGITUDE
ELEV        .M                                            28.0000 :SURFACE ELEV
ELEV_TYPE   .                                                  KB :ELEV TYPE
~CURVE INFORMATION
#MNEMONIC.UNIT        API CODE       : CURVE DESCRIPTION
#------------------------------------------------------------------------------
DEPTH    .M                          : Measured Depth
CALI     .inches      UNKNOWN        : CALI:litodensidad:rC:NONE:v0 (auto-composite)
CGR      .API         UNKNOWN        : CGR:CGR-Load:rC:NONE:v0 (auto-composite)
DRHO     .g/cm3       UNKNOWN        : DRHO:litodensidad:rC:NONE:v0 (auto-composite)
DT       .us/ft       UNKNOWN        : DT:DT-Load:rC:NONE:v0 (auto-composite)
GR       .UNKNOWN     UNKNOWN        : GR:PETROWORKS:rC:NONE:v1 
LLD      .ohm.m       UNKNOWN        : LLD:PETROWORKS:rC:NONE:v1 
LLS      .UNKNOWN     UNKNOWN        : LLS:PETROWORKS:rC:NONE:v1 
MSFL     .UNKNOWN     UNKNOWN        : MSFL:PETROWORKS:rC:NONE:v1 
NPHI     .v/v_decimal UNKNOWN        : NPHI:PETROWORKS:rC:NONE:v2 
PEF      .UNKNOWN     UNKNOWN        : PEF:litodensidad:rC:NONE:v0 (auto-composite)
POTA     .UNKNOWN     UNKNOWN        : POTA:radioactividad:rC:NONE:v0 (auto-composite)
RHOB     .g/cm3       UNKNOWN        : RHOB:litodensidad:rC:NONE:v0 (auto-composite)
THOR     .ppm         UNKNOWN        : THOR:radioactividad:rC:NONE:v0 (auto-composite)
URAN     .ppm         UNKNOWN        : URAN:radioactividad:rC:NONE:v0 (auto-composite)
~A     DEPTH         CALI          CGR         DRHO           DT           GR          LLD          LLS         MSFL         NPHI          PEF         POTA         RHOB         THOR         URAN
# ...
   2694.1040       7.2271      16.3178      -0.0061     227.8777      34.9701     146.0790      20.8075      30.6427       0.0934       3.2561       0.0057       2.6366       1.0189       1.8398
   2694.2563       7.2498      14.0050      -0.0052     224.7981      29.7488     153.7713      21.5287     141.3618       0.0863       3.3047       0.0048       2.6713       0.9093       1.5408
   2694.4087       7.2205      13.0306      -0.0032     225.9197      27.6418     169.5566      23.3087     103.7941       0.0703       3.2703       0.0044       2.7187       0.8984       1.4347
   2694.5613       7.2146      14.4774      -0.0002     226.0302      29.6325     204.0031      24.8576     381.9467       0.0553       3.3807       0.0046       2.7495       1.0678       1.4585
   2694.7136       7.4115      17.2116      -0.0008     228.5435      36.5091     208.1358      24.1671     272.3747       0.0484       3.2275       0.0037       2.7476       2.0354       2.0314
   2694.8660       7.6223      13.7117       0.0007     233.1551      30.1178     193.1479      22.1147      97.5780       0.0498       3.3090       0.0045       2.7496       0.9664       1.5851
   2695.0183       7.4471      11.8215       0.0022     236.4450      26.6411     189.2161      21.1795      45.7255       0.0493       3.3445       0.0044       2.7617       0.6313       1.4459
   2695.1709       7.2795      12.4159       0.0025     232.0199      27.4773     187.3062      21.1710      52.0985       0.0428       3.4759       0.0043       2.7775       0.7812       1.4972
   2695.3232       7.2802      13.0006       0.0030     230.9802      28.2064     196.9740      22.7530      79.7267       0.0389       3.5116       0.0043       2.7845       0.9289       1.5227
   2695.4756       7.2280      12.4596       0.0060     231.7981      27.6016     230.2479      26.3613      67.5804       0.0448       3.4090       0.0041       2.7822       0.8696       1.5020
   2695.6279       7.2108      12.0717       0.0057     231.6531      26.9218     235.2162      29.2331      54.9593       0.0524       3.3812       0.0040       2.7718       0.8313       1.4817
   2695.7805       7.2462      11.7629       0.0413     230.4968      25.7131     236.7815      30.0405      76.9309       0.0540       3.4364       0.0042       2.7621       0.7114       1.3842
   2695.9329       7.2636      13.6013       0.0788     232.1253      27.8303     223.2598      29.3563      60.3739       0.0526       3.3533       0.0047       2.7559       0.8761       1.4335
   2696.0852       7.0794      14.2285       0.0802     232.7892      29.1035     199.0373      26.6146      35.5820       0.0570       3.2212       0.0046       2.7085       1.0499       1.4761
   2696.2375       7.0919      15.5308       0.0823     231.0690      30.6861     157.7220      22.3548      13.1525       0.0663       3.1608       0.0049       2.6963       1.2313       1.5189
   2696.3899       7.1459      16.0670       0.0910     232.3197      31.4278     129.1581      18.6414       9.1523       0.0780       3.1630       0.0048       2.6855       1.3583       1.5242
   2696.5425       7.1434      15.9861       0.0555     230.4779      31.3981     116.3898      16.5751       8.7170       0.0860       3.1701       0.0047       2.6469       1.3650       1.5107
   2696.6948       7.1253      16.5261       0.0189      96.1411      32.5566     109.5291      15.4369       8.7190       0.0925       3.1185       0.0046       2.6189       1.5314       1.5907
   2696.8472       7.1385      16.0299       0.0137      63.7899      33.0098     105.5501      14.8940      19.0442       0.0919       3.1369       0.0043       2.6490       1.5612       1.6264
   2696.9995       7.4649      21.4514       0.0166      54.8346      37.4265     108.5878      15.0432      17.2682       0.0833       3.2784       0.0067       2.6997       1.6960       1.5837
   2697.1521       7.8279      23.6411       0.0134      51.8026      40.2001     111.0406      15.5844     458.9454       0.0677       3.2818       0.0074       2.7259       1.8443       1.6315
   2697.3044       7.5701      25.5376       0.0082      53.8774      43.2365     116.1043      16.5452     504.7265       0.0602       3.2976       0.0076       2.7284       2.1574       1.7665
   2697.4568       7.2413      25.0089       0.0061      52.9431      42.5139     123.8994      18.5157     390.8798       0.0594       3.2941       0.0075       2.7119       2.0907       1.7475
   2697.6091       7.1924      23.0237       0.0056      53.7179      40.0790     133.1928      21.3711     327.2759       0.0643       3.2946       0.0069       2.7040       1.9252       1.6798
   2697.7617       7.1492      22.6252       0.0064      58.7369      39.3798     143.6441      23.8751     145.7135       0.0713       3.3082       0.0070       2.7033       1.8263       1.6954
   2697.9141       7.1927      18.2017       0.0117      56.8834      35.3734     168.0399      24.7689      64.7338       0.0749       3.2436       0.0059       2.7099       1.3240       1.7013
   2698.0664       7.2181      12.3211       0.0124      53.0930      30.9256     176.7118      25.0018      83.5912       0.0753       3.3911       0.0039       2.7089       0.9152       1.8127
   2698.2188       7.1713      12.9435       0.0111      55.9771      32.0411     152.5844      26.0159      72.2741       0.0773       3.4552       0.0043       2.6998       0.9094       1.9094
   2698.3711       7.1285      13.8050       0.0110      54.0546      33.1915     166.0597      28.0567      28.7389       0.0812       3.4222       0.0047       2.6967       0.9522       1.9244
   2698.5237       7.1574      14.5154       0.0106      54.0244      34.1109     176.7331      29.7240      45.7122       0.0836       3.3619       0.0049       2.6967       0.9957       1.9015
   2698.6760       7.1799      18.3274       0.0073      59.8745      38.5661     178.4319      29.9197      17.0351       0.0841       3.3254       0.0055       2.6992       1.5221       2.0105
   2698.8284       7.1477      16.2545       0.0061      61.5786      36.0504     170.3002      29.0009      61.3221       0.0850       3.3273       0.0042       2.6984       1.6033       1.9419
   2698.9807       7.1064      14.7477       0.0063      64.6267      33.6667     148.6734      27.2389     161.9802       0.0849       3.2046       0.0036       2.7026       1.5726       1.8774
   2699.1333       7.1343      14.8723       0.0056      66.8898      33.7810     140.5493      25.5342     100.7157       0.0835       3.2314       0.0037       2.7026       1.5765       1.8722
   2699.2856       7.1656      15.3942       0.0059      65.4170      34.5152     140.0311      24.6617      94.2461       0.0797       3.1967       0.0040       2.6977       1.5614       1.8975
   2699.4380       7.2537      16.7710       0.0089      58.8666      36.1259     142.4225      24.7014      81.1719       0.0766       3.2677       0.0044       2.6821       1.6509       1.9618
   2699.5903       7.2390      15.8520       0.0098      63.0513      35.1446     144.5568      25.0712     131.6196       0.0828       3.3986       0.0042       2.6650       1.5534       1.9143
   2699.7429       7.2310      14.6042       0.0085      68.4974      32.9775     142.5329      25.2434      45.2861       0.0910       3.6013       0.0040       2.6566       1.3477       1.7743
   2699.8953       7.1281      15.7914       0.0108      69.1302      34.1059     144.3146      25.6770      31.4085       0.0997       3.7626       0.0047       2.6698       1.3523       1.8172
   2700.0476       7.0719      15.2106       0.0116      75.4596      29.8538     147.2332      26.0844      36.2128       0.1006       3.7089       0.0050       2.6833       1.1119       1.3984
   2700.2000       7.0542      15.2003       0.0050      73.2925      28.3098     145.1187      25.9060      38.2544       0.0971       3.6016       0.0051       2.6883       1.0620       1.3009
   2700.3523       7.0631      15.4217      -0.0000      71.8515      29.1313     149.6877      26.0104      42.8313       0.0903       3.4987       0.0051       2.6924       1.1012       1.2946
