#------------------------------------------------------------------------------
#
#   Created by  : [OpenWorks] Log Export Utility (LEXP)
#   Created on  : 2016-05-23 11:52:48
#   Project     : CANT971
#   User        : R5K
#   Interpreter : PEP
#
#------------------------------------------------------------------------------
~VERSION INFORMATION
VERS. 2.0 : CWLS Log ASCII Standard - version 2.0
WRAP.  NO : One line per depth step
~WELL INFORMATION
#MNEMONIC   .UNIT                                           VALUE :DESCRIPTION
#------------------------------------------------------------------------------
STRT        .M                                           688.5826 :START DEPTH
STOP        .M                                          3180.0178 :STOP DEPTH
STEP        .M                                             0.1524 :STEP
NULL        .                                           -999.2500 :NULL VALUE
COMP        .                                   PEMEX EXPL & PROD :COMPANY
WELL        .                                               2092D :WELL
FLD         .                                           CANTARELL :FIELD
LOC         .                                             UNKNOWN :LOCATION
CNTY        .                                      CD. DEL CARMEN :COUNTY
STAT        .                                            CAMPECHE :STATE
CTRY        .                                              MEXICO :COUNTRY
SRVC        .                                             UNKNOWN :SERVICE COMPANY
DATE        .                                             UNKNOWN :LOG DATE
UWI         .                                          3060000657 :UNIQUE WELL ID
XCOORD      .                                       601715.500000 :SURFACE X
YCOORD      .                                      2142373.650000 :SURFACE Y
LAT         .                                           19.374053 :LATITUDE
LON         .                                          -92.031447 :LONGITUDE
ELEV        .M                                            30.0000 :SURFACE ELEV
ELEV_TYPEF  .b/elec                                            KB :ELEV TYPE
~CURVE INFORMATION
#MNEMONIC.UNIT        API CODE       : CURVE DESCRIPTION
#------------------------------------------------------------------------------
DEPTH    .M                          : Measured Depth
CALI     .in          UNKNOWN        : CALI:UNKNOWN:rC:NONE:v0 (auto-composite)
CGR      .API         UNKNOWN        : CGR:UNKNOWN:rC:NONE:v0 (auto-composite)
DRHO     .g/cm3       UNKNOWN        : DRHO:UNKNOWN:rC:NONE:v0 (auto-composite)
DT       .us/ft       UNKNOWN        : DT:DT:rC:NONE:v0 (auto-composite)
GR       .API         UNKNOWN        : GR:UNKNOWN:rC:NONE:v0 (auto-composite)
ILD      .ohmm        UNKNOWN        : ILD:UNKNOWN:rC:NONE:v0 (auto-composite)
ILM      .ohmm        UNKNOWN        : ILM:UNKNOWN:rC:NONE:v0 (auto-composite)
LLD      .ohmm        UNKNOWN        : LLD:UNKNOWN:rC:NONE:v0 (auto-composite)
LLS      .ohmm        UNKNOWN        : LLS:UNKNOWN:rC:NONE:v0 (auto-composite)
MSFL     .ohmm        UNKNOWN        : MSFL:UNKNOWN:rC:NONE:v0 (auto-composite)
NPHI     .v/v_decimal UNKNOWN        : NPHI:PETROWORKS:rC:NONE:v1 
PEF      .b/elec      UNKNOWN        : PEF:UNKNOWN:rC:NONE:v0 (auto-composite)
POTA     .wtpercent   UNKNOWN        : POTA:UNKNOWN:rC:NONE:v0 (auto-composite)
RHOB     .g/cm3       UNKNOWN        : RHOB:UNKNOWN:rC:NONE:v0 (auto-composite)
SFLU     .ohmm       UNKNOWN        : SFLU:induccion:rC:NONE:v0 (auto-composite)
THOR     .ppm         UNKNOWN        : THOR:UNKNOWN:rC:NONE:v0 (auto-composite)
URAN     .ppm         UNKNOWN        : URAN:UNKNOWN:rC:NONE:v0 (auto-composite)
~A     DEPTH         CALI          CGR         DRHO           DT           GR          ILD          ILM          LLD          LLS         MSFL         NPHI          PEF         POTA         RHOB         SFLU         THOR         URAN
# ...
   2150.0986      10.7430       8.5978       0.1105      62.8177      35.0323    -999.2500    -999.2500     399.8778     180.5476      98.0055       0.0750       3.9679       0.0025       2.7185    -999.2500       1.5243       2.9122
   2150.2510      10.7828       7.7856       0.0856      59.8825      33.3366    -999.2500    -999.2500     313.6943     144.0581      82.7941       0.0624       3.7422       0.0020       2.7254    -999.2500       1.3112       2.8225
   2150.4033      10.8417       6.9165       0.0441      55.6473      31.4874    -999.2500    -999.2500     246.3284     113.2899      49.1491       0.0551       3.4883       0.0016       2.7104    -999.2500       0.9993       2.7200
   2150.5557      10.8746       5.8557       0.0256      54.2817      30.0814    -999.2500    -999.2500     209.4669      95.6129      37.1782       0.0482       3.3999       0.0015       2.6961    -999.2500       0.8044       2.6815
   2150.7083      10.8965       4.7157       0.0166      54.8200      28.8590    -999.2500    -999.2500     185.2328      83.3552      34.1795       0.0415       3.3799       0.0015       2.6821    -999.2500       0.6580       2.6695
   2150.8606      10.8519       4.2819       0.0133      55.2213      28.8866    -999.2500    -999.2500     200.5205      89.2757      30.0025       0.0351       3.3800       0.0017       2.6893    -999.2500       0.5494       2.7030
   2151.0129      10.7794       4.1416       0.0123      55.4820      29.4339    -999.2500    -999.2500     232.2369     102.7526      25.3358       0.0291       3.3885       0.0019       2.7053    -999.2500       0.4565       2.7555
   2151.1653      10.7407       5.6772       0.0205      54.6021      30.0735    -999.2500    -999.2500     338.7916     136.9655      23.9399       0.0263       3.4023       0.0025       2.7238    -999.2500       0.6319       2.6581
   2151.3179      10.7161       7.9180       0.0325      53.1271      30.7519    -999.2500    -999.2500     476.8267     179.9010      23.9198       0.0257       3.4183       0.0032       2.7433    -999.2500       0.9202       2.4976
   2151.4702      10.7225       9.6469       0.0346      52.1978      31.4564    -999.2500    -999.2500     691.7480     221.0573      31.8412       0.0287       3.4021       0.0033       2.7281    -999.2500       1.3898       2.4418
   2151.6226      10.7415      11.1662       0.0326      51.5661      32.1716    -999.2500    -999.2500     938.1576     261.4848      43.0148       0.0336       3.3726       0.0031       2.6986    -999.2500       1.9335       2.4288
   2151.7749      10.7325      10.5993       0.0302      52.7454      33.4290    -999.2500    -999.2500    1157.3112     288.5404      55.9557       0.0360       3.3725       0.0028       2.6780    -999.2500       1.8632       2.6092
   2151.9275      10.7120       9.1745       0.0277      54.5667      34.9093    -999.2500    -999.2500    1365.2554     310.0966      69.6233       0.0370       3.3845       0.0025       2.6610    -999.2500       1.5404       2.8690
   2152.0798      10.6979       8.2752       0.0319      55.6504      35.4823    -999.2500    -999.2500    1527.7059     319.9309      92.2562       0.0346       3.3975       0.0022       2.6737    -999.2500       1.4601       3.0097
   2152.2322      10.6864       7.5931       0.0389      56.2418      35.6806    -999.2500    -999.2500    1671.3683     324.9242     118.5917       0.0300       3.4110       0.0019       2.6986    -999.2500       1.4801       3.1011
   2152.3845      10.7049       7.6003       0.0382      55.1104      35.9695    -999.2500    -999.2500    1482.3080     287.1898     114.2049       0.0244       3.3995       0.0017       2.7190    -999.2500       1.5808       3.1382
   2152.5369      10.7358       7.8957       0.0342      53.2855      36.2964    -999.2500    -999.2500    1154.1942     231.5983      96.9783       0.0191       3.3775       0.0016       2.7375    -999.2500       1.7153       3.1527
   2152.6895      10.7778       8.1183       0.0362      51.6299      36.8023    -999.2500    -999.2500     951.9545     195.5811      81.2855       0.0188       3.3904       0.0013       2.7536    -999.2500       1.8963       3.1874
   2152.8418      10.8245       8.3103       0.0407      50.0936      37.3834    -999.2500    -999.2500     802.5399     167.7785      66.2362       0.0220       3.4180       0.0010       2.7686    -999.2500       2.0968       3.2305
   2152.9941      10.8266       8.0651       0.0306      50.3626      37.1447    -999.2500    -999.2500     691.3729     149.9137      70.2585       0.0298       3.4107       0.0007       2.7450    -999.2500       2.2501       3.2206
   2153.1465      10.8107       7.6413       0.0147      51.4260      36.5709    -999.2500    -999.2500     595.8332     136.1091      82.0729       0.0390       3.3893       0.0003       2.7055    -999.2500       2.3840       3.1892
   2153.2991      10.8340       7.9610       0.0065      53.1624      37.5584    -999.2500    -999.2500     509.1102     117.7300      68.5695       0.0444       3.3632       0.0002       2.6890    -999.2500       2.5742       3.3330
   2153.4514      10.8734       8.5857       0.0015      55.2720      39.1864    -999.2500    -999.2500     426.0046      97.4740      44.6785       0.0475       3.3352       0.0003       2.6821    -999.2500       2.7874       3.5487
   2153.6038      10.9005       9.5364       0.0113      55.6446      39.1456    -999.2500    -999.2500     382.8528      87.3034      34.7880       0.0471       3.3644       0.0013       2.6849    -999.2500       2.4774       3.4026
   2153.7561      10.9225      10.6224       0.0273      55.2736      38.4119    -999.2500    -999.2500     356.2902      81.3205      30.7108       0.0456       3.4174       0.0028       2.6919    -999.2500       1.9502       3.1062
   2153.9087      10.8666      12.0330       0.0193      56.3089      37.0881    -999.2500    -999.2500     326.8417      76.0751      26.0840       0.0573       3.6344       0.0039       2.6164    -999.2500       1.8617       2.7968
   2154.0610      10.7781      13.5788       0.0013      58.2298      35.5183    -999.2500    -999.2500     296.1900      71.1373      21.2281       0.0749       3.9198       0.0048       2.5064    -999.2500       1.9561       2.4819
   2154.2134      10.7612      15.0659       0.0009      62.1129      32.9094    -999.2500    -999.2500     256.9281      65.6570      22.0880       0.0883       3.9662       0.0044       2.4867    -999.2500       2.3233       2.1296
   2154.3657      10.7742      16.5285       0.0080      67.1945      29.8655    -999.2500    -999.2500     214.0612      59.9497      25.3410       0.0990       3.9125       0.0034       2.5048    -999.2500       2.8046       1.7616
   2154.5181      10.8631      15.3491       0.0245      67.0553      29.0915    -999.2500    -999.2500     177.6521      53.3493      24.9941       0.0796       3.9438       0.0036       2.5845    -999.2500       2.6634       1.6688
   2154.6707      10.9830      13.0929       0.0450      64.4770      29.2428    -999.2500    -999.2500     143.8753      46.3849      23.1798       0.0499       4.0097       0.0043       2.6894    -999.2500       2.2684       1.6883
   2154.8230      11.1011      13.1491       0.0446      59.8840      29.2750    -999.2500    -999.2500     118.1186      39.3490      24.6951       0.0332       3.7732       0.0046       2.7324    -999.2500       2.1601       1.6745
   2154.9753      11.2186      14.1591       0.0356      53.8921      29.2580    -999.2500    -999.2500      95.6703      32.2835      27.5839       0.0256       3.4118       0.0047       2.7499    -999.2500       2.1701       1.6471
   2155.1277      11.4163      13.8765       0.0408      51.5026      29.4484    -999.2500    -999.2500      83.4220      28.3594      25.1477       0.0225       3.2968       0.0047       2.7578    -999.2500       2.0150       1.7167
   2155.2803      11.6472      13.0583       0.0518      50.6964      29.7248    -999.2500    -999.2500      75.3989      25.7365      20.5057       0.0216       3.2838       0.0046       2.7618    -999.2500       1.7916       1.8267
