#------------------------------------------------------------------------------
#
#   Created by  : [OpenWorks] Log Export Utility (LEXP)
#   Created on  : 2016-05-23 11:52:25
#   Project     : CANT971
#   User        : R5K
#   Interpreter : PEP
#
#------------------------------------------------------------------------------
~VERSION INFORMATION
VERS. 2.0 : CWLS Log ASCII Standard - version 2.0
WRAP.  NO : One line per depth step
~WELL INFORMATION
#MNEMONIC   .UNIT                                           VALUE :DESCRIPTION
#------------------------------------------------------------------------------
STRT        .M                                           940.1293 :START DEPTH
STOP        .M                                          2672.0029 :STOP DEPTH
STEP        .M                                             0.1524 :STEP
NULL        .                                           -999.2500 :NULL VALUE
COMP        .                                   PEMEX EXPL & PROD :COMPANY
WELL        .                                               2071D :WELL
FLD         .                                           CANTARELL :FIELD
LOC         .                                             UNKNOWN :LOCATION
CNTY        .                                      CD. DEL CARMEN :COUNTY
STAT        .                                            CAMPECHE :STATE
CTRY        .                                              MEXICO :COUNTRY
SRVC        .                                             UNKNOWN :SERVICE COMPANY
DATE        .                                             UNKNOWN :LOG DATE
UWI         .                                          3060000679 :UNIQUE WELL ID
XCOORD      .                                       601713.940000 :SURFACE X
YCOORD      .                                      2142372.000000 :SURFACE Y
LAT         .                                           19.374038 :LATITUDE
LON         .                                          -92.031462 :LONGITUDE
ELEV        .M                                            30.0000 :SURFACE ELEV
ELEV_TYPEF  .b/elec                                            KB :ELEV TYPE
~CURVE INFORMATION
#MNEMONIC.UNIT        API CODE       : CURVE DESCRIPTION
#------------------------------------------------------------------------------
DEPTH    .M                          : Measured Depth
CALI     .in          UNKNOWN        : CALI:UNKNOWN:rC:NONE:v0 (auto-composite)
DRHO     .g/cm3       UNKNOWN        : DRHO:UNKNOWN:rC:NONE:v0 (auto-composite)
DT       .us/ft       UNKNOWN        : DT:DT:rC:NONE:v0 (auto-composite)
GR       .API         UNKNOWN        : GR:UNKNOWN:rC:NONE:v0 (auto-composite)
ILD      .ohmm        UNKNOWN        : ILD:UNKNOWN:rC:NONE:v0 (auto-composite)
ILM      .ohmm        UNKNOWN        : ILM:UNKNOWN:rC:NONE:v0 (auto-composite)
LLD      .ohmm        UNKNOWN        : LLD:UNKNOWN:rC:NONE:v0 (auto-composite)
LLS      .ohmm        UNKNOWN        : LLS:UNKNOWN:rC:NONE:v0 (auto-composite)
MSFL     .ohmm        UNKNOWN        : MSFL:UNKNOWN:rC:NONE:v0 (auto-composite)
NPHI     .v/v_decimal UNKNOWN        : NPHI:UNKNOWN:rC:NONE:v0 (auto-composite)
PEF      .b/elec      UNKNOWN        : PEF:UNKNOWN:rC:NONE:v0 (auto-composite)
RHOB     .g/cm3       UNKNOWN        : RHOB:UNKNOWN:rC:NONE:v0 (auto-composite)
~A     DEPTH         CALI         DRHO           DT           GR          ILD          ILM          LLD          LLS         MSFL         NPHI          PEF         RHOB
# ...
   2059.3550    -999.2500    -999.2500    -999.2500      23.9327       3.8155       4.7052    -999.2500    -999.2500    -999.2500    -999.2500    -999.2500    -999.2500
   2059.5073    -999.2500    -999.2500    -999.2500      24.1770       3.2880       3.0560    -999.2500    -999.2500    -999.2500    -999.2500    -999.2500    -999.2500
   2059.6597    -999.2500    -999.2500    -999.2500      24.3217       2.8925       2.7341    -999.2500    -999.2500    -999.2500    -999.2500    -999.2500    -999.2500
   2059.8120    -999.2500    -999.2500    -999.2500      24.4660       2.4980       2.4130    -999.2500    -999.2500    -999.2500    -999.2500    -999.2500    -999.2500
   2059.9646    -999.2500    -999.2500    -999.2500      24.6015       2.3309       2.3635    -999.2500    -999.2500    -999.2500    -999.2500    -999.2500    -999.2500
   2060.1169      10.7790      -0.6360      65.7930      24.7370       2.1640       2.3140    -999.2500    -999.2500    -999.2500       0.3305       7.2190       2.6500
   2060.2693      10.7590      -0.6330      63.4788      24.9278       2.2149       2.4338    -999.2500    -999.2500    -999.2500       0.2755       9.8860       2.6240
   2060.4216      10.7390      -0.6300      61.1660      25.1190       2.2660       2.5540    -999.2500    -999.2500    -999.2500       0.2203      12.5600       2.5980
   2060.5742      10.7270      -0.6230      56.8675      25.1225       2.4720       3.0321    -999.2500    -999.2500    -999.2500       0.1652       9.7958       2.6625
   2060.7266      10.7150      -0.6160      52.5710      25.1260       2.6780       3.5100    -999.2500    -999.2500    -999.2500       0.1100       7.0330       2.7270
   2060.8789      10.7431      -0.6105      53.3391      25.1260       3.1567       4.7241    -999.2500    -999.2500    -999.2500       0.1190       5.5071       2.7851
   2061.0312      10.7710      -0.6050      54.1070      25.1260       3.6330       5.9320    -999.2500    -999.2500    -999.2500       0.1279       3.9890       2.8430
   2061.1838      10.7950      -0.6155      55.5552      25.1260       3.9090       6.3923    -999.2500    -999.2500    -999.2500       0.1688      -3.4863       2.8245
   2061.3362      10.8190      -0.6260      57.0030      25.1260       4.1840       6.8510    -999.2500    -999.2500    -999.2500       0.2095     -10.9360       2.8060
   2061.4885      10.7990      -0.6350      57.9646      25.1260       4.3945       6.7375    -999.2500    -999.2500    -999.2500       0.2356      -7.1633       2.7360
   2061.6409      10.7790      -0.6440      58.9260      25.1260       4.6050       6.6240    -999.2500    -999.2500    -999.2500       0.2617      -3.3910       2.6660
   2061.7932      10.7471      -0.6480      56.7090      25.1260       6.1899       7.0892    -999.2500    -999.2500    -999.2500       0.2092      -5.3893       2.6480
   2061.9458      10.7150      -0.6520      54.4920      25.1260       7.7800       7.5560    -999.2500    -999.2500    -999.2500       0.1565      -7.3940       2.6300
   2062.0981      10.7035      -0.6255      53.5736      25.1260       9.7069       7.0306    -999.2500    -999.2500    -999.2500       0.1641       4.3886       2.6955
   2062.2505      10.6920      -0.5990      52.6550      25.1260      11.6310       6.5060    -999.2500    -999.2500    -999.2500       0.1717      16.1540       2.7610
   2062.4028      10.7156      -0.6045      55.6261      25.1260      12.6180      10.2856    -999.2500    -999.2500    -999.2500       0.1741      15.0235       2.7575
   2062.5554      10.7390      -0.6100      58.5980      25.1260      13.5990      14.0420    -999.2500    -999.2500    -999.2500       0.1764      13.9000       2.7540
   2062.7078      10.7035      -0.6135      55.5041      25.1260      10.9278      14.3975    -999.2500    -999.2500    -999.2500       0.1636      15.3130       2.7425
   2062.8601      10.6680      -0.6170      52.4090      25.1260       8.2640      14.7520    -999.2500    -999.2500    -999.2500       0.1507      16.7220       2.7310
   2063.0125      10.7115      -0.6155      57.3992      25.1260       7.8581      14.0547    -999.2500    -999.2500    -999.2500       0.1410      17.2639       2.7405
   2063.1650      10.7550      -0.6140      62.3920      25.1260       7.4520      13.3570    -999.2500    -999.2500    -999.2500       0.1313      17.8060       2.7500
   2063.3174      10.7350      -0.6110      56.6729      25.1260       8.0442      17.6514    -999.2500    -999.2500    -999.2500       0.1241      15.8625       2.7695
   2063.4697      10.7150      -0.6080      50.9500      25.1260       8.6340      21.9280    -999.2500    -999.2500    -999.2500       0.1170      13.9270       2.7890
   2063.6221      10.7738      -0.5975      53.1801      25.1260       9.9131      25.7222    -999.2500    -999.2500    -999.2500       0.1308      16.3793       2.8046
   2063.7744      10.8320      -0.5870      55.4120      25.1260      11.1810      29.4830    -999.2500    -999.2500    -999.2500       0.1444      18.8100       2.8200
   2063.9270      10.8255      -0.5915      53.2870      25.1260      13.1945      25.0127    -999.2500    -999.2500    -999.2500       0.1740      16.4059       2.7814
   2064.0793      10.8190      -0.5960      51.1600      25.1260      15.1970      20.5670    -999.2500    -999.2500    -999.2500       0.2034      14.0150       2.7430
   2064.2317      10.8666      -0.5945      54.8611      25.1260      14.8346      16.7403    -999.2500    -999.2500    -999.2500       0.2094      17.1589       2.7135
   2064.3840      10.9140      -0.5930      58.5600      25.1260      14.4730      12.9220    -999.2500    -999.2500    -999.2500       0.2154      20.2960       2.6840
   2064.5366      10.9100      -0.5850      56.7231      23.4506      13.7568      10.9055    -999.2500    -999.2500    -999.2500       0.1892      23.5522       2.6995
   2064.6890      10.9060      -0.5770      54.8870      21.7760      13.0410       8.8900       0.0850       0.3470    -999.2500       0.1629      26.8070       2.7150
   2064.8413      10.8940      -0.5665      57.0188      23.3720      13.8655       8.4538       0.0855       0.3485    -999.2500       0.1448      29.8725       2.7490
   2064.9937      10.8820      -0.5560      59.1500      24.9700      14.6910       8.0170       0.0860       0.3500    -999.2500       0.1267      32.9420       2.7830
   2065.1462      10.8345      -0.5490      54.7061      24.6187      15.2345       8.3253       0.0845       0.3415    -999.2500       0.1333      35.3302       2.7915
   2065.2986      10.7870      -0.5420      50.2630      24.2680      15.7770       8.6330       0.0830       0.3330    -999.2500       0.1399      37.7140       2.8000
   2065.4509      10.8186      -0.5515      54.1926      23.0831      13.0223       8.9959       0.0860       0.3310    -999.2500       0.1496      38.3175       2.7699
   2065.6033      10.8500      -0.5610      58.1220      21.9040      10.2810       9.3570       0.0890       0.3290    -999.2500       0.1592      38.9180       2.7400
   2065.7556      10.8345      -0.5530      60.1399      21.2785       7.2813       9.7892       0.0860       0.3340    -999.2500       0.1572      40.1014       2.7440
   2065.9082      10.8190      -0.5450      62.1580      20.6550       4.2910      10.2200       0.0830       0.3390       0.3340       0.1551      41.2810       2.7480
   2066.0605      10.8385      -0.5465      57.6504      20.0861       3.3523      13.8471       0.0800       0.3350       0.2785       0.1470      40.5595       2.7440
   2066.2129      10.8580      -0.5480      53.1420      19.5180       2.4150      17.4690       0.0770       0.3310       0.2230       0.1389      39.8390       2.7400
   2066.3652      10.8620      -0.5410      57.6363      18.6219       2.0419      28.0339       0.0795       0.3330       0.2055       0.1376      42.0739       2.7495
   2066.5178      10.8660      -0.5340      62.1320      17.7240       1.6680      38.6190       0.0820       0.3350       0.1880       0.1363      44.3130       2.7590
