#------------------------------------------------------------------------------
#
#   Created by  : [OpenWorks] Log Export Utility (LEXP)
#   Created on  : 2016-05-12 17:01:25
#   Project     : CANT971
#   User        : R5K
#   Interpreter : PEP
#
#------------------------------------------------------------------------------
~VERSION INFORMATION
VERS. 2.0 : CWLS Log ASCII Standard - version 2.0
WRAP.  NO : One line per depth step
~WELL INFORMATION
#MNEMONIC   .UNIT                                           VALUE :DESCRIPTION
#------------------------------------------------------------------------------
STRT        .M                                           310.6675 :START DEPTH
STOP        .M                                          2665.7046 :STOP DEPTH
STEP        .M                                             0.1524 :STEP
NULL        .                                           -999.2500 :NULL VALUE
COMP        .                                   PEMEX EXPL & PROD :COMPANY
WELL        .                                                 77A :WELL
FLD         .                                           CANTARELL :FIELD
LOC         .                                             UNKNOWN :LOCATION
CNTY        .                                      CD. DEL CARMEN :COUNTY
STAT        .                                            CAMPECHE :STATE
CTRY        .                                              MEXICO :COUNTRY
SRVC        .                                             UNKNOWN :SERVICE COMPANY
DATE        .                                             UNKNOWN :LOG DATE
UWI         .                                          3060000181 :UNIQUE WELL ID
XCOORD      .                                       602151.310000 :SURFACE X
YCOORD      .                                      2147165.430000 :SURFACE Y
LAT         .                                           19.417331 :LATITUDE
LON         .                                          -92.027040 :LONGITUDE
ELEV        .M                                            28.1700 :SURFACE ELEV
ELEV_TYPE   .                                                  KB :ELEV TYPE
~CURVE INFORMATION
#MNEMONIC.UNIT        API CODE       : CURVE DESCRIPTION
#------------------------------------------------------------------------------
DEPTH    .M                          : Measured Depth
CALI     .inches      UNKNOWN        : CALI:UNKNOWN:rC:NONE:v0 (auto-composite)
DRHO     .UNKNOWN     UNKNOWN        : DRHO:PETROWORKS:rC:NONE:v1 
DT       .us/ft       UNKNOWN        : DT:DT:rC:NONE:v0 (auto-composite)
GR       .API         UNKNOWN        : GR:UNKNOWN:rC:NONE:v0 (auto-composite)
ILD      .UNKNOWN     UNKNOWN        : ILD:UNKNOWN:rC:NONE:v0 (auto-composite)
LLD      .ohm.m       UNKNOWN        : LLD:UNKNOWN:rC:NONE:v0 (auto-composite)
LLS      .ohm.m       UNKNOWN        : LLS:UNKNOWN:rC:NONE:v0 (auto-composite)
MSFL     .ohm.m       UNKNOWN        : MSFL:UNKNOWN:rC:NONE:v0 (auto-composite)
NPHI     .v/v_decimal UNKNOWN        : NPHI:PETROWORKS:rC:NONE:v1 
RHOB     .UNKNOWN     UNKNOWN        : RHOB:PETROWORKS:rC:NONE:v1 
SP       .UNKNOWN     UNKNOWN        : SP:UNKNOWN:rC:NONE:v0 (auto-composite)
~A     DEPTH         CALI         DRHO           DT           GR          ILD          LLD          LLS         MSFL         NPHI         RHOB           SP
# ...
    564.2611      22.8560       0.0268     124.8387      43.0614       1.3804    -999.2500    -999.2500    -999.2500       0.3394       2.2383     104.3318
    564.4135      22.8560       0.0312     125.0852      42.3032       1.3676    -999.2500    -999.2500    -999.2500       0.3408       2.2432     104.2781
    564.5659      22.8560       0.0396     125.7622      39.1249       1.3430    -999.2500    -999.2500    -999.2500       0.3471       2.2502     104.2239
    564.7183      22.8560       0.0553     126.8667      36.8178       1.3213    -999.2500    -999.2500    -999.2500       0.3582       2.2511     104.0970
    564.8707      22.8560       0.0795     126.3374      37.5046       1.3093    -999.2500    -999.2500    -999.2500       0.3614       2.2431     103.7201
    565.0231      22.8590       0.0926     124.1855      38.1151       1.2993    -999.2500    -999.2500    -999.2500       0.3567       2.2319     103.4921
    565.1755      22.8720       0.0877     123.7456      38.4710       1.2963    -999.2500    -999.2500    -999.2500       0.3545       2.2196     103.7613
    565.3279      22.8820       0.0765     125.0035      38.8088       1.2919    -999.2500    -999.2500    -999.2500       0.3547       2.2139     104.0560
    565.4803      22.8820       0.0639     129.0105      39.0880       1.2829    -999.2500    -999.2500    -999.2500       0.3631       2.2174     104.4334
    565.6327      22.8853       0.0514     135.7448      39.4226       1.2774    -999.2500    -999.2500    -999.2500       0.3796       2.2165     104.6681
    565.7851      22.8988       0.0397     138.5399      39.9315       1.2835    -999.2500    -999.2500    -999.2500       0.3860       2.2065     104.4525
    565.9375      22.9057       0.0351     137.4259      40.7095       1.2947    -999.2500    -999.2500    -999.2500       0.3822       2.2011     104.2501
    566.0899      22.8921       0.0397     134.6872      42.3106       1.3217    -999.2500    -999.2500    -999.2500       0.3735       2.2051     104.0882
    566.2423      22.8820       0.0413     130.3359      43.1382       1.3420    -999.2500    -999.2500    -999.2500       0.3598       2.2114     104.0212
    566.3947      22.8820       0.0356     128.6199      41.6639       1.3420    -999.2500    -999.2500    -999.2500       0.3494       2.2175     104.2368
    566.5471      22.8855       0.0315     129.5203      40.2548       1.3366    -999.2500    -999.2500    -999.2500       0.3422       2.2228     104.3417
    566.6995      22.8990       0.0319     129.5886      39.0347       1.3155    -999.2500    -999.2500    -999.2500       0.3378       2.2270     104.1261
    566.8519      22.9020       0.0418     128.8305      38.1673       1.2968    -999.2500    -999.2500    -999.2500       0.3361       2.2236     103.8541
    567.0043      22.8755       0.0627     126.9935      38.2947       1.2848    -999.2500    -999.2500    -999.2500       0.3314       2.2104     103.4229
    567.1567      22.8560       0.0675     124.0866      38.7822       1.2721    -999.2500    -999.2500    -999.2500       0.3238       2.1916     103.1791
    567.3091      22.8560       0.0483     123.5022      40.2564       1.2576    -999.2500    -999.2500    -999.2500       0.3334       2.1685     103.4488
    567.4615      22.8596       0.0386     125.2216      41.5645       1.2447    -999.2500    -999.2500    -999.2500       0.3603       2.1639     103.6744
    567.6139      22.8726       0.0485     129.2015      42.4287       1.2362    -999.2500    -999.2500    -999.2500       0.3736       2.1841     103.7821
    567.7663      22.8820       0.0522     135.4243      43.0036       1.2372    -999.2500    -999.2500    -999.2500       0.3735       2.1965     103.8600
    567.9187      22.8820       0.0424     138.0871      42.8256       1.2633    -999.2500    -999.2500    -999.2500       0.3663       2.1915     103.8600
    568.0711      22.8858       0.0321     137.2167      42.5252       1.2959    -999.2500    -999.2500    -999.2500       0.3520       2.1929     103.9210
    568.2235      22.8994       0.0253     135.3544      41.9152       1.3450    -999.2500    -999.2500    -999.2500       0.3467       2.2075     104.1366
    568.3759      22.9013       0.0203     132.5075      41.2390       1.3942    -999.2500    -999.2500    -999.2500       0.3504       2.2242     104.2900
    568.5283      22.8748       0.0165     130.4273      40.3999       1.4433    -999.2500    -999.2500    -999.2500       0.3514       2.2400     104.2900
    568.6807      22.8638       0.0158     129.1086      39.2327       1.4851    -999.2500    -999.2500    -999.2500       0.3499       2.2527     104.2584
    568.8331      22.8904       0.0185     127.0956      37.2756       1.5091    -999.2500    -999.2500    -999.2500       0.3456       2.2620     104.1506
    568.9855      22.9050       0.0214     124.3942      36.0548       1.5324    -999.2500    -999.2500    -999.2500       0.3387       2.2665     104.0588
    569.1379      22.8914       0.0236     120.4533      36.5632       1.5540    -999.2500    -999.2500    -999.2500       0.3261       2.2660     104.0047
    569.2903      22.8780       0.0228     115.2830      37.7521       1.5757    -999.2500    -999.2500    -999.2500       0.3078       2.2650     103.9014
    569.4427      22.8650       0.0185     112.8616      40.4976       1.5978    -999.2500    -999.2500    -999.2500       0.2988       2.2643     103.6859
    569.5951      22.8560       0.0141     113.1676      42.1659       1.6177    -999.2500    -999.2500    -999.2500       0.2991       2.2645     103.5037
    569.7475      22.8560       0.0104     114.6229      41.4285       1.6327    -999.2500    -999.2500    -999.2500       0.3043       2.2653     103.3959
    569.8999      22.8560       0.0114     117.2188      40.7551       1.6394    -999.2500    -999.2500    -999.2500       0.3144       2.2690     103.3390
    570.0523      22.8560       0.0179     118.2756      40.2213       1.6278    -999.2500    -999.2500    -999.2500       0.3174       2.2759     103.3932
    570.2047      22.8560       0.0326     117.8047      39.4436       1.6224    -999.2500    -999.2500    -999.2500       0.3133       2.2863     103.6023
    570.3571      22.8560       0.0560     115.7350      38.1470       1.6299    -999.2500    -999.2500    -999.2500       0.2984       2.3001     104.1413
    570.5095      22.8646       0.0668     112.0782      38.0902       1.6374    -999.2500    -999.2500    -999.2500       0.2729       2.3051     104.5576
    570.6619      22.8912       0.0604     110.6364      40.6067       1.6450    -999.2500    -999.2500    -999.2500       0.2621       2.2987     104.7196
    570.8143      22.9002       0.0459     111.3945      42.5019       1.6377    -999.2500    -999.2500    -999.2500       0.2661       2.2864     104.8457
    570.9667      22.8737       0.0254     114.6191      43.1376       1.6007    -999.2500    -999.2500    -999.2500       0.2850       2.2697     104.8994
    571.1191      22.8649       0.0114     120.2899      42.9120       1.5699    -999.2500    -999.2500    -999.2500       0.3187       2.2631     104.9170
    571.2715      22.8915       0.0063     122.9747      40.9800       1.5519    -999.2500    -999.2500    -999.2500       0.3331       2.2694     104.8634
    571.4239      22.9090       0.0062     122.6972      39.3597       1.5450    -999.2500    -999.2500    -999.2500       0.3284       2.2724     104.8096
    571.5763      22.9090       0.0100     120.9719      38.3429       1.5595    -999.2500    -999.2500    -999.2500       0.3150       2.2690     104.7554
    571.7287      22.8998       0.0103     117.8101      37.6251       1.5752    -999.2500    -999.2500    -999.2500       0.2928       2.2625     104.7200
    571.8811      22.8732       0.0056     116.4400      37.4722       1.5933    -999.2500    -999.2500    -999.2500       0.2821       2.2539     104.7200
    572.0335      22.8606       0.0048     116.8485      37.8373       1.6038    -999.2500    -999.2500    -999.2500       0.2830       2.2558     104.7012
