#------------------------------------------------------------------------------
#
#   Created by  : [OpenWorks] Log Export Utility (LEXP)
#   Created on  : 2016-05-12 17:01:19
#   Project     : CANT971
#   User        : R5K
#   Interpreter : PEP
#
#------------------------------------------------------------------------------
~VERSION INFORMATION
VERS. 2.0 : CWLS Log ASCII Standard - version 2.0
WRAP.  NO : One line per depth step
~WELL INFORMATION
#MNEMONIC   .UNIT                                           VALUE :DESCRIPTION
#------------------------------------------------------------------------------
STRT        .M                                           335.5854 :START DEPTH
STOP        .M                                          2510.4858 :STOP DEPTH
STEP        .M                                             0.1524 :STEP
NULL        .                                           -999.2500 :NULL VALUE
COMP        .                                   PEMEX EXPL & PROD :COMPANY
WELL        .                                                  35 :WELL
FLD         .                                           CANTARELL :FIELD
LOC         .                                             UNKNOWN :LOCATION
CNTY        .                                      CD. DEL CARMEN :COUNTY
STAT        .                                            CAMPECHE :STATE
CTRY        .                                              MEXICO :COUNTRY
SRVC        .                                             UNKNOWN :SERVICE COMPANY
DATE        .                                             UNKNOWN :LOG DATE
UWI         .                                          3060000159 :UNIQUE WELL ID
XCOORD      .                                       602147.900000 :SURFACE X
YCOORD      .                                      2147168.470000 :SURFACE Y
LAT         .                                           19.417359 :LATITUDE
LON         .                                          -92.027072 :LONGITUDE
ELEV        .M                                            28.1700 :SURFACE ELEV
ELEV_TYPE   .                                                  KB :ELEV TYPE
~CURVE INFORMATION
#MNEMONIC.UNIT        API CODE       : CURVE DESCRIPTION
#------------------------------------------------------------------------------
DEPTH    .M                          : Measured Depth
CALI     .inches      UNKNOWN        : CALI:Import:rC:NONE:v0 (auto-composite)
DRHO     .g/cm3       UNKNOWN        : DRHO:Import:rC:NONE:v0 (auto-composite)
DT       .us/ft       UNKNOWN        : DT:Import:rC:NONE:v0 (auto-composite)
GR       .API         UNKNOWN        : GR:Import:rC:NONE:v0 (auto-composite)
ILD      .ohm.m       UNKNOWN        : ILD:Import:rC:NONE:v0 (auto-composite)
LLD      .ohm.m       UNKNOWN        : LLD:Import:rC:NONE:v0 (auto-composite)
LLS      .ohm.m       UNKNOWN        : LLS:Import:rC:NONE:v0 (auto-composite)
MSFL     .ohm.m       UNKNOWN        : MSFL:Import:rC:NONE:v0 (auto-composite)
NPHI     .v/v_decimal UNKNOWN        : NPHI:Import:rC:NONE:v0 (auto-composite)
RHOB     .g/cm3       UNKNOWN        : RHOB:Import:rC:NONE:v0 (auto-composite)
SP       .mV          UNKNOWN        : SP:Import:rC:NONE:v0 (auto-composite)
~A     DEPTH         CALI         DRHO           DT           GR          ILD          LLD          LLS         MSFL         NPHI         RHOB           SP
# ...
   2300.9358       5.3900   -1998.5000      61.6190      34.7460    -999.2500     401.8400     266.5500      36.5690    -999.2500    -999.2500    -999.2500
   2301.0881       5.3900   -1998.5000      55.4368      34.3004    -999.2500     407.2212     268.9284      49.0659    -999.2500    -999.2500    -999.2500
   2301.2405       5.3900   -1998.5000      49.3400      33.8610    -999.2500     412.5280     271.2740      61.3900    -999.2500    -999.2500    -999.2500
   2301.3931       5.3900   -1998.5000      49.5389      32.4972    -999.2500     442.3925     287.8943      60.9842    -999.2500    -999.2500    -999.2500
   2301.5454       5.3900   -1998.5000      49.7350      31.1520    -999.2500     471.8480     304.2870      60.5840    -999.2500    -999.2500    -999.2500
   2301.6978       5.3900   -1998.5000      52.6020      28.5483    -999.2500     552.5569     345.9060      57.8796    -999.2500    -999.2500    -999.2500
   2301.8501       5.3900   -1998.5000      55.4300      25.9800    -999.2500     632.1700     386.9600      55.2120    -999.2500    -999.2500    -999.2500
   2302.0027       5.3900   -1998.5000      55.2669      26.4602    -999.2500     622.4547     381.5084      43.2053    -999.2500    -999.2500    -999.2500
   2302.1550       5.3900   -1998.5000      55.1060      26.9340    -999.2500     612.8700     376.1300      31.3600    -999.2500    -999.2500    -999.2500
   2302.3074       5.3981   -1998.5000      53.4067      29.0712    -999.2500     566.3248     349.7391      33.5325    -999.2500    -999.2500    -999.2500
   2302.4597       5.4060   -1998.5000      51.7300      31.1800    -999.2500     520.4000     323.7000      35.6760    -999.2500    -999.2500    -999.2500
   2302.6123       5.4533   -1998.5000      52.0390      31.1548    -999.2500     457.9832     288.3870      63.5922    -999.2500    -999.2500    -999.2500
   2302.7646       5.5000   -1998.5000      52.3440      31.1300    -999.2500     396.3900     253.5400      91.1400    -999.2500    -999.2500    -999.2500
   2302.9170       5.4894   -1998.5000      53.8997      31.9604    -999.2500     403.7547     258.9146      89.4585    -999.2500    -999.2500    -999.2500
   2303.0693       5.4790   -1998.5000      55.4350      32.7800    -999.2500     411.0230     264.2190      87.7990    -999.2500    -999.2500    -999.2500
   2303.2217       5.4241   -1998.5000      57.5378      32.6778    -999.2500     474.0546     304.8174      79.7620    -999.2500    -999.2500    -999.2500
   2303.3743       5.3700   -1998.5000      59.6100      32.5770    -999.2500     536.2700     344.8900      71.8290    -999.2500    -999.2500    -999.2500
   2303.5266       5.3765   -1998.5000      60.9386      31.9319    -999.2500     531.1230     341.1717      53.2503    -999.2500    -999.2500    -999.2500
   2303.6790       5.3830   -1998.5000      62.2480      31.2960    -999.2500     526.0420     337.5010      34.9100    -999.2500    -999.2500    -999.2500
   2303.8313       5.4167   -1998.5000      68.6447      30.0541    -999.2500     498.6823     325.2935      36.4644    -999.2500    -999.2500    -999.2500
   2303.9839       5.4500   -1998.5000      74.9500      28.8300    -999.2500     471.6700     313.2410      37.9990    -999.2500    -999.2500    -999.2500
   2304.1362       5.4198   -1998.5000      74.8896      29.9630    -999.2500     472.7418     306.4367      56.9085    -999.2500    -999.2500    -999.2500
   2304.2886       5.3900   -1998.5000      74.8300      31.0800    -999.2500     473.8000     299.7180      75.5800    -999.2500    -999.2500    -999.2500
   2304.4409       5.3940   -1998.5000      74.5510      30.0981    -999.2500     453.9254     289.9756      69.5980    -999.2500    -999.2500    -999.2500
   2304.5935       5.3980   -1998.5000      74.2760      29.1300    -999.2500     434.3300     280.3700      63.7000    -999.2500    -999.2500    -999.2500
   2304.7458       5.4131   -1998.5000      72.7851      29.2211    -999.2500     437.2669     282.0854      87.8832    -999.2500    -999.2500    -999.2500
   2304.8982       5.4280   -1998.5000      71.3150      29.3110    -999.2500     440.1630     283.7770     111.7300    -999.2500    -999.2500    -999.2500
   2305.0505       5.4391   -1998.5000      67.0400      30.3275    -999.2500     449.8433     289.1450     110.5040    -999.2500    -999.2500    -999.2500
   2305.2029       5.4500   -1998.5000      62.8240      31.3300    -999.2500     459.3900     294.4390     109.2950    -999.2500    -999.2500    -999.2500
   2305.3555       5.4500   -1998.5000      59.1620      29.9707    -999.2500     466.5237     298.7932      97.0942    -999.2500    -999.2500    -999.2500
   2305.5078       5.4500   -1998.5000      55.5500      28.6300    -999.2500     473.5600     303.0880      85.0600    -999.2500    -999.2500    -999.2500
   2305.6602       5.4565   -1998.5000      55.6421      28.6899    -999.2500     495.7226     341.7811      65.3676    -999.2500    -999.2500    -999.2500
   2305.8125       5.4630   -1998.5000      55.7330      28.7490    -999.2500     517.5850     379.9500      45.9420    -999.2500    -999.2500    -999.2500
   2305.9651       5.4816   -1998.5000      56.3275      28.9287    -999.2500     546.7426     373.0336      33.7593    -999.2500    -999.2500    -999.2500
   2306.1174       5.5000   -1998.5000      56.9140      29.1060    -999.2500     575.5090     366.2100      21.7400    -999.2500    -999.2500    -999.2500
   2306.2698       5.5000   -1998.5000      58.1286      30.4520    -999.2500     577.5063     366.6590      22.5539    -999.2500    -999.2500    -999.2500
   2306.4221       5.5000   -1998.5000      59.3270      31.7800    -999.2500     579.4770     367.1020      23.3570    -999.2500    -999.2500    -999.2500
   2306.5747       5.5000   -1998.5000      62.0011      31.3426    -999.2500     587.7278     375.3352      27.1268    -999.2500    -999.2500    -999.2500
   2306.7271       5.5000   -1998.5000      64.6400      30.9110    -999.2500     595.8700     383.4600      30.8470    -999.2500    -999.2500    -999.2500
   2306.8794       5.5000   -1998.5000      64.3818      28.5300    -999.2500     554.9077     374.1135      36.7193    -999.2500    -999.2500    -999.2500
   2307.0317       5.5000   -1998.5000      64.1270      26.1800    -999.2500     514.4800     364.8890      42.5150    -999.2500    -999.2500    -999.2500
   2307.1841       5.5000   -1998.5000      61.4138      26.2631    -999.2500     514.4800     340.2957      50.2625    -999.2500    -999.2500    -999.2500
   2307.3367       5.5000   -1998.5000      58.7400      26.3450    -999.2500     514.4800     316.0200      57.9100    -999.2500    -999.2500    -999.2500
   2307.4890       5.5000   -1998.5000      59.0527      26.5963    -999.2500     530.7854     326.4971      49.1992    -999.2500    -999.2500    -999.2500
   2307.6414       5.5000   -1998.5000      59.3610      26.8440    -999.2500     546.8820     336.8400      40.6000    -999.2500    -999.2500    -999.2500
   2307.7937       5.5000   -1998.5000      63.6712      27.0570    -999.2500     625.8060     435.0622      43.9658    -999.2500    -999.2500    -999.2500
   2307.9463       5.5000   -1998.5000      67.9200      27.2670    -999.2500     703.7300     532.0400      47.2890    -999.2500    -999.2500    -999.2500
   2308.0986       5.4849   -1998.5000      67.8999      27.9730    -999.2500     794.3690     526.6049      71.2701    -999.2500    -999.2500    -999.2500
   2308.2510       5.4700   -1998.5000      67.8800      28.6690    -999.2500     883.8700     521.2380      94.9500    -999.2500    -999.2500    -999.2500
   2308.4033       5.4700   -1998.5000      69.3856      30.0592    -999.2500     844.5898     483.0675      88.3140    -999.2500    -999.2500    -999.2500
   2308.5559       5.4700   -1998.5000      70.8700      31.4300    -999.2500     805.8600     445.4320      81.7710    -999.2500    -999.2500    -999.2500
   2308.7083       5.4806   -1998.5000      70.1807      30.7251    -999.2500     703.9357     386.2448      65.7176    -999.2500    -999.2500    -999.2500
