#------------------------------------------------------------------------------
#
#   Created by  : [OpenWorks] Log Export Utility (LEXP)
#   Created on  : 2016-05-12 17:01:16
#   Project     : CANT971
#   User        : R5K
#   Interpreter : PEP
#
#------------------------------------------------------------------------------
~VERSION INFORMATION
VERS. 2.0 : CWLS Log ASCII Standard - version 2.0
WRAP.  NO : One line per depth step
~WELL INFORMATION
#MNEMONIC   .UNIT                                           VALUE :DESCRIPTION
#------------------------------------------------------------------------------
STRT        .M                                          4907.2798 :START DEPTH
STOP        .M                                          5813.7549 :STOP DEPTH
STEP        .M                                             0.1524 :STEP
NULL        .                                           -999.2500 :NULL VALUE
COMP        .                                   PEMEX EXPL & PROD :COMPANY
WELL        .                                            3026D_ST :WELL
FLD         .                                           CANTARELL :FIELD
LOC         .                                             UNKNOWN :LOCATION
CNTY        .                                      CD. DEL CARMEN :COUNTY
STAT        .                                            CAMPECHE :STATE
CTRY        .                                              MEXICO :COUNTRY
SRVC        .                                             UNKNOWN :SERVICE COMPANY
DATE        .                                             UNKNOWN :LOG DATE
UWI         .                                      3060000820D_ST :UNIQUE WELL ID
XCOORD      .                                       601717.200000 :SURFACE X
YCOORD      .                                      2148573.570000 :SURFACE Y
LAT         .                                           19.430078 :LATITUDE
LON         .                                          -92.031099 :LONGITUDE
ELEV        .M                                            30.0000 :SURFACE ELEV
ELEV_TYPE   .                                                  KB :ELEV TYPE
~CURVE INFORMATION
#MNEMONIC.UNIT        API CODE       : CURVE DESCRIPTION
#------------------------------------------------------------------------------
DEPTH    .M                          : Measured Depth
CALI     .inches      UNKNOWN        : CALI:registros:rC:NONE:v0 (auto-composite)
CGR      .API         UNKNOWN        : CGR:registros:rC:NONE:v0 (auto-composite)
DRHO     .g/cm3       UNKNOWN        : DRHO:registros:rC:NONE:v0 (auto-composite)
DT       .us/ft       UNKNOWN        : DT:registros:rC:NONE:v0 (auto-composite)
GR       .API         UNKNOWN        : GR:registros:rC:NONE:v0 (auto-composite)
ILD      .ohm.m       UNKNOWN        : ILD:registros:rC:NONE:v0 (auto-composite)
ILM      .ohm.m       UNKNOWN        : ILM:registros:rC:NONE:v0 (auto-composite)
NPHI     .UNKNOWN     UNKNOWN        : NPHI:registros:rC:NONE:v0 (auto-composite)
PEF      .b/elec      UNKNOWN        : PEF:registros:rC:NONE:v0 (auto-composite)
POTA     .UNKNOWN     UNKNOWN        : POTA:registros:rC:NONE:v0 (auto-composite)
RHOB     .g/cm3       UNKNOWN        : RHOB:registros:rC:NONE:v0 (auto-composite)
THOR     .ppm         UNKNOWN        : THOR:registros:rC:NONE:v0 (auto-composite)
URAN     .ppm         UNKNOWN        : URAN:registros:rC:NONE:v0 (auto-composite)
~A     DEPTH         CALI          CGR         DRHO           DT           GR          ILD          ILM         NPHI          PEF         POTA         RHOB         THOR         URAN
# ...
   4987.7471    -999.2500      17.4940    -999.2500      57.2118      54.7149    -999.2500    -999.2500    -999.2500    -999.2500       0.0080    -999.2500       1.8899       5.4249
   4987.8994    -999.2500      17.5390    -999.2500      57.2598      48.6486    -999.2500    -999.2500    -999.2500    -999.2500       0.0088    -999.2500       1.5382       4.5342
   4988.0518    -999.2500      17.1750    -999.2500      57.1823      47.8672    -999.2500    -999.2500    -999.2500    -999.2500       0.0087    -999.2500       1.4762       4.4734
   4988.2041    -999.2500      18.7808    -999.2500      57.1176      50.1675    -999.2500    -999.2500    -999.2500    -999.2500       0.0090    -999.2500       1.8206       4.5746
   4988.3564    -999.2500      16.9899    -999.2500      57.3173      47.4629    -999.2500    -999.2500    -999.2500    -999.2500       0.0084    -999.2500       1.5712       4.4414
   4988.5088    -999.2500      18.1957    -999.2500      57.4745      49.5295    -999.2500    -999.2500    -999.2500    -999.2500       0.0086    -999.2500       1.8202       4.5669
   4988.6616    -999.2500      19.5903    -999.2500      57.6318      51.7407    -999.2500    -999.2500    -999.2500    -999.2500       0.0092    -999.2500       2.0142       4.6859
   4988.8140    -999.2500      20.9290    -999.2500      57.3036      53.8032    -999.2500    -999.2500    -999.2500    -999.2500       0.0095    -999.2500       2.2836       4.7914
   4988.9663    -999.2500      21.0530    -999.2500      57.2824      54.6287    -999.2500    -999.2500    -999.2500    -999.2500       0.0091    -999.2500       2.4727       4.8937
   4989.1187    -999.2500      22.7350    -999.2500      57.3860      57.1772    -999.2500    -999.2500    -999.2500    -999.2500       0.0097    -999.2500       2.7478       5.0199
   4989.2710    -999.2500      24.4596    -999.2500      57.7517      61.9518    -999.2500    -999.2500    -999.2500    -999.2500       0.0102    -999.2500       3.0375       5.4645
   4989.4233    -999.2500      23.9492    -999.2500      59.0887      61.9856    -999.2500    -999.2500    -999.2500    -999.2500       0.0100    -999.2500       2.9867       5.5438
   4989.5757    -999.2500      25.7841    -999.2500      58.9951      65.1168    -999.2500    -999.2500    -999.2500    -999.2500       0.0108    -999.2500       3.1880       5.7327
   4989.7280    -999.2500      28.6321    -999.2500      59.3413      70.1318    -999.2500    -999.2500    -999.2500    -999.2500       0.0123    -999.2500       3.3848       6.0486
   4989.8804    -999.2500      28.0225    -999.2500      59.0321      69.3122    -999.2500    -999.2500    -999.2500    -999.2500       0.0123    -999.2500       3.2090       6.0180
   4990.0332    -999.2500      26.2012    -999.2500      58.7228      66.4622    -999.2500    -999.2500    -999.2500    -999.2500       0.0120    -999.2500       2.8033       5.8681
   4990.1855    -999.2500      26.8247    -999.2500      58.4789      67.4512    -999.2500    -999.2500    -999.2500    -999.2500       0.0121    -999.2500       2.9315       5.9213
   4990.3379    -999.2500      28.7798    -999.2500      56.1648      70.7526    -999.2500    -999.2500    -999.2500    -999.2500       0.0125    -999.2500       3.3849       6.1175
   4990.4902    -999.2500      30.0018    -999.2500      56.5110      72.5457    -999.2500    -999.2500    -999.2500    -999.2500       0.0127    -999.2500       3.6525       6.2008
   4990.6426    -999.2500      30.0370    -999.2500      57.3894      72.6333    -999.2500    -999.2500    -999.2500    -999.2500       0.0126    -999.2500       3.7046       6.2084
   4990.7949    -999.2500      28.9470    -999.2500      57.2080      71.0249    -999.2500    -999.2500    -999.2500    -999.2500       0.0118    -999.2500       3.7092       6.1329
   4990.9473    -999.2500      27.3999    -999.2500      57.0143      68.8099    -999.2500    -999.2500    -999.2500    -999.2500       0.0110    -999.2500       3.5947       6.0355
   4991.0996    -999.2500      24.5516    -999.2500      56.7142      63.5822    -999.2500    -999.2500    -999.2500    -999.2500       0.0102    -999.2500       3.0859       5.6887
   4991.2520    -999.2500      21.2246    -999.2500      56.7953      58.3363    -999.2500    -999.2500    -999.2500    -999.2500       0.0088    -999.2500       2.6535       5.4090
   4991.4048    -999.2500      21.7523    -999.2500      56.8764      58.9696    -999.2500    -999.2500    -999.2500    -999.2500       0.0092    -999.2500       2.6445       5.4244
   4991.5571    -999.2500      18.2002    -999.2500      57.3638      52.6392    -999.2500    -999.2500    -999.2500    -999.2500       0.0078    -999.2500       2.1539       5.0195
   4991.7095    -999.2500      22.0265    -999.2500      58.1685      65.7130    -999.2500    -999.2500    -999.2500    -999.2500       0.0091    -999.2500       2.7846       6.3673
   4991.8618       6.6257      23.7361    -999.2500      58.0858      68.0775      90.6974      25.7856       0.2633    -999.2500       0.0098       2.0745       2.9908       6.4628
   4992.0142       6.6251      22.9272    -999.2500      56.8507      66.6553     110.7419      27.4635       0.2593    -999.2500       0.0097       2.1057       2.7729       6.3734
   4992.1665       6.6266      22.9640    -999.2500      56.4965      66.4004     135.0005      29.0496       0.2517    -999.2500       0.0098       2.1582       2.7545       6.3309
   4992.3188       6.6269      22.2108    -999.2500      56.6877      65.1210     154.5024      30.1610       0.2488    -999.2500       0.0095       2.1907       2.6375       6.2542
   4992.4712       6.6251      20.5535    -999.2500      56.6293      62.5955     158.7622      30.5639       0.2447    -999.2500       0.0088       2.2116       2.4413       6.1276
   4992.6240       6.6266      17.8946    -999.2500      56.5709      58.0838     148.3082      30.2950       0.2407    -999.2500       0.0077       2.1932       2.1407       5.8576
   4992.7764       6.6274      17.8057    -999.2500      57.1680      57.4583     132.9801      29.6315       0.2445    -999.2500       0.0075       2.1416       2.1756       5.7794
   4992.9287       6.6274      18.6878    -999.2500      57.0424      58.5067     120.5426      28.9504       0.2461    -999.2500       0.0077       2.0994       2.3527       5.8036
   4993.0811       6.6260      22.0525    -999.2500      57.9594      63.2065     113.5034      28.5283       0.2507    -999.2500       0.0089       2.1242       2.8836       5.9982
   4993.2334       6.6251      17.7856    -999.2500      57.5606      54.7740     111.1545      28.4138       0.2422    -999.2500       0.0074       2.1958       2.2049       5.3911
   4993.3857       6.6266      15.8236    -999.2500      58.9123      51.7853     111.6227      28.4698       0.2336    -999.2500       0.0065       2.2910       2.0058       5.2414
   4993.5381       6.6289      16.3926    -999.2500      58.3718      52.4557     113.0858      28.5271       0.2226    -999.2500       0.0067       2.2685       2.1131       5.2562
   4993.6904       6.6287      12.8235    -999.2500      57.8151      47.9230     114.8581      28.5488       0.2190    -999.2500       0.0053       2.2167       1.6012       5.1158
   4993.8428       6.6303      15.8532    -999.2500      57.3863      53.0419     117.4544      28.6279       0.2206    -999.2500       0.0060       2.1692       2.2364       5.4203
   4993.9956       6.6310      15.1830    -999.2500      56.9575      52.1256     121.2322      28.8330       0.2214    -999.2500       0.0053       2.1672       2.3150       5.3844
   4994.1479       6.6301      13.1863    -999.2500      56.3089      49.3028     124.8351      29.0690       0.2236    -999.2500       0.0045       2.1754       2.0496       5.2640
   4994.3003       6.6287      13.5312    -999.2500      58.1476      49.9745     125.2455      29.0982       0.2296    -999.2500       0.0047       2.1805       2.0944       5.3116
