#------------------------------------------------------------------------------
#
#   Created by  : [OpenWorks] Log Export Utility (LEXP)
#   Created on  : 2016-05-23 11:56:46
#   Project     : CANT971
#   User        : R5K
#   Interpreter : PEP
#
#------------------------------------------------------------------------------
~VERSION INFORMATION
VERS. 2.0 : CWLS Log ASCII Standard - version 2.0
WRAP.  NO : One line per depth step
~WELL INFORMATION
#MNEMONIC   .UNIT                                           VALUE :DESCRIPTION
#------------------------------------------------------------------------------
STRT        .M                                           170.6880 :START DEPTH
STOP        .M                                          2221.8396 :STOP DEPTH
STEP        .M                                             0.1524 :STEP
NULL        .                                           -999.2500 :NULL VALUE
COMP        .                                   PEMEX EXPL & PROD :COMPANY
WELL        .                                                  51 :WELL
FLD         .                                           CANTARELL :FIELD
LOC         .                                             UNKNOWN :LOCATION
CNTY        .                                      CD. DEL CARMEN :COUNTY
STAT        .                                            CAMPECHE :STATE
CTRY        .                                              MEXICO :COUNTRY
SRVC        .                                             UNKNOWN :SERVICE COMPANY
DATE        .                                             UNKNOWN :LOG DATE
UWI         .                                          3060000165 :UNIQUE WELL ID
XCOORD      .                                       599727.990000 :SURFACE X
YCOORD      .                                      2147220.270000 :SURFACE Y
LAT         .                                           19.417949 :LATITUDE
LON         .                                          -92.050116 :LONGITUDE
ELEV        .M                                            27.8000 :SURFACE ELEV
ELEV_TYPE   .                                                  KB :ELEV TYPE
~CURVE INFORMATION
#MNEMONIC.UNIT        API CODE       : CURVE DESCRIPTION
#------------------------------------------------------------------------------
DEPTH    .M                          : Measured Depth
CAL      .inches      UNKNOWN        : CAL:CAL-Load:rC:NONE:v0 (auto-composite)
DRHO     .UNKNOWN     UNKNOWN        : DRHO:DRHO-Load:rC:NONE:v0 (auto-composite)
DT       .us/ft       UNKNOWN        : DT:DT:rC:NONE:v0 (auto-composite)
GR       .UNKNOWN     UNKNOWN        : GR:GR-Load:rC:NONE:v0 (auto-composite)
ILD      .UNKNOWN     UNKNOWN        : ILD:ILD-Load:rC:NONE:v0 (auto-composite)
NPHI     .v/v_decimal UNKNOWN        : NPHI:NPHI:rC:NONE:v0 (auto-composite)
RHOB     .UNKNOWN     UNKNOWN        : RHOB:RHOB-Load:rC:NONE:v0 (auto-composite)
SN       .UNKNOWN     UNKNOWN        : SN:SN-Load:rC:NONE:v0 (auto-composite)
~A     DEPTH          CAL         DRHO           DT           GR          ILD         NPHI         RHOB           SN
# ...
    759.5616      12.4610      -0.0340     136.6770      36.1400       1.1340      48.0800       2.3430       1.0240
    759.7140      12.4956      -0.0320     137.8074      36.0950       1.1380      48.4855       2.3375       1.0180
    759.8664      12.5300      -0.0300     138.9380      36.0500       1.1420      48.8910       2.3320       1.0120
    760.0188      12.5220      -0.0195     140.1445      36.0535       1.1460      48.1800       2.3260       1.0160
    760.1712      12.5140      -0.0090     141.3510      36.0570       1.1500      47.4690       2.3200       1.0200
    760.3236      12.4518      -0.0100     140.0565      36.2466       1.1545      46.4630       2.3215       1.0220
    760.4760      12.3900      -0.0110     138.7620      36.4360       1.1590      45.4570       2.3230       1.0240
    760.6284      12.3499      -0.0110     137.4461      36.5996       1.1565      45.5675       2.3365       1.0230
    760.7808      12.3100      -0.0110     136.1300      36.7630       1.1540      45.6780       2.3500       1.0220
    760.9332      12.3195      -0.0245     136.2035      36.6549       1.1380      46.4015       2.3370       1.0170
    761.0856      12.3290      -0.0380     136.2770      36.5470       1.1220      47.1250       2.3240       1.0120
    761.2380      12.2769      -0.0355     136.8169      36.4034       1.1025      48.1287       2.3145       1.0070
    761.3904      12.2250      -0.0330     137.3570      36.2600       1.0830      49.1320       2.3050       1.0020
    761.5428      12.1994      -0.0280     138.4904      36.0799       1.0665      49.7351       2.2980       0.9920
    761.6952      12.1740      -0.0230     139.6240      35.9000       1.0500      50.3380       2.2910       0.9820
    761.8476      12.1710      -0.0245     146.7349      35.9776       1.0365      50.7025       2.2955       0.9670
    762.0000      12.1680      -0.0260     153.8450      36.0550       1.0230      51.0670       2.3000       0.9520
    762.1524      12.2071      -0.0250     149.9660      35.9589       1.0090      50.8005       2.3020       0.9440
    762.3048      12.2460      -0.0240     146.0870      35.8630       0.9950      50.5340       2.3040       0.9360
    762.4572      12.2234      -0.0250     143.7622      35.8665       0.9985      49.9345       2.3090       0.9375
    762.6096      12.2010      -0.0260     141.4370      35.8700       1.0020      49.3350       2.3140       0.9390
    762.7620      12.1930      -0.0285     140.3536      35.9481       1.0105      48.3444       2.3210       0.9475
    762.9144      12.1850      -0.0310     139.2700      36.0260       1.0190      47.3540       2.3280       0.9560
    763.0668      12.2642      -0.0340     138.5786      36.0545       1.0330      46.7234       2.3310       0.9640
    763.2192      12.3430      -0.0370     137.8870      36.0830       1.0470      46.0930       2.3340       0.9720
    763.3716      12.3425      -0.0420     138.1080      36.0555       1.0560      46.4916       2.3315       0.9800
    763.5240      12.3420      -0.0470     138.3290      36.0280       1.0650      46.8900       2.3290       0.9880
    763.6764      12.3490      -0.0425     138.5000      35.9349       1.0735      47.5766       2.3345       0.9940
    763.8288      12.3560      -0.0380     138.6710      35.8420       1.0820      48.2630       2.3400       1.0000
    763.9812      12.4272      -0.0270     138.3260      35.7754       1.0900      48.5360       2.3450       1.0070
    764.1336      12.4980      -0.0160     137.9810      35.7090       1.0980      48.8090       2.3500       1.0140
    764.2860      12.4484      -0.0045     138.4720      35.8791       1.1070      49.3105       2.3520       1.0195
    764.4384      12.3990       0.0070     138.9630      36.0490       1.1160      49.8120       2.3540       1.0250
    764.5908      12.4481       0.0040     137.7431      36.5543       1.1285      49.5450       2.3555       1.0410
    764.7432      12.4970       0.0010     136.5230      37.0590       1.1410      49.2780       2.3570       1.0570
    764.8956      12.4669       0.0010     133.9025      37.6008       1.1635      48.8110       2.3600       1.0835
    765.0480      12.4370       0.0010     131.2810      38.1420       1.1860      48.3440       2.3630       1.1100
    765.2004      12.3573       0.0080     131.7724      38.2771       1.2145      47.9519       2.3675       1.1230
    765.3528      12.2780       0.0150     132.2640      38.4120       1.2430      47.5600       2.3720       1.1360
    765.5052      12.2925       0.0115     130.0132      38.1748       1.2710      47.0489       2.3860       1.1530
    765.6576      12.3070       0.0080     127.7620      37.9380       1.2990      46.5380       2.4000       1.1700
    765.8100      12.4158      -0.0025     123.5133      37.7879       1.3175      46.1300       2.4140       1.1920
    765.9624      12.5240      -0.0130     119.2650      37.6380       1.3360      45.7220       2.4280       1.2140
    766.1148      12.6619      -0.0105     120.8900      37.7896       1.3455      46.0100       2.4390       1.2335
    766.2672      12.7990      -0.0080     122.5150      37.9410       1.3550      46.2980       2.4500       1.2530
    766.4196      12.9324      -0.0015     126.7456      38.0316       1.3510      46.4815       2.4460       1.2425
    766.5720      13.0650       0.0050     130.9770      38.1220       1.3470      46.6650       2.4420       1.2320
    766.7244      12.9306      -0.0015     130.3486      38.7509       1.3370      47.3370       2.4270       1.2030
    766.8768      12.7970      -0.0080     129.7200      39.3790       1.3270      48.0090       2.4120       1.1740
    767.0292      12.7223      -0.0120     128.3783      39.6382       1.3065      48.3991       2.4150       1.1750
    767.1816      12.6480      -0.0160     127.0360      39.8970       1.2860      48.7890       2.4180       1.1760
    767.3340      12.6305      -0.0185     127.6619      39.1980       1.2670      48.4330       2.4130       1.1750
    767.4864      12.6130      -0.0210     128.2880      38.5000       1.2480      48.0770       2.4080       1.1740
    767.6388      12.5804      -0.0180     129.1996      38.0461       1.2385      48.4305       2.4030       1.1575
    767.7912      12.5480      -0.0150     130.1110      37.5930       1.2290      48.7840       2.3980       1.1410
    767.9436      12.5079      -0.0175     130.5895      37.4008       1.2240      48.3395       2.3910       1.1425
    768.0960      12.4680      -0.0200     131.0680      37.2090       1.2190      47.8950       2.3840       1.1440
    768.2484      12.4279      -0.0215     130.6730      37.4532       1.2170      47.5690       2.3666       1.1485
    768.4008      12.3880      -0.0230     130.2780      37.6970       1.2150      47.2430       2.3490       1.1530
    768.5532      12.3258      -0.0115     130.4250      37.8571       1.2115      47.4195       2.3495       1.1515
    768.7056      12.2640       0.0000     130.5720      38.0170       1.2080      47.5960       2.3500       1.1500
    768.8580      12.1667       0.0085     132.7856      37.3911       1.2060      47.5955       2.3555       1.1405
    769.0104      12.0700       0.0170     135.0000      36.7660       1.2040      47.5950       2.3610       1.1310
    769.1628      12.0921       0.0145     134.9255      36.0761       1.2050      47.2609       2.3720       1.1220
    769.3152      12.1140       0.0120     134.8510      35.3870       1.2060      46.9270       2.3830       1.1130
    769.4676      12.1506       0.0030     134.0869      34.7641       1.2090      46.7705       2.3750       1.1030
    769.6200      12.1870      -0.0060     133.3230      34.1420       1.2120      46.6140       2.3670       1.0930
    769.7724      12.1865      -0.0090     134.0605      34.2015       1.2135      45.8215       2.3670       1.0955
    769.9248      12.1860      -0.0120     134.7980      34.2610       1.2150      45.0290       2.3670       1.0980
