#------------------------------------------------------------------------------
#
#   Created by  : [OpenWorks] Log Export Utility (LEXP)
#   Created on  : 2016-05-23 11:50:52
#   Project     : CANT971
#   User        : R5K
#   Interpreter : PEP
#
#------------------------------------------------------------------------------
~VERSION INFORMATION
VERS. 2.0 : CWLS Log ASCII Standard - version 2.0
WRAP.  NO : One line per depth step
~WELL INFORMATION
#MNEMONIC   .UNIT                                           VALUE :DESCRIPTION
#------------------------------------------------------------------------------
STRT        .M                                           540.4100 :START DEPTH
STOP        .M                                          3242.0049 :STOP DEPTH
STEP        .M                                             0.1524 :STEP
NULL        .                                           -999.2500 :NULL VALUE
COMP        .                                   PEMEX EXPL & PROD :COMPANY
WELL        .                                                1041 :WELL
FLD         .                                           CANTARELL :FIELD
LOC         .                                             UNKNOWN :LOCATION
CNTY        .                                      CD. DEL CARMEN :COUNTY
STAT        .                                            CAMPECHE :STATE
CTRY        .                                              MEXICO :COUNTRY
SRVC        .                                             UNKNOWN :SERVICE COMPANY
DATE        .                                             UNKNOWN :LOG DATE
UWI         .                                          3060000494 :UNIQUE WELL ID
XCOORD      .                                       596162.660000 :SURFACE X
YCOORD      .                                      2150607.940000 :SURFACE Y
LAT         .                                           19.448736 :LATITUDE
LON         .                                          -92.083900 :LONGITUDE
ELEV        .M                                            30.0000 :SURFACE ELEV
ELEV_TYPE   .                                                  KB :ELEV TYPE
~CURVE INFORMATION
#MNEMONIC.UNIT        API CODE       : CURVE DESCRIPTION
#------------------------------------------------------------------------------
DEPTH    .M                          : Measured Depth
CALI     .inches      UNKNOWN        : CALI:litodensidad:rC:NONE:v0 (auto-composite)
DRHO     .g/cm3      UNKNOWN        : DRHO:DRHO-Load:rC:NONE:v0 (auto-composite)
DT       .us/ft       UNKNOWN        : DT:DT:rC:NONE:v0 (auto-composite)
GR       .API         UNKNOWN        : GR:GR-Load:rC:NONE:v0 (auto-composite)
ILD      .ohmm        UNKNOWN        : ILD:ILD-Load:rC:NONE:v0 (auto-composite)
ILM      .ohmm        UNKNOWN        : ILM:ILM-Load:rC:NONE:v0 (auto-composite)
LLD      .ohmm        UNKNOWN        : LLD:LLD-Load:rC:NONE:v0 (auto-composite)
LLS      .ohmm        UNKNOWN        : LLS:LLS-Load:rC:NONE:v0 (auto-composite)
MSFL     .ohmm        UNKNOWN        : MSFL:MSFL-Load:rC:NONE:v0 (auto-composite)
NPHI     .v/v_decimal UNKNOWN        : NPHI:NPHI-Load:rC:NONE:v0 (auto-composite)
PEF      .b/elec      UNKNOWN        : PEF:PEF-Load:rC:NONE:v0 (auto-composite)
RHOB     .g/cm3       UNKNOWN        : RHOB:RHOB-Load:rC:NONE:v0 (auto-composite)
~A     DEPTH         CALI         DRHO           DT           GR          ILD          ILM          LLD          LLS         MSFL         NPHI          PEF         RHOB
# ...
   2391.1555    -999.2500    -999.2500    -999.2500      39.9440       1.2960    -999.2500    -999.2500    -999.2500    -999.2500    -999.2500    -999.2500    -999.2500
   2391.3079    -999.2500    -999.2500    -999.2500      37.8080       1.2910    -999.2500    -999.2500    -999.2500    -999.2500    -999.2500    -999.2500    -999.2500
   2391.4604    -999.2500    -999.2500    -999.2500      35.6690       1.2860    -999.2500    -999.2500    -999.2500    -999.2500    -999.2500    -999.2500    -999.2500
   2391.6128    -999.2500    -999.2500    -999.2500      35.8690       1.2610    -999.2500    -999.2500    -999.2500    -999.2500    -999.2500    -999.2500    -999.2500
   2391.7651    -999.2500    -999.2500    -999.2500      36.0680       1.2360    -999.2500    -999.2500    -999.2500    -999.2500    -999.2500    -999.2500    -999.2500
   2391.9175    -999.2500    -999.2500    -999.2500      37.3180       1.2090    -999.2500    -999.2500    -999.2500    -999.2500    -999.2500    -999.2500    -999.2500
   2392.0701    -999.2500    -999.2500    -999.2500      38.5690       1.1830    -999.2500    -999.2500    -999.2500    -999.2500    -999.2500    -999.2500    -999.2500
   2392.2224    -999.2500    -999.2500    -999.2500      40.5640       1.1500    -999.2500    -999.2500    -999.2500    -999.2500    -999.2500    -999.2500    -999.2500
   2392.3748    -999.2500    -999.2500    -999.2500      42.5580       1.1180    -999.2500    -999.2500    -999.2500    -999.2500    -999.2500    -999.2500    -999.2500
   2392.5271    -999.2500    -999.2500    -999.2500      43.6730       1.0900    -999.2500    -999.2500    -999.2500    -999.2500    -999.2500    -999.2500    -999.2500
   2392.6797    -999.2500    -999.2500    -999.2500      44.7900       1.0630    -999.2500    -999.2500    -999.2500    -999.2500    -999.2500    -999.2500    -999.2500
   2392.8320    -999.2500    -499.7500    -893.7400      46.9960       1.0490    -999.2500    -999.2500    -999.2500    -999.2500      -8.9932    -897.8010    -897.6030
   2392.9844    -999.2500      -0.2500    -788.2310      49.2030       1.0350    -999.2500    -999.2500       0.2000    -999.2500      -7.9940    -796.3530    -795.9570
   2393.1367    -999.2500      -0.3520    -371.5990      46.7840       1.0320    -999.2500    -999.2500       0.1880       0.6980      -3.9834     102.4660    -396.9970
   2393.2891    -999.2500      -0.4550      45.0330      44.3650       1.0280    -999.2500       1.0350       0.1760       0.6980       0.0271     102.4660       1.9620
   2393.4417    -999.2500      -0.7050      51.8850      37.3040       1.0260    -999.2500       7.9270       0.1360       0.6260       0.2446      89.6790       1.9890
   2393.5940    -999.2500      -0.9560      58.7260      30.2540       1.0240    -999.2500      60.5200       0.1050       0.5610       0.4617      76.9130       2.0150
   2393.7463    -999.2500      -0.9570      62.0970      31.1390       1.0140    -999.2500      16.0510       1.0570       0.5960       0.4553      46.4660       2.0130
   2393.8987    -999.2500      -0.9570      65.4670      31.1390       1.0040    -999.2500      16.0510       1.0570       0.6340       0.4488      46.4660       2.0110
   2394.0513    -999.2500      -0.9510      69.0960      30.7380       0.9900    -999.2500      19.8810       0.8760       0.9180       0.4415     113.6250       2.0000
   2394.2036    -999.2500      -0.9440      72.7180      30.3370       0.9770    -999.2500      24.6170       0.7260       1.3290       0.4343     180.6760       1.9900
   2394.3560    -999.2500      -0.9340      76.9130      27.5930       0.9770    -999.2500      60.5200       0.5090       0.6560       0.4234     150.5550       1.9750
   2394.5083    -999.2500      -0.9240      76.9130      27.5930       0.9770    -999.2500      60.5200       0.3570       0.6560       0.4234     120.4350       1.9600
   2394.6609    -999.2500      -0.9150      76.1040      27.8340       0.6530    -999.2500      58.7870       0.2510       0.6820       0.4257      77.0950       1.9530
   2394.8132    -999.2500      -0.9050      75.2960      28.0740       0.4370       0.2000      57.1050       0.1760       0.7100       0.4281      33.8250       1.9470
   2394.9656    -999.2500      -0.9080      73.5120      28.5890    -999.2500    -999.2500       2.7200       0.1800       1.4030       0.4365      35.1250       1.9410
   2395.1179    -999.2500      -0.9100      73.5120      29.1040    -999.2500    -999.2500       2.7200       0.1850       1.4030       0.4449      36.4260       1.9360
   2395.2703    -999.2500      -0.9170      73.7740      30.2190    -999.2500    -999.2500       2.9450       0.2570       1.2950       0.4702      39.8160       1.9060
   2395.4229    -999.2500      -0.9230      74.0350      31.3350    -999.2500    -999.2500       3.1880       0.3580       1.1950       0.4955      43.2120       1.8760
   2395.5752    -999.2500      -0.9550      72.7170      31.0320    -999.2500    -999.2500     571.8880       0.3120       0.9140       0.4875     178.7070       1.8780
   2395.7275    -999.2500      -0.9550      71.3980      30.7290    -999.2500    -999.2500     571.8880       0.3120       0.6990       0.4796     178.7070       1.8800
   2395.8799    -999.2500      -0.9420      70.1250      29.5340    -999.2500    -999.2500     243.6580       0.6380       0.5730       0.4636     165.5180       1.9260
   2396.0325    -999.2500      -0.9300      68.8490      28.3370    -999.2500    -999.2500     103.6710       1.3090       0.4690       0.4476     152.3080       1.9720
   2396.1848    -999.2500      -0.9460      65.5120      28.8640    -999.2500    -999.2500     495.4760       1.1340       0.4610       0.4294     156.3650       2.1440
   2396.3372    -999.2500      -0.9460      65.5120      28.8640    -999.2500    -999.2500     495.4760       0.9830       0.4530       0.4294     156.3650       2.1440
   2396.4895    -999.2500      -0.9430      66.2330      28.7050    -999.2500    -999.2500     476.5620       0.7360       0.4390       0.4306     133.4470       2.1390
   2396.6421    -999.2500      -0.9400      66.9540      28.5450    -999.2500    -999.2500     458.3420       0.5510       0.4250       0.4319     110.4920       2.1330
   2396.7944    -999.2500      -0.9210      69.8500      29.4760    -999.2500    -999.2500     396.0100       0.4730       0.4070       0.4308      78.1710       2.1350
   2396.9468    -999.2500      -0.9020      72.7450      30.4080    -999.2500    -999.2500     342.1540       0.4060       0.3900       0.4297      45.8500       2.1370
   2397.0991    -999.2500      -0.9120      84.5970      34.2340    -999.2500    -999.2500     115.1160       0.2890       0.3840       0.4267      55.1550       2.1390
   2397.2515    -999.2500      -0.9120      84.5970      34.2340    -999.2500    -999.2500      38.7300       0.2050       0.3780       0.4238      55.1550       2.1410
   2397.4041    -999.2500      -0.9110      81.6480      33.2190    -999.2500    -999.2500       9.2010       0.1460       0.3510       0.4169      44.7970       2.1620
   2397.5564    -999.2500      -0.9110      78.7040      32.2050    -999.2500    -999.2500       2.1910       0.1030       0.3270       0.4101      34.4560       2.1830
   2397.7087    -999.2500      -0.9080      73.0680      32.9280    -999.2500    -999.2500       2.1930       0.1470       0.6560       0.4390      38.9590       2.1800
   2397.8611    -999.2500      -0.9050      67.4330      33.6510    -999.2500    -999.2500       2.1950       0.2110       0.6560       0.4390      38.9590       2.1770
   2398.0137    -999.2500      -0.8980      64.5060      34.8800    -999.2500    -999.2500      34.6830       0.3470       0.6440       0.4373      32.9910       2.1720
   2398.1660    -999.2500      -0.8910      61.5850      36.1070    -999.2500    -999.2500     545.5810       0.5700       0.6310       0.4356      27.0320       2.1670
   2398.3184    -999.2500      -0.8760      63.6380      37.2670    -999.2500    -999.2500     453.7360       1.6260       0.3670       0.4292      46.7200       2.1680
