#------------------------------------------------------------------------------
#
#   Created by  : [OpenWorks] Log Export Utility (LEXP)
#   Created on  : 2016-05-23 11:50:56
#   Project     : CANT971
#   User        : R5K
#   Interpreter : PEP
#
#------------------------------------------------------------------------------
~VERSION INFORMATION
VERS. 2.0 : CWLS Log ASCII Standard - version 2.0
WRAP.  NO : One line per depth step
~WELL INFORMATION
#MNEMONIC   .UNIT                                           VALUE :DESCRIPTION
#------------------------------------------------------------------------------
STRT        .M                                           679.7040 :START DEPTH
STOP        .M                                          2836.1641 :STOP DEPTH
STEP        .M                                             0.1524 :STEP
NULL        .                                           -999.2500 :NULL VALUE
COMP        .                                   PEMEX EXPL & PROD :COMPANY
WELL        .                                                1044 :WELL
FLD         .                                           CANTARELL :FIELD
LOC         .                                             UNKNOWN :LOCATION
CNTY        .                                      CD. DEL CARMEN :COUNTY
STAT        .                                            CAMPECHE :STATE
CTRY        .                                              MEXICO :COUNTRY
SRVC        .                                             UNKNOWN :SERVICE COMPANY
DATE        .                                             UNKNOWN :LOG DATE
UWI         .                                          3060000497 :UNIQUE WELL ID
XCOORD      .                                       596164.320000 :SURFACE X
YCOORD      .                                      2150609.730000 :SURFACE Y
LAT         .                                           19.448753 :LATITUDE
LON         .                                          -92.083884 :LONGITUDE
ELEV        .M                                            30.0000 :SURFACE ELEV
ELEV_TYPE   .                                                  KB :ELEV TYPE
~CURVE INFORMATION
#MNEMONIC.UNIT        API CODE       : CURVE DESCRIPTION
#------------------------------------------------------------------------------
DEPTH    .M                          : Measured Depth
CALI     .inches      UNKNOWN        : CALI:litodensidad:rC:NONE:v0 (auto-composite)
DRHO     .g/cm3       UNKNOWN        : DRHO:litodensidad:rC:NONE:v0 (auto-composite)
DT       .us/ft       UNKNOWN        : DT:DT:rC:NONE:v0 (auto-composite)
GR       .API         UNKNOWN        : GR:UNKNOWN:rC:NONE:v0 (auto-composite)
ILD      .ohm.m       UNKNOWN        : ILD:UNKNOWN:rC:NONE:v0 (auto-composite)
ILM      .ohm.m       UNKNOWN        : ILM:UNKNOWN:rC:NONE:v0 (auto-composite)
LLD      .ohm.m       UNKNOWN        : LLD:UNKNOWN:rC:NONE:v0 (auto-composite)
LLS      .ohm.m       UNKNOWN        : LLS:UNKNOWN:rC:NONE:v0 (auto-composite)
MSFL     .ohm.m       UNKNOWN        : MSFL:UNKNOWN:rC:NONE:v0 (auto-composite)
NPHI     .v/v_decimal UNKNOWN        : NPHI:NPHI:rC:NONE:v0 (auto-composite)
PEF      .b/elec      UNKNOWN        : PEF:UNKNOWN:rC:NONE:v0 (auto-composite)
RHOB     .g/cm3       UNKNOWN        : RHOB:UNKNOWN:rC:NONE:v0 (auto-composite)
~A     DEPTH         CALI         DRHO           DT           GR          ILD          ILM          LLD          LLS         MSFL         NPHI          PEF         RHOB
# ...
   2691.3840       9.5240       0.1490      94.8550     141.2330    -999.2500    -999.2500       3.2016       3.6221       4.3920       0.3539       3.0470       2.3640
   2691.5364       9.9337       0.1420      94.7631     142.0637    -999.2500    -999.2500       3.2681       3.7177       4.3178       0.3318       3.0540       2.3815
   2691.6887      10.3440       0.1350      94.6710     142.8930    -999.2500    -999.2500       3.3348       3.8133       4.2435       0.3096       3.0610       2.3990
   2691.8411      10.6922       0.1240      92.8545     143.7527    -999.2500    -999.2500       3.3715       3.8662       4.1019       0.3131       3.1105       2.3920
   2691.9937      11.0410       0.1130      91.0350     144.6110    -999.2500    -999.2500       3.4082       3.9192       3.9601       0.3166       3.1600       2.3850
   2692.1460      11.2278       0.1190      89.4420     141.2785    -999.2500    -999.2500       3.3925       3.9044       3.9146       0.3070       3.1420       2.3995
   2692.2983      11.4150       0.1250      87.8460     137.9560    -999.2500    -999.2500       3.3768       3.8896       3.8689       0.2973       3.1240       2.4140
   2692.4507      11.4939       0.1315      89.1797     139.6714    -999.2500    -999.2500       3.3077       3.8007       3.8705       0.3140       3.3623       2.4105
   2692.6033      11.5730       0.1380      90.5160     141.3820    -999.2500    -999.2500       3.2384       3.7117       3.8721       0.3308       3.6010       2.4070
   2692.7556      11.5930       0.1365      90.4660     146.2817    -999.2500    -999.2500       3.1744       3.6244       3.9836       0.3297       3.5915       2.3995
   2692.9080      11.6130       0.1350      90.4160     151.1680    -999.2500    -999.2500       3.1102       3.5370       4.0954       0.3285       3.5820       2.3920
   2693.0603      11.5321       0.1315      91.1257     151.1014    -999.2500    -999.2500       3.1114       3.5235       4.2970       0.3277       3.4701       2.3750
   2693.2129      11.4510       0.1280      91.8370     151.0350    -999.2500    -999.2500       3.1126       3.5099       4.4992       0.3269       3.3580       2.3580
   2693.3652      11.3261       0.1220      91.3920     147.3720    -999.2500    -999.2500       3.1738       3.5735       4.6903       0.3233       3.2691       2.3490
   2693.5176      11.2010       0.1160      90.9460     143.7180    -999.2500    -999.2500       3.2351       3.6371       4.8819       0.3196       3.1800       2.3400
   2693.6699      10.9114       0.1170      90.6429     144.3618    -999.2500    -999.2500       3.2822       3.6955       4.9693       0.3047       3.1306       2.3280
   2693.8223      10.6210       0.1180      90.3390     145.0040    -999.2500    -999.2500       3.3294       3.7540       5.0568       0.2897       3.0810       2.3160
   2693.9749      10.7264       0.1205      89.3095     147.8302    -999.2500    -999.2500       3.3233       3.7650       4.9985       0.2686       2.9741       2.2131
   2694.1272      10.8320       0.1230      88.2790     150.6500    -999.2500    -999.2500       3.3171       3.7759       4.9400       0.2473       2.8670       2.1100
   2694.2795      10.9289       0.1525      89.9791     152.3388    -999.2500    -999.2500       3.2566       3.7258       4.7567       0.2672       2.8001       2.1330
   2694.4319      11.0260       0.1820      91.6810     154.0240    -999.2500    -999.2500       3.1959       3.6756       4.5730       0.2870       2.7330       2.1560
   2694.5845      11.0555       0.1755      90.4108     152.8283    -999.2500    -999.2500       3.1293       3.6088       4.3713       0.3034       2.7750       2.2100
   2694.7368      11.0850       0.1690      89.1390     151.6350    -999.2500    -999.2500       3.0625       3.5420       4.1694       0.3198       2.8170       2.2640
   2694.8892      11.1460       0.1520      89.6921     147.7499    -999.2500    -999.2500       3.0315       3.5095       4.0728       0.3302       2.9344       2.2900
   2695.0415      11.2070       0.1350      90.2460     143.8720    -999.2500    -999.2500       3.0003       3.4770       3.9761       0.3406       3.0520       2.3160
   2695.1941      11.4183       0.1355      91.3672     143.9516    -999.2500    -999.2500       3.0088       3.4851       3.9919       0.3403       3.0105       2.3260
   2695.3464      11.6300       0.1360      92.4900     144.0310    -999.2500    -999.2500       3.0172       3.4932       4.0077       0.3401       2.9690       2.3360
   2695.4988      11.5960       0.1400      91.7926     144.4774    -999.2500    -999.2500       3.0443       3.5159       4.0962       0.3303       3.0444       2.3565
   2695.6511      11.5620       0.1440      91.0940     144.9230    -999.2500    -999.2500       3.0714       3.5386       4.1848       0.3206       3.1200       2.3770
   2695.8035      11.5150       0.1520      89.5493     146.0969    -999.2500    -999.2500       3.0863       3.5504       4.2488       0.3018       3.0900       2.3970
   2695.9561      11.4680       0.1600      88.0020     147.2690    -999.2500    -999.2500       3.1012       3.5622       4.3130       0.2829       3.0600       2.4170
   2696.1084      11.4445       0.1695      88.2992     151.0721    -999.2500    -999.2500       3.1082       3.5505       4.3295       0.2855       2.9906       2.4085
   2696.2607      11.4210       0.1790      88.5970     154.8640    -999.2500    -999.2500       3.1152       3.5387       4.3461       0.2881       2.9210       2.4000
   2696.4131      11.3905       0.1770      89.4172     154.5606    -999.2500    -999.2500       3.1185       3.5285       4.3147       0.2953       2.9315       2.3930
   2696.5657      11.3600       0.1750      90.2390     154.2580    -999.2500    -999.2500       3.1219       3.5184       4.2833       0.3024       2.9420       2.3860
   2696.7180      11.4884       0.1610      90.7160     154.3351    -999.2500    -999.2500       3.1307       3.5165       4.2239       0.3079       2.9540       2.3970
   2696.8704      11.6170       0.1470      91.1940     154.4120    -999.2500    -999.2500       3.1394       3.5146       4.1644       0.3133       2.9660       2.4080
   2697.0227      11.7349       0.1355      91.7039     154.6373    -999.2500    -999.2500       3.1583       3.5267       4.1589       0.3095       3.0005       2.4155
   2697.1753      11.8530       0.1240      92.2150     154.8620    -999.2500    -999.2500       3.1773       3.5388       4.1534       0.3057       3.0350       2.4230
   2697.3276      11.9454       0.1290      92.1211     155.6054    -999.2500    -999.2500       3.1894       3.5488       4.1913       0.3061       3.1099       2.4130
   2697.4800      12.0380       0.1340      92.0270     156.3470    -999.2500    -999.2500       3.2016       3.5589       4.2293       0.3065       3.1850       2.4030
   2697.6323      12.1803       0.1410      91.6345     156.0532    -999.2500    -999.2500       3.2082       3.5622       4.2799       0.3143       3.1460       2.3835
   2697.7847      12.3230       0.1480      91.2410     155.7600    -999.2500    -999.2500       3.2149       3.5655       4.3306       0.3222       3.1070       2.3640
   2697.9373      12.2021       0.1450      90.8112     155.5638    -999.2500    -999.2500       3.2280       3.5797       4.3679       0.3161       3.0585       2.3485
   2698.0896      12.0810       0.1420      90.3810     155.3680    -999.2500    -999.2500       3.2411       3.5940       4.4052       0.3101       3.0100       2.3330
   2698.2419      11.8466       0.1445      89.2441     154.0631    -999.2500    -999.2500       3.2649       3.6226       4.3729       0.2912       2.9860       2.3275
   2698.3943      11.6120       0.1470      88.1060     152.7610    -999.2500    -999.2500       3.2887       3.6514       4.3405       0.2723       2.9620       2.3220
   2698.5469      11.4606       0.1545      88.3154     151.6219    -999.2500    -999.2500       3.2875       3.6593       4.2788       0.2748       2.9140       2.3285
