#------------------------------------------------------------------------------
#
#   Created by  : [OpenWorks] Log Export Utility (LEXP)
#   Created on  : 2016-05-23 11:55:51
#   Project     : CANT971
#   User        : R5K
#   Interpreter : PEP
#
#------------------------------------------------------------------------------
~VERSION INFORMATION
VERS. 2.0 : CWLS Log ASCII Standard - version 2.0
WRAP.  NO : One line per depth step
~WELL INFORMATION
#MNEMONIC   .UNIT                                           VALUE :DESCRIPTION
#------------------------------------------------------------------------------
STRT        .M                                           490.1183 :START DEPTH
STOP        .M                                          2794.5586 :STOP DEPTH
STEP        .M                                             0.1524 :STEP
NULL        .                                           -999.2500 :NULL VALUE
COMP        .                                   PEMEX EXPL & PROD :COMPANY
WELL        .                                                  41 :WELL
FLD         .                                           CANTARELL :FIELD
LOC         .                                             UNKNOWN :LOCATION
CNTY        .                                      CD. DEL CARMEN :COUNTY
STAT        .                                            CAMPECHE :STATE
CTRY        .                                              MEXICO :COUNTRY
SRVC        .                                             UNKNOWN :SERVICE COMPANY
DATE        .                                             UNKNOWN :LOG DATE
UWI         .                                          3060000463 :UNIQUE WELL ID
XCOORD      .                                       601713.000000 :SURFACE X
YCOORD      .                                      2142348.040000 :SURFACE Y
LAT         .                                           19.373822 :LATITUDE
LON         .                                          -92.031472 :LONGITUDE
ELEV        .M                                            24.0000 :SURFACE ELEV
ELEV_TYPE   .                                                  KB :ELEV TYPE
~CURVE INFORMATION
#MNEMONIC.UNIT        API CODE       : CURVE DESCRIPTION
#------------------------------------------------------------------------------
DEPTH    .M                          : Measured Depth
CALI     .inches      UNKNOWN        : CALI:Import:rC:NONE:v0 (auto-composite)
DRHO     .g/cm3       UNKNOWN        : DRHO:Import:rC:NONE:v0 (auto-composite)
DT       .us/ft       UNKNOWN        : DT:Import:rC:NONE:v0 (auto-composite)
GR       .API         UNKNOWN        : GR:Import:rC:NONE:v0 (auto-composite)
ILD      .ohm.m       UNKNOWN        : ILD:Import:rC:NONE:v0 (auto-composite)
LLD      .ohm.m       UNKNOWN        : LLD:Import:rC:NONE:v0 (auto-composite)
LLS      .ohm.m       UNKNOWN        : LLS:Import:rC:NONE:v0 (auto-composite)
NPHI     .v/v_decimal UNKNOWN        : NPHI:Import:rC:NONE:v0 (auto-composite)
PEF      .b/elec      UNKNOWN        : PEF:Import:rC:NONE:v0 (auto-composite)
RHOB     .g/cm3       UNKNOWN        : RHOB:Import:rC:NONE:v0 (auto-composite)
~A     DEPTH         CALI         DRHO           DT           GR          ILD          LLD          LLS         NPHI          PEF         RHOB
# ...
   2103.1199       8.9060       0.0860    -999.2500      51.5200    -999.2500      29.9470      15.1050       0.1272       3.4930       2.6150
   2103.2722       8.8335       0.0780    -999.2500      43.2978    -999.2500      29.8650      19.7372       0.1201       3.5370       2.5970
   2103.4248       8.7610       0.0700    -999.2500      35.0860    -999.2500      29.7830      24.3710       0.1462       3.5810       2.5790
   2103.5771       8.7150       0.0570    -999.2500      39.2604    -999.2500      21.4359      17.3446       0.2189       3.5605       2.4685
   2103.7295       8.6690       0.0440    -999.2500      43.4300    -999.2500      13.0850      10.3150       0.2888       3.5400       2.3580
   2103.8818       8.5545       0.0305    -999.2500      42.6191    -999.2500      13.6883      11.1663       0.3051       3.4135       2.3805
   2104.0342       8.4400       0.0170    -999.2500      41.8090    -999.2500      14.2920      12.0180       0.2934       3.2870       2.4030
   2104.1868       8.4405       0.0175    -999.2500      37.4926    -999.2500      20.2359      20.0432       0.2648       3.1331       2.5250
   2104.3391       8.4410       0.0180    -999.2500      33.1800    -999.2500      26.1840      28.0740       0.2248       2.9790       2.6470
   2104.4915       8.4485       0.0205    -999.2500      31.3043    -999.2500      45.8883      38.1333       0.1733       3.0350       2.6965
   2104.6438       8.4560       0.0230    -999.2500      29.4300    -999.2500      65.6090      48.2010       0.1246       3.0910       2.7460
   2104.7964       8.4890       0.0275    -999.2500      27.4434    -999.2500      88.0477      63.2253       0.0948       3.4743       2.7595
   2104.9487       8.5220       0.0320    -999.2500      25.4580    -999.2500     110.5080      78.2640       0.0771       3.8580       2.7730
   2105.1011       8.5410       0.0420    -999.2500      23.0329    -999.2500     145.2641      98.3571       0.0709       3.6436       2.7765
   2105.2534       8.5600       0.0520    -999.2500      20.6090    -999.2500     180.0580     118.4720       0.0689       3.4290       2.7800
   2105.4060       8.5600       0.0645    -999.2500      21.2036    -999.2500     237.3617     131.8426       0.0660       3.4290       2.7840
   2105.5583       8.5600       0.0770    -999.2500      21.7980    -999.2500     294.6430     145.2080       0.0630       3.4290       2.7880
   2105.7107       8.5600       0.0855    -999.2500      27.4683    -999.2500     261.9532     160.4235       0.0602       3.5470       2.7865
   2105.8630       8.5600       0.0940    -999.2500      33.1370    -999.2500     229.2720     175.6350       0.0585       3.6650       2.7850
   2106.0154       8.5600       0.0915    -999.2500      33.0600    -999.2500     230.2316     173.7879       0.0592       3.6325       2.7725
   2106.1680       8.5600       0.0890    -999.2500      32.9830    -999.2500     231.1910     171.9410       0.0622       3.6000       2.7600
   2106.3203       8.5585       0.0755    -999.2500      31.1410    -999.2500     241.8416     161.1359       0.0692       3.6295       2.7600
   2106.4727       8.5570       0.0620    -999.2500      29.2990    -999.2500     252.4920     150.3310       0.0776       3.6590       2.7600
   2106.6250       8.4985       0.0635    -999.2500      30.1725    -999.2500     292.0413     157.6106       0.0857       3.6540       2.7105
   2106.7776       8.4400       0.0650    -999.2500      31.0460    -999.2500     331.5950     164.8910       0.0935       3.6490       2.6610
   2106.9299       8.4400       0.0740    -999.2500      30.8844    -999.2500     389.7376     240.2871       0.1010       3.5385       2.6635
   2107.0823       8.4400       0.0830    -999.2500      30.7230    -999.2500     447.8940     315.7010       0.1065       3.4280       2.6660
   2107.2346       8.4400       0.0825    -999.2500      29.6974    -999.2500     441.3872     313.7123       0.1070       3.5205       2.6825
   2107.3872       8.4400       0.0820    -999.2500      28.6730    -999.2500     434.8780     311.7230       0.1040       3.6130       2.6990
   2107.5396       8.4400       0.0790    -999.2500      27.1356    -999.2500     402.0000     297.7729       0.0973       3.6010       2.7320
   2107.6919       8.4400       0.0760    -999.2500      25.6000    -999.2500     369.1060     283.8160       0.0891       3.5890       2.7650
   2107.8442       8.4400       0.0785    -999.2500      25.6090    -999.2500     336.4850     257.9574       0.0808       3.6010       2.7625
   2107.9966       8.4400       0.0810    -999.2500      25.6180    -999.2500     303.8440     232.0830       0.0729       3.6130       2.7600
   2108.1492       8.4405       0.0775    -999.2500      25.9521    -999.2500     255.7578     204.9025       0.0658       3.7894       2.7680
   2108.3015       8.4410       0.0740    -999.2500      26.2860    -999.2500     207.6360     177.7020       0.0591       3.9660       2.7760
   2108.4539       8.4490       0.0760    -999.2500      26.1630    -999.2500     207.7270     179.9235       0.0525       3.9645       2.7700
   2108.6062       8.4570       0.0780    -999.2500      26.0400    -999.2500     207.8180     182.1470       0.0479       3.9630       2.7640
   2108.7588       8.5050       0.0775    -999.2500      25.3458    -999.2500     220.4714     206.6199       0.0483       3.9535       2.7275
   2108.9111       8.5530       0.0770    -999.2500      24.6520    -999.2500     233.1170     231.1170       0.0533       3.9440       2.6910
   2109.0635       8.6974       0.0730    -999.2500      25.3617    -999.2500     224.7560     227.7039       0.0653       3.8830       2.6065
   2109.2158       8.8420       0.0690    -999.2500      26.0710    -999.2500     216.3990     224.2870       0.0820       3.8220       2.5220
   2109.3682       8.8205       0.0555    -999.2500      25.8545    -999.2500     169.6806     194.4506       0.1040       3.5530       2.5350
   2109.5208       8.7990       0.0420    -999.2500      25.6380    -999.2500     122.9790     164.6250       0.1220       3.2840       2.5480
   2109.6731       8.6905       0.0325    -999.2500      24.3929    -999.2500      75.9019      94.5377       0.1234       3.0660       2.6130
   2109.8254       8.5820       0.0230    -999.2500      23.1480    -999.2500      28.8360      24.4670       0.1154       2.8480       2.6780
   2109.9778       8.5025       0.0245    -999.2500      20.1988    -999.2500      31.6442      25.3105       0.0980       2.8810       2.7210
   2110.1304       8.4230       0.0260    -999.2500      17.2500    -999.2500      34.4520      26.1540       0.0802       2.9140       2.7640
   2110.2827       8.3765       0.0320    -999.2500      17.2935    -999.2500      56.1343      32.2930       0.0705       3.2360       2.7685
   2110.4351       8.3300       0.0380    -999.2500      17.3370    -999.2500      77.8170      38.4320       0.0647       3.5580       2.7730
   2110.5874       8.3300       0.0430    -999.2500      17.6735    -999.2500      94.3268      52.1655       0.0612       3.5190       2.7910
   2110.7400       8.3300       0.0480    -999.2500      18.0100    -999.2500     110.8390      65.9010       0.0578       3.4800       2.8090
   2110.8923       8.3300       0.0510    -999.2500      18.8696    -999.2500     116.9927      84.0856       0.0521       3.4910       2.8045
   2111.0447       8.3300       0.0540    -999.2500      19.7280    -999.2500     123.1480     102.2750       0.0469       3.5020       2.8000
   2111.1970       8.3300       0.0730    -999.2500      20.5685    -999.2500     140.0617     125.8069       0.0457       3.5505       2.8000
   2111.3494       8.3300       0.0920    -999.2500      21.4080    -999.2500     156.9820     149.3480       0.0460       3.5990       2.8000
   2111.5020       8.3300       0.0915    -999.2500      20.4335    -999.2500     184.7318     167.6913       0.0470       3.5470       2.7995
