#------------------------------------------------------------------------------
#
#   Created by  : [OpenWorks] Log Export Utility (LEXP)
#   Created on  : 2016-05-23 11:53:49
#   Project     : CANT971
#   User        : R5K
#   Interpreter : PEP
#
#------------------------------------------------------------------------------
~VERSION INFORMATION
VERS. 2.0 : CWLS Log ASCII Standard - version 2.0
WRAP.  NO : One line per depth step
~WELL INFORMATION
#MNEMONIC   .UNIT                                           VALUE :DESCRIPTION
#------------------------------------------------------------------------------
STRT        .M                                           293.9797 :START DEPTH
STOP        .M                                          2713.7869 :STOP DEPTH
STEP        .M                                             0.1524 :STEP
NULL        .                                           -999.2500 :NULL VALUE
COMP        .                                   PEMEX EXPL & PROD :COMPANY
WELL        .                                                  28 :WELL
FLD         .                                           CANTARELL :FIELD
LOC         .                                             UNKNOWN :LOCATION
CNTY        .                                      CD. DEL CARMEN :COUNTY
STAT        .                                            CAMPECHE :STATE
CTRY        .                                              MEXICO :COUNTRY
SRVC        .                                             UNKNOWN :SERVICE COMPANY
DATE        .                                             UNKNOWN :LOG DATE
UWI         .                                          3060000156 :UNIQUE WELL ID
XCOORD      .                                       598450.720000 :SURFACE X
YCOORD      .                                      2145024.710000 :SURFACE Y
LAT         .                                           19.398172 :LATITUDE
LON         .                                          -92.062394 :LONGITUDE
ELEV        .M                                            26.5400 :SURFACE ELEV
ELEV_TYPE   .                                                  KB :ELEV TYPE
~CURVE INFORMATION
#MNEMONIC.UNIT        API CODE       : CURVE DESCRIPTION
#------------------------------------------------------------------------------
DEPTH    .M                          : Measured Depth
CALI     .inches      UNKNOWN        : CALI:Import:rC:NONE:v0 (auto-composite)
DRHO     .g/cm3       UNKNOWN        : DRHO:Import:rC:NONE:v0 (auto-composite)
DT       .us/ft       UNKNOWN        : DT:Import:rC:NONE:v0 (auto-composite)
GR       .API         UNKNOWN        : GR:Import:rC:NONE:v0 (auto-composite)
ILD      .ohm.m       UNKNOWN        : ILD:Import:rC:NONE:v0 (auto-composite)
LLD      .ohm.m       UNKNOWN        : LLD:Import:rC:NONE:v0 (auto-composite)
LLS      .ohm.m       UNKNOWN        : LLS:Import:rC:NONE:v0 (auto-composite)
MSFL     .ohm.m       UNKNOWN        : MSFL:Import:rC:NONE:v0 (auto-composite)
NPHI     .v/v_decimal UNKNOWN        : NPHI:Import:rC:NONE:v0 (auto-composite)
PEF      .b/elec      UNKNOWN        : PEF:Import:rC:NONE:v0 (auto-composite)
RHOB     .g/cm3       UNKNOWN        : RHOB:Import:rC:NONE:v0 (auto-composite)
~A     DEPTH         CALI         DRHO           DT           GR          ILD          LLD          LLS         MSFL         NPHI          PEF         RHOB
# ...
   2703.1189       5.9161       0.0994       0.0000      27.2410    -999.2500     158.0524     105.9923      41.5907       0.1215       2.9198       2.5503
   2703.2712       5.8080       0.0800       0.0000      27.2410    -999.2500     168.1900     113.1650      66.4690       0.1252       2.8520       2.4800
   2703.4236       5.9926       0.0459       0.0000      27.2410    -999.2500     180.4728     123.5162      70.3784       0.1225       3.1590       2.4695
   2703.5762       6.1760       0.0120       0.0000      27.2410    -999.2500     192.6780     133.8020      74.2630       0.1171       3.4640       2.4590
   2703.7285       6.0491      -0.0015       0.0000      27.2410    -999.2500     185.2375     129.3091      44.8429       0.1120       2.9339       2.2679
   2703.8809       5.9230      -0.0150       0.0000      27.2410    -999.2500     177.8430     124.8440      15.6050       0.1062       2.4070       2.0780
   2704.0332       5.9767      -0.0090       0.0000      27.2410    -999.2500     199.4536     133.1723      15.6050       0.0985       2.2014       2.0404
   2704.1858       6.0300      -0.0030       0.0000      27.2410    -999.2500     220.9330     141.4500      15.6050       0.0919       1.9970       2.0030
   2704.3381       6.0440       0.0005       0.0000      27.2410    -999.2500     333.8246     181.9765      15.6050       0.0895       2.5451       2.2512
   2704.4905       6.0580       0.0040       0.0000      27.2410    -999.2500     446.0450     222.2620      15.6050       0.0892       3.0900       2.4980
   2704.6428       5.9993       0.0190       0.0000      27.2410    -999.2500     297.4743     160.1290      15.6050       0.0895       3.7329       2.6108
   2704.7952       5.9410       0.0340       0.0000      27.2410    -999.2500     149.7690      98.3580      15.6050       0.0898       4.3720       2.7230
   2704.9478       5.9229       0.0440       0.0000      27.2410    -999.2500     135.6703     117.4950      15.6050       0.0895       4.1183       2.7240
   2705.1001       5.9050       0.0540       0.0000      27.2410    -999.2500     121.6520     136.5230      15.6050       0.0883       3.8660       2.7250
   2705.2524       5.8363       0.0500       0.0000      27.2410    -999.2500    1487.9148    1035.6498      15.6050       0.0855       3.7597       2.7160
   2705.4048       5.7680       0.0460       0.0000      27.2410    -999.2500    2846.5610    1929.7640      15.6050       0.0821       3.6540       2.7070
   2705.5574       5.7098       0.0570       0.0000      27.2410    -999.2500   20074.5703   15007.5664      15.6050       0.0790       3.2960       2.7712
   2705.7097       5.6520       0.0680       0.0000      27.2410    -999.2500   37208.7656   28014.1543      15.6050       0.0750       2.9400       2.8350
   2705.8621       5.6876       0.0570       0.0000      27.2410    -999.2500   37428.2773   18028.2637      15.6050       0.0685       3.0363       2.8230
   2706.0144       5.7230       0.0460       0.0000      27.2410    -999.2500   37646.6172    8095.5449      15.6050       0.0625       3.1320       2.8110
   2706.1670       5.7335       0.0385       0.0000      27.2410    -999.2500   38214.4141   17366.1738      15.6050       0.0600       3.2027       2.7734
   2706.3193       5.7440       0.0310       0.0000      27.2410    -999.2500   38778.3555   26573.8301      15.6050       0.0595       3.2730       2.7360
   2706.4717       5.7756       0.0531       0.0000      27.2410    -999.2500   38990.2617   26351.8848      15.6050       0.0600       3.3683       2.7460
   2706.6240       5.8070       0.0750       0.0000      27.2410    -999.2500   39200.7539   26131.4199      15.6050       0.0601       3.4630       2.7560
   2706.7764       5.7729       0.1136       0.0000      27.2410    -999.2500   38199.4414   26252.7910      15.6050       0.0580       3.2744       2.7761
   2706.9290       5.7390       0.1520       0.0000      27.2410    -999.2500   37204.6836   26373.3672      15.6050       0.0570       3.0870       2.7960
   2707.0813       5.6903       0.1731       0.0000      27.2410    -999.2500   35571.7930   26111.8164      15.6050       0.0605       3.0012       2.8115
   2707.2336       5.6420       0.1940       0.0000      27.2410    -999.2500   33949.3750   25851.9414      15.6050       0.0648       2.9160       2.8270
   2707.3860       5.6295       0.1749       0.0000      27.2410    -999.2500   36518.4492   25606.5039      15.6050       0.0665       3.0539       2.8074
   2707.5386       5.6170       0.1560       0.0000      27.2410    -999.2500   39071.3555   25362.6094      15.6050       0.0669       3.1910       2.7880
   2707.6909       5.6742       0.1294       0.0000      27.2410    -999.2500   40023.1523   25522.5000      15.6050       0.0670       2.9738       2.7564
   2707.8433       5.7310       0.1030       0.0000      27.2410    -999.2500   40969.0859   25681.4062      15.6050       0.0669       2.7580       2.7250
   2707.9956       5.7586       0.0890       0.0000      27.2410    -999.2500   40203.8281   26129.1484      15.6050       0.0665       2.8257       2.7300
   2708.1482       5.7860       0.0750       0.0000      27.2410    -999.2500   39443.1953   26574.1836      15.6050       0.0661       2.8930       2.7350
   2708.3005       5.8010       0.0595       0.0000      27.2410    -999.2500   39617.5234   26042.6855      15.6050       0.0660       3.1152       2.6979
   2708.4529       5.8160       0.0440       0.0000      27.2410    -999.2500   39790.8203   25514.3301      15.6050       0.0659       3.3360       2.6610
   2708.6052       5.7343       0.0550       0.0000      27.2410    -999.2500   40201.6602   26426.7891      15.6050       0.0655       3.2738       2.6760
   2708.7576       5.6530       0.0660       0.0000      27.2410    -999.2500   40610.1172   27333.9609      15.6050       0.0654       3.2120       2.6910
   2708.9102       5.6565       0.0740       0.0000      27.2410    -999.2500   39555.3750   25484.6328      15.6050       0.0660       3.1263       2.7246
   2709.0625       5.6600       0.0820       0.0000      27.2410    -999.2500   38506.6094   23645.7812      15.6050       0.0668       3.0410       2.7580
   2709.2148       5.7051       0.0810       0.0000      27.2410    -999.2500   23782.4629   14433.0723      15.6050       0.0670       3.2230       2.7405
   2709.3672       5.7500       0.0800       0.0000      27.2410    -999.2500    9139.9482    5271.4399      15.6050       0.0669       3.4040       2.7230
   2709.5198       5.7505       0.1026       0.0000      27.2410    -999.2500    8283.6631    4641.6831      15.6050       0.0665       3.0410       2.7335
   2709.6721       5.7510       0.1250       0.0000      27.2410    -999.2500    7432.0151    4015.3359      15.6050       0.0661       2.6800       2.7440
   2709.8245       5.7510       0.1646       0.0000      27.2410    -999.2500    7432.0151    4015.3359      15.6050       0.0660       2.6785       2.7921
   2709.9768       5.7510       0.2040       0.0000      27.2410    -999.2500    7432.0151    4015.3359      15.6050       0.0660       2.6770       2.8400
   2710.1294       5.7510       0.2055       0.0000      27.2410    -999.2500    7432.0151    4015.3359      15.6050       0.0660       2.9048       2.8350
   2710.2817       5.7510       0.2070       0.0000      27.2410    -999.2500    7432.0151    4015.3359      15.6050       0.0660       3.1310       2.8300
   2710.4341       5.7204       0.2060       0.0000      27.2410    -999.2500    7432.0151    4015.3359      15.6050       0.0660       3.1139       2.8155
   2710.5864       5.6900       0.2050       0.0000      27.2410    -999.2500    7432.0151    4015.3359      15.6050       0.0660       3.0970       2.8010
   2710.7388       5.7617       0.1814       0.0000      27.2410    -999.2500    7432.0151    4015.3359      15.6050       0.0660       3.1447       2.7694
   2710.8914       5.8330       0.1580       0.0000      27.2410    -999.2500    7432.0151    4015.3359      15.6050       0.0659       3.1920       2.7380
