#------------------------------------------------------------------------------
#
#   Created by  : [OpenWorks] Log Export Utility (LEXP)
#   Created on  : 2016-05-12 17:01:25
#   Project     : CANT971
#   User        : R5K
#   Interpreter : PEP
#
#------------------------------------------------------------------------------
~VERSION INFORMATION
VERS. 2.0 : CWLS Log ASCII Standard - version 2.0
WRAP.  NO : One line per depth step
~WELL INFORMATION
#MNEMONIC   .UNIT                                           VALUE :DESCRIPTION
#------------------------------------------------------------------------------
STRT        .M                                           310.6675 :START DEPTH
STOP        .M                                          2665.7046 :STOP DEPTH
STEP        .M                                             0.1524 :STEP
NULL        .                                           -999.2500 :NULL VALUE
COMP        .                                   PEMEX EXPL & PROD :COMPANY
WELL        .                                                 77A :WELL
FLD         .                                           CANTARELL :FIELD
LOC         .                                             UNKNOWN :LOCATION
CNTY        .                                      CD. DEL CARMEN :COUNTY
STAT        .                                            CAMPECHE :STATE
CTRY        .                                              MEXICO :COUNTRY
SRVC        .                                             UNKNOWN :SERVICE COMPANY
DATE        .                                             UNKNOWN :LOG DATE
UWI         .                                          3060000181 :UNIQUE WELL ID
XCOORD      .                                       602151.310000 :SURFACE X
YCOORD      .                                      2147165.430000 :SURFACE Y
LAT         .                                           19.417331 :LATITUDE
LON         .                                          -92.027040 :LONGITUDE
ELEV        .M                                            28.1700 :SURFACE ELEV
ELEV_TYPE   .                                                  KB :ELEV TYPE
~CURVE INFORMATION
#MNEMONIC.UNIT        API CODE       : CURVE DESCRIPTION
#------------------------------------------------------------------------------
DEPTH    .M                          : Measured Depth
CALI     .inches      UNKNOWN        : CALI:UNKNOWN:rC:NONE:v0 (auto-composite)
DRHO     .UNKNOWN     UNKNOWN        : DRHO:PETROWORKS:rC:NONE:v1 
DT       .us/ft       UNKNOWN        : DT:DT:rC:NONE:v0 (auto-composite)
GR       .API         UNKNOWN        : GR:UNKNOWN:rC:NONE:v0 (auto-composite)
ILD      .UNKNOWN     UNKNOWN        : ILD:UNKNOWN:rC:NONE:v0 (auto-composite)
LLD      .ohm.m       UNKNOWN        : LLD:UNKNOWN:rC:NONE:v0 (auto-composite)
LLS      .ohm.m       UNKNOWN        : LLS:UNKNOWN:rC:NONE:v0 (auto-composite)
MSFL     .ohm.m       UNKNOWN        : MSFL:UNKNOWN:rC:NONE:v0 (auto-composite)
NPHI     .v/v_decimal UNKNOWN        : NPHI:PETROWORKS:rC:NONE:v1 
RHOB     .UNKNOWN     UNKNOWN        : RHOB:PETROWORKS:rC:NONE:v1 
SP       .UNKNOWN     UNKNOWN        : SP:UNKNOWN:rC:NONE:v0 (auto-composite)
~A     DEPTH         CALI         DRHO           DT           GR          ILD          LLD          LLS         MSFL         NPHI         RHOB           SP
# ...
   2648.4834       5.9269       0.0020      62.4848      22.4181      59.4781    4307.2266      51.8681     532.9180       0.1753       2.7518      35.7291
   2648.6360       5.9188       0.0013      65.6270      21.8033     135.8642    4733.2798      59.8294     612.2936       0.1742       2.7523      35.6645
   2648.7883       5.9178      -0.0004      70.8388      21.7522     485.5335    4679.2471      58.8738     680.3839       0.1732       2.7477      35.5998
   2648.9407       5.9200      -0.0030      78.1097      22.0024     832.3730    4653.3540      58.7035     690.0507       0.1725       2.7394      35.6185
   2649.0930       5.9341      -0.0063      84.9209      23.3536    1168.8748    4729.9487      61.3934     486.9356       0.1715       2.7278      35.9419
   2649.2456       5.9459      -0.0074      91.2732      24.2722    1371.9342    4835.6924      65.5107     652.5226       0.1701       2.7205      36.1655
   2649.3979       5.9499      -0.0053      94.7103      23.6605    1103.1240    5044.2056      74.6601    2118.0010       0.1696       2.7204      36.0361
   2649.5503       5.9506      -0.0027      95.2455      23.2791     806.6929    5171.1689      81.0316    3027.9407       0.1699       2.7243      35.8483
   2649.7026       5.9401      -0.0005      95.8789      23.6868     415.6639    5019.6533      77.9175    2040.8168       0.1707       2.7306      35.4602
   2649.8552       5.9306       0.0044      96.6101      23.7994     114.2904    4510.7534      70.3019    2257.8188       0.1720       2.7409      35.3116
   2650.0076       5.9246       0.0133      97.4772      22.9332     110.4744    2819.1445      47.7895    6459.6831       0.1732       2.7557      35.9579
   2650.1599       5.9187       0.0163      98.4796      22.4992     106.4656    1460.1954      29.6615    8532.9600       0.1744       2.7625      36.5738
   2650.3123       5.9132       0.0099      99.2970      23.4684     101.8307    1178.1842      25.7271    3715.2378       0.1756       2.7569      37.0913
   2650.4646       5.9135       0.0027      99.9307      24.1180      96.3364    1069.1938      26.8492     127.1967       0.1768       2.7469      37.4216
   2650.6172       5.9320      -0.0020     100.7586      23.7610      88.1357    1503.5057      43.8493     400.4707       0.1772       2.7357      37.1629
   2650.7695       5.9446      -0.0045     101.7800      23.4606      81.5264    2272.7537      66.0719     628.9269       0.1768       2.7270      36.8883
   2650.9219       5.9391      -0.0050     104.4703      23.3332      79.7801    4062.6182     104.2081     720.8141       0.1773       2.7220      36.5649
   2651.0742       5.9323      -0.0029     108.8184      23.2058      90.8538    5366.0840     131.9498     860.4271       0.1787       2.7214      36.2415
   2651.2268       5.9218       0.0019     115.1967      23.0779     139.9574    5230.5972     128.9404    1141.2310       0.1790       2.7253      35.9181
   2651.3792       5.9176       0.0042     123.5988      23.2130     344.6377    5120.9810     126.4109    1446.0396       0.1784       2.7297      35.6113
   2651.5315       5.9317       0.0022     130.5186      24.1054     997.5496    5085.7026     125.2602    1819.8226       0.1769       2.7334      35.3526
   2651.6838       5.9417      -0.0002     135.9653      24.6222    1364.7681    5062.7983     124.6393    5124.2812       0.1746       2.7327      35.6552
   2651.8364       5.9407      -0.0019     139.0692      24.0871     932.2314    5074.4404     125.4975   16611.0312       0.1735       2.7265      37.5289
   2651.9888       5.9412      -0.0022     139.8364      23.6405     653.0333    5086.1143     126.0487   23365.7930       0.1735       2.7252      39.1612
   2652.1411       5.9457      -0.0011     140.2586      23.4364     794.4854    5097.8735     125.7599   17173.3691       0.1735       2.7318      40.1314
   2652.2935       5.9513      -0.0010     140.3376      23.2393     937.5273    5103.2368     125.7890   11867.8809       0.1736       2.7354      40.9076
   2652.4458       5.9598      -0.0025     140.4281      23.0608    1084.8096    5091.5850     126.6640    8921.8916       0.1739       2.7329      41.1663
   2652.5984       5.9617      -0.0028     140.5301      22.9959    1230.0186    5083.1514     126.9698    7518.8091       0.1744       2.7295      41.4250
   2652.7507       5.9461      -0.0008     140.6579      23.2255    1369.8492    5083.0439     125.8030   10107.9668       0.1760       2.7268      41.6837
   2652.9031       5.9349       0.0011     140.8113      23.4624    1467.2178    5082.9668     125.0532   11225.2764       0.1786       2.7282      41.7772
   2653.0554       5.9344       0.0023     140.9929      23.7176    1457.4171    5082.9668     125.3531    8637.1797       0.1798       2.7346      41.4538
   2653.2080       5.9337       0.0025     141.2025      23.8032    1449.5300    5086.3721     125.2328    6517.4937       0.1798       2.7416      40.9996
   2653.3604       5.9327       0.0017     141.5715      23.4720    1446.3431    5098.1221     124.0830    5545.5269       0.1792       2.7477      40.2241
   2653.5127       5.9333      -0.0001     142.0993      23.1857    1428.6498    5102.9653     123.7773    4465.6074       0.1780       2.7504      39.6760
   2653.6650       5.9378      -0.0029     142.3442      23.0072    1375.9968    5091.2061     125.5005    3126.1770       0.1755       2.7488      39.6760
   2653.8176       5.9450      -0.0059     142.3067      22.7067    1351.8647    5082.9668     126.2747    2551.3809       0.1717       2.7392      39.8306
   2653.9700       5.9586      -0.0089     142.0632      22.1201    1394.6603    5082.9668     124.8272    3766.5088       0.1707       2.7210      40.3480
   2654.1223       5.9663      -0.0107     141.6145      21.6345    1424.4310    5086.5518     123.9963    3982.8469       0.1725       2.7086      40.7080
   2654.2747       5.9608      -0.0110     141.3950      21.3798    1424.4310    5098.3110     124.5714    1921.8105       0.1733       2.7057      40.7080
   2654.4270       5.9522      -0.0104     141.4030      21.4172    1424.4310    5099.1528     125.1499    1140.5237       0.1733       2.7088      40.5476
   2654.5796       5.9366      -0.0090     141.4248      22.1051    1424.4310    5075.7422     125.7361    3202.2620       0.1727       2.7168      40.0302
   2654.7319       5.9258      -0.0090     141.4603      22.4635    1424.4310    5059.7280     125.8606   11868.8125       0.1716       2.7186      39.5128
   2654.8843       5.9253      -0.0106     141.4991      22.1071    1424.4310    5059.7280     124.9856   34834.9062       0.1711       2.7118      38.9953
   2655.0366       5.9247      -0.0126     141.5410      22.1757    1424.4310    5067.2485     124.3018   42495.4453       0.1711       2.7027      38.6855
   2655.1892       5.9237      -0.0146     141.6457      23.1436    1424.4310    5090.6406     124.0212   17854.5371       0.1720       2.6928      38.8147
   2655.3416       5.9227      -0.0142     141.8127      23.3827    1424.4310    5102.5933     124.1115    1054.1664       0.1738       2.6882      39.0071
   2655.4939       5.9217      -0.0107     141.8825      22.1077    1424.4310    5090.8340     124.9704     505.3690       0.1746       2.6900      39.3305
   2655.6462       5.9207      -0.0079     141.8555      21.2288    1424.4310    5086.8589     125.6432     212.9467       0.1744       2.6963      39.6111
   2655.7988       5.9197      -0.0067     141.7488      21.1526    1424.4310    5098.6182     125.9401     438.7331       0.1740       2.7066      39.8052
   2655.9512       5.9188      -0.0078     141.5628      21.1620    1424.4310    5102.4624     126.1370     515.8163       0.1734       2.7120      39.8471
   2656.1035       5.9183      -0.0113     141.5409      21.3405    1424.4310    5090.7036     126.1370     299.7283       0.1733       2.7107      39.5883
   2656.2559       5.9177      -0.0139     141.6824      21.6582    1424.4310    5078.9810     125.8413     155.9861       0.1739       2.7094      39.2635
