#------------------------------------------------------------------------------
#
#   Created by  : [OpenWorks] Log Export Utility (LEXP)
#   Created on  : 2016-05-23 11:57:21
#   Project     : CANT971
#   User        : R5K
#   Interpreter : PEP
#
#------------------------------------------------------------------------------
~VERSION INFORMATION
VERS. 2.0 : CWLS Log ASCII Standard - version 2.0
WRAP.  NO : One line per depth step
~WELL INFORMATION
#MNEMONIC   .UNIT                                           VALUE :DESCRIPTION
#------------------------------------------------------------------------------
STRT        .M                                           117.7290 :START DEPTH
STOP        .M                                          2309.5459 :STOP DEPTH
STEP        .M                                             0.1524 :STEP
NULL        .                                           -999.2500 :NULL VALUE
COMP        .                                   PEMEX EXPL & PROD :COMPANY
WELL        .                                                  7A :WELL
FLD         .                                           CANTARELL :FIELD
LOC         .                                             UNKNOWN :LOCATION
CNTY        .                                      CD. DEL CARMEN :COUNTY
STAT        .                                            CAMPECHE :STATE
CTRY        .                                              MEXICO :COUNTRY
SRVC        .                                             UNKNOWN :SERVICE COMPANY
DATE        .                                             UNKNOWN :LOG DATE
UWI         .                                          3060000143 :UNIQUE WELL ID
XCOORD      .                                       603360.310000 :SURFACE X
YCOORD      .                                      2145096.320000 :SURFACE Y
LAT         .                                           19.398572 :LATITUDE
LON         .                                          -92.015639 :LONGITUDE
ELEV        .M                                            27.1400 :SURFACE ELEV
ELEV_TYPE   .                                                  KB :ELEV TYPE
~CURVE INFORMATION
#MNEMONIC.UNIT        API CODE       : CURVE DESCRIPTION
#------------------------------------------------------------------------------
DEPTH    .M                          : Measured Depth
CALI     .in          UNKNOWN        : CALI:resistivos:rC:NONE:v0 (auto-composite)
DRHO     .g/cm3       UNKNOWN        : DRHO:PETROWORKS:rC:NONE:v2 
DT       .us/ft       UNKNOWN        : DT:DT:rC:NONE:v0 (auto-composite)
GR       .API         UNKNOWN        : GR:UNKNOWN:rC:NONE:v0 (auto-composite)
ILD      .ohmm        UNKNOWN        : ILD:resistivos:rC:NONE:v0 (auto-composite)
LLD      .ohm.m       UNKNOWN        : LLD:UNKNOWN:rC:NONE:v0 (auto-composite)
LLS      .ohm.m       UNKNOWN        : LLS:UNKNOWN:rC:NONE:v0 (auto-composite)
MSFL     .ohm.m       UNKNOWN        : MSFL:UNKNOWN:rC:NONE:v0 (auto-composite)
NPHI     .v/v_decimal     UNKNOWN        : NPHI:PETROWORKS:rC:NONE:v1 
RHOB     .g/cm3       UNKNOWN        : RHOB:UNKNOWN:rC:NONE:v0 (auto-composite)
SN       .ohm.m       UNKNOWN        : SN:UNKNOWN:rC:NONE:v0 (auto-composite)
~A     DEPTH         CALI         DRHO           DT           GR          ILD          LLD          LLS         MSFL         NPHI         RHOB           SN
# ...
   1425.3210       9.5291      -0.0663     116.3372      25.4212    -999.2500    -999.2500    -999.2500    -999.2500       0.2018       2.4083    -434.0989
   1425.4734      10.2260      -0.1096     109.4444      25.4636       0.2000    -999.2500    -999.2500    -999.2500       0.3018       2.3728    -145.2618
   1425.6259      11.2790      -0.1596     106.4245      25.5451       0.2175    -999.2500    -999.2500    -999.2500       0.3856       2.3431       0.0383
   1425.7782      12.6909      -0.2097     107.2729      25.6661       0.2525    -999.2500    -999.2500    -999.2500       0.4393       2.3191       0.1152
   1425.9307      13.2835      -0.2159     109.1241      25.8441       0.3497    -999.2500    -999.2500    -999.2500       0.4781       2.2975       0.3084
   1426.0830      13.0495      -0.2213     111.9770      26.0802       0.5087    -999.2500    -999.2500    -999.2500       0.4889       2.2785       0.6197
   1426.2354      12.4014      -0.1838     116.0530      26.4697       0.7325    -999.2500    -999.2500    -999.2500       0.4977       2.2565       1.0617
   1426.3878      11.3354      -0.1453     121.3513      27.0119       1.0210    -999.2500    -999.2500    -999.2500       0.5029       2.2315       1.6339
   1426.5402      10.9065      -0.0345     123.1434      27.6725       1.3015    -999.2500    -999.2500    -999.2500       0.5071       2.2075       1.9050
   1426.6926      11.1205       0.0781     121.4304      28.4514       1.5740    -999.2500    -999.2500    -999.2500       0.5096       2.1845       1.8750
   1426.8450      11.5092       0.1065     118.0347      29.1056       1.6967    -999.2500    -999.2500    -999.2500       0.5119       2.1630       1.8610
   1426.9974      12.0741       0.1350     112.9563      29.6343       1.6702    -999.2500    -999.2500    -999.2500       0.5138       2.1430       1.8630
   1427.1498      12.7416       0.1204     107.6377      29.7931       1.6377    -999.2500    -999.2500    -999.2500       0.5161       2.1173       1.8677
   1427.3022      13.5126       0.1058     102.0789      29.5783       1.5992    -999.2500    -999.2500    -999.2500       0.5194       2.0859       1.8752
   1427.4546      13.8463       0.1014      97.7616      29.1458       1.5918    -999.2500    -999.2500    -999.2500       0.5205       2.0722       1.8892
   1427.6071      13.7383       0.0970      94.6862      28.4920       1.6153    -999.2500    -999.2500    -999.2500       0.5174       2.0768       1.9098
   1427.7594      13.3647       0.1015      92.2113      27.8739       1.6536    -999.2500    -999.2500    -999.2500       0.5132       2.0883       1.9430
   1427.9117      12.7227       0.1059      90.3374      27.2914       1.7066    -999.2500    -999.2500    -999.2500       0.5067       2.1068       1.9890
   1428.0642      12.4000       0.1180      89.7259      27.1629       1.7473    -999.2500    -999.2500    -999.2500       0.5004       2.1342       2.0340
   1428.2166      12.4000       0.1300      90.3778      27.4887       1.7758    -999.2500    -999.2500    -999.2500       0.4945       2.1707       2.0780
   1428.3690      12.4216       0.1447      91.5856      28.0154       1.7900    -999.2500    -999.2500    -999.2500       0.4883       2.2094       2.0925
   1428.5214      12.4651       0.1594      93.3497      28.7438       1.7900    -999.2500    -999.2500    -999.2500       0.4814       2.2504       2.0775
   1428.6738      12.5648       0.1711      95.0207      29.3063       1.7975    -999.2500    -999.2500    -999.2500       0.4730       2.2807       2.0732
   1428.8262      12.7214       0.1825      96.5986      29.7012       1.8125    -999.2500    -999.2500    -999.2500       0.4617       2.3002       2.0797
   1428.9786      12.7751       0.1808      97.9257      29.8891       1.8418    -999.2500    -999.2500    -999.2500       0.4491       2.3078       2.1059
   1429.1310      12.7251       0.1789      99.0021      29.8670       1.8853    -999.2500    -999.2500    -999.2500       0.4340       2.3033       2.1520
   1429.2834      12.7000       0.1677     100.1254      29.8089       1.9401    -999.2500    -999.2500    -999.2500       0.4241       2.2950       2.2253
   1429.4358      12.7000       0.1568     101.2953      29.7150       2.0061    -999.2500    -999.2500    -999.2500       0.4243       2.2830       2.3258
   1429.5883      12.7219       0.1533     102.2704      29.4163       2.0876    -999.2500    -999.2500    -999.2500       0.4253       2.2678       2.4460
   1429.7406      12.7659       0.1501     103.0509      28.9132       2.1846    -999.2500    -999.2500    -999.2500       0.4278       2.2493       2.5859
   1429.8929      12.8380       0.1526     105.3315      28.1980       2.3036    -999.2500    -999.2500    -999.2500       0.4283       2.2422       2.7460
   1430.0454      12.9385       0.1551     109.1109      27.2694       2.4446    -999.2500    -999.2500    -999.2500       0.4247       2.2467       2.9264
   1430.1978      13.0664       0.1553     110.6667      26.5039       2.6037    -999.2500    -999.2500    -999.2500       0.4183       2.2584       3.1167
   1430.3502      13.2219       0.1553     110.0002      25.9029       2.7807    -999.2500    -999.2500    -999.2500       0.4062       2.2774       3.3170
   1430.5026      13.2779       0.1496     108.1360      25.6249       2.9481    -999.2500    -999.2500    -999.2500       0.3934       2.2997       3.5197
   1430.6550      13.2334       0.1435     105.0746      25.6750       3.1061    -999.2500    -999.2500    -999.2500       0.3792       2.3253       3.7248
   1430.8074      13.1722       0.1317     100.5330      25.6328       3.2343    -999.2500    -999.2500    -999.2500       0.3660       2.3485       3.9105
   1430.9598      13.0942       0.1197      94.5112      25.4989       3.3329    -999.2500    -999.2500    -999.2500       0.3553       2.3695       4.0768
   1431.1122      13.0080       0.1059      91.6007      25.0492       3.4116    -999.2500    -999.2500    -999.2500       0.3482       2.3790       4.1523
   1431.2646      12.9135       0.0926      91.8022      24.2835       3.4706    -999.2500    -999.2500    -999.2500       0.3489       2.3770       4.1368
   1431.4170      12.5790       0.0891      92.5773      23.9337       3.4910    -999.2500    -999.2500    -999.2500       0.3511       2.3735       4.1148
   1431.5695      12.0020       0.0860      93.9263      24.0011       3.4730    -999.2500    -999.2500    -999.2500       0.3565       2.3685       4.0863
   1431.7218      11.0276       0.0904      96.1427      24.0760       3.4334    -999.2500    -999.2500    -999.2500       0.3636       2.3633       4.0576
   1431.8741       9.6516       0.0953      99.2271      24.1584       3.3724    -999.2500    -999.2500    -999.2500       0.3740       2.3578       4.0286
   1432.0266       8.9600       0.1056     102.5773      24.1751       3.2803    -999.2500    -999.2500    -999.2500       0.3839       2.3503       3.9829
   1432.1790       8.9600       0.1151     106.1937      24.1250       3.1573    -999.2500    -999.2500    -999.2500       0.3929       2.3408       3.9203
   1432.3314       8.9588       0.1146     107.7730      24.2503       3.0023    -999.2500    -999.2500    -999.2500       0.4008       2.3297       3.8176
   1432.4838       8.9563       0.1144     107.3195      24.5500       2.8153    -999.2500    -999.2500    -999.2500       0.4068       2.3172       3.6752
   1432.6362       8.9513       0.1178     106.5693      24.6251       2.6345    -999.2500    -999.2500    -999.2500       0.4106       2.3048       3.4959
   1432.7886       8.9438       0.1215     105.5228      24.4752       2.4600    -999.2500    -999.2500    -999.2500       0.4098       2.2923       3.2795
   1432.9410       8.9467       0.1293     105.2282      24.4341       2.3071    -999.2500    -999.2500    -999.2500       0.4084       2.2795       3.0910
   1433.0934       8.9602       0.1362     105.6842      24.5026       2.1756    -999.2500    -999.2500    -999.2500       0.4056       2.2665       2.9306
