#------------------------------------------------------------------------------
#
#   Created by  : [OpenWorks] Log Export Utility (LEXP)
#   Created on  : 2016-05-12 17:01:20
#   Project     : CANT971
#   User        : R5K
#   Interpreter : PEP
#
#------------------------------------------------------------------------------
~VERSION INFORMATION
VERS. 2.0 : CWLS Log ASCII Standard - version 2.0
WRAP.  NO : One line per depth step
~WELL INFORMATION
#MNEMONIC   .UNIT                                           VALUE :DESCRIPTION
#------------------------------------------------------------------------------
STRT        .M                                           993.9530 :START DEPTH
STOP        .M                                          2371.9539 :STOP DEPTH
STEP        .M                                             0.1524 :STEP
NULL        .                                           -999.2500 :NULL VALUE
COMP        .                                   PEMEX EXPL & PROD :COMPANY
WELL        .                                                  55 :WELL
FLD         .                                           CANTARELL :FIELD
LOC         .                                             UNKNOWN :LOCATION
CNTY        .                                      CD. DEL CARMEN :COUNTY
STAT        .                                            CAMPECHE :STATE
CTRY        .                                              MEXICO :COUNTRY
SRVC        .                                             UNKNOWN :SERVICE COMPANY
DATE        .                                             UNKNOWN :LOG DATE
UWI         .                                          3060000168 :UNIQUE WELL ID
XCOORD      .                                       602149.520000 :SURFACE X
YCOORD      .                                      2147170.290000 :SURFACE Y
LAT         .                                           19.417375 :LATITUDE
LON         .                                          -92.027057 :LONGITUDE
ELEV        .M                                            28.1700 :SURFACE ELEV
ELEV_TYPE   .                                                  KB :ELEV TYPE
~CURVE INFORMATION
#MNEMONIC.UNIT        API CODE       : CURVE DESCRIPTION
#------------------------------------------------------------------------------
DEPTH    .M                          : Measured Depth
CALI     .inches      UNKNOWN        : CALI:CALI-Load:rC:NONE:v0 (auto-composite)
DRHO     .UNKNOWN     UNKNOWN        : DRHO:DRHO-Load:rC:NONE:v0 (auto-composite)
DT       .us/ft       UNKNOWN        : DT:DT:rC:NONE:v0 (auto-composite)
GR       .UNKNOWN     UNKNOWN        : GR:GR-Load:rC:NONE:v0 (auto-composite)
ILD      .UNKNOWN     UNKNOWN        : ILD:ILD-Load:rC:NONE:v0 (auto-composite)
LLD      .UNKNOWN     UNKNOWN        : LLD:LLD-Load:rC:NONE:v0 (auto-composite)
LLS      .UNKNOWN     UNKNOWN        : LLS:LLS-Load:rC:NONE:v0 (auto-composite)
MSFL     .UNKNOWN     UNKNOWN        : MSFL:MSFL-Load:rC:NONE:v0 (auto-composite)
NPHI     .v/v_decimal UNKNOWN        : NPHI:NPHI:rC:NONE:v0 (auto-composite)
RHOB     .UNKNOWN     UNKNOWN        : RHOB:RHOB-Load:rC:NONE:v0 (auto-composite)
SP       .UNKNOWN     UNKNOWN        : SP:SP-Load:rC:NONE:v0 (auto-composite)
~A     DEPTH         CALI         DRHO           DT           GR          ILD          LLD          LLS         MSFL         NPHI         RHOB           SP
    993.9530    -999.2500       0.0930    -999.2500      23.4800       0.2470    -999.2500    -999.2500    -999.2500      47.5900       2.0060      12.7400
    994.1054    -999.2500       0.0460    -999.2500      31.5227       0.3800    -999.2500    -999.2500    -999.2500      47.5665       2.0280      36.3773
    994.2578    -999.2500      -0.0010    -999.2500      39.5660       0.5130    -999.2500    -999.2500    -999.2500      47.5430       2.0500      60.0160
    994.4102    -999.2500      -0.0030    -999.2500      42.5277       0.6835    -999.2500    -999.2500    -999.2500      47.3645       2.0515      77.8303
    994.5626    -999.2500      -0.0050    -999.2500      45.4900       0.8540    -999.2500    -999.2500    -999.2500      47.1860       2.0530      95.6480
    994.7150    -999.2500      -0.0040    -999.2500      45.3030       0.8305    -999.2500    -999.2500    -999.2500      46.8536       2.0580      95.8550
    994.8674    -999.2500      -0.0030    -999.2500      45.1160       0.8070    -999.2500    -999.2500    -999.2500      46.5210       2.0630      96.0620
    995.0198    -999.2500      -0.0005    -999.2500      44.5185       0.8100    -999.2500    -999.2500    -999.2500      46.1255       2.0680      96.1830
    995.1722    -999.2500       0.0020    -999.2500      43.9210       0.8130    -999.2500    -999.2500    -999.2500      45.7300       2.0730      96.3040
    995.3246    -999.2500       0.0040    -999.2500      43.5120       0.8275    -999.2500    -999.2500    -999.2500      47.6002       2.0865      96.3920
    995.4770    -999.2500       0.0060    -999.2500      43.1030       0.8420    -999.2500    -999.2500    -999.2500      49.4700       2.1000      96.4800
    995.6294    -999.2500      -0.0010    -999.2500      41.7664       0.8640    -999.2500    -999.2500    -999.2500      49.3155       2.0950      96.4485
    995.7818    -999.2500      -0.0080    -999.2500      40.4300       0.8860    -999.2500    -999.2500    -999.2500      49.1610       2.0900      96.4170
    995.9342    -999.2500      -0.0070    -999.2500      40.5385       0.9080    -999.2500    -999.2500    -999.2500      48.1700       2.0940      96.2670
    996.0866    -999.2500      -0.0060    -999.2500      40.6470       0.9300    -999.2500    -999.2500    -999.2500      47.1790       2.0980      96.1170
    996.2390    -999.2500       0.0005    -999.2500      41.0960       0.9280    -999.2500    -999.2500    -999.2500      45.4501       2.1140      95.8185
    996.3914    -999.2500       0.0070    -999.2500      41.5450       0.9260    -999.2500    -999.2500    -999.2500      43.7210       2.1300      95.5200
    996.5438    -999.2500       0.0060    -999.2500      42.2174       0.9325    -999.2500    -999.2500    -999.2500      43.0006       2.1285      95.5960
    996.6962    -999.2500       0.0050    -999.2500      42.8900       0.9390    -999.2500    -999.2500    -999.2500      42.2800       2.1270      95.6720
    996.8486    -999.2500      -0.0005    -999.2500      42.7820       0.9360    -999.2500    -999.2500    -999.2500      42.4580       2.1220      95.9610
    997.0010    -999.2500      -0.0060    -999.2500      42.6740       0.9330    -999.2500    -999.2500    -999.2500      42.6360       2.1170      96.2500
    997.1534    -999.2500      -0.0060    -999.2500      41.4518       0.9210    -999.2500    -999.2500    -999.2500      44.2732       2.1120      96.4430
    997.3058    -999.2500      -0.0060    -999.2500      40.2300       0.9090    -999.2500    -999.2500    -999.2500      45.9100       2.1070      96.6360
    997.4582    -999.2500      -0.0055    -999.2500      40.3775       0.9090    -999.2500    -999.2500    -999.2500      45.5650       2.0985      96.7150
    997.6106    -999.2500      -0.0050    -999.2500      40.5250       0.9090    -999.2500    -999.2500    -999.2500      45.2200       2.0900      96.7940
    997.7630    -999.2500       0.0000    -999.2500      41.1215       0.9090    -999.2500    -999.2500    -999.2500      45.2500       2.0930      96.9480
    997.9154    -999.2500       0.0050    -999.2500      41.7180       0.9090    -999.2500    -999.2500    -999.2500      45.2800       2.0960      97.1020
    998.0678    -999.2500       0.0040    -999.2500      42.4540       0.9120    -999.2500    -999.2500    -999.2500      44.9830       2.1030      97.3400
    998.2202    -999.2500       0.0030    -999.2500      43.1900       0.9150    -999.2500    -999.2500    -999.2500      44.6860       2.1100      97.5780
    998.3726    -999.2500      -0.0005    -999.2500      43.0900       0.9245    -999.2500    -999.2500    -999.2500      42.9232       2.1100      97.8705
    998.5250    -999.2500      -0.0040    -999.2500      42.9900       0.9340    -999.2500    -999.2500    -999.2500      41.1600       2.1100      98.1630
    998.6774    -999.2500       0.0030    -999.2500      43.5149       0.9430    -999.2500    -999.2500    -999.2500      41.5550       2.1115      98.6004
    998.8298    -999.2500       0.0100    -999.2500      44.0400       0.9520    -999.2500    -999.2500    -999.2500      41.9500       2.1130      99.0380
    998.9822    -999.2500       0.0095    -999.2500      43.9785       0.9700    -999.2500    -999.2500    -999.2500      41.7450       2.1180      99.4920
    999.1346    -999.2500       0.0090    -999.2500      43.9170       0.9880    -999.2500    -999.2500    -999.2500      41.5400       2.1230      99.9460
    999.2870    -999.2500       0.0055    -999.2500      43.5785       1.0055    -999.2500    -999.2500    -999.2500      42.3301       2.1290     100.2555
    999.4394    -999.2500       0.0020    -999.2500      43.2400       1.0230    -999.2500    -999.2500    -999.2500      43.1200       2.1350     100.5650
    999.5918    -999.2500       0.0055    -999.2500      43.4915       1.0355    -999.2500    -999.2500    -999.2500      42.9990       2.1465     100.7575
    999.7442    -999.2500       0.0090    -999.2500      43.7430       1.0480    -999.2500    -999.2500    -999.2500      42.8780       2.1580     100.9500
    999.8966    -999.2500       0.0085    -999.2500      44.8165       1.0500    -999.2500    -999.2500    -999.2500      42.0190       2.1690     100.9185
   1000.0490    -999.2500       0.0080    -999.2500      45.8900       1.0520    -999.2500    -999.2500    -999.2500      41.1600       2.1800     100.8870
   1000.2014    -999.2500       0.0015    -999.2500      45.1401       1.0515    -999.2500    -999.2500    -999.2500      41.2520       2.1650     100.7825
   1000.3538    -999.2500      -0.0050    -999.2500      44.3900       1.0510    -999.2500    -999.2500    -999.2500      41.3440       2.1500     100.6780
   1000.5062    -999.2500       0.0025    -999.2500      44.3965       1.0435    -999.2500    -999.2500    -999.2500      42.1419       2.1550     100.5710
   1000.6586    -999.2500       0.0100    -999.2500      44.4030       1.0360    -999.2500    -999.2500    -999.2500      42.9400       2.1600     100.4640
   1000.8110    -999.2500       0.0080    -999.2500      44.6165       1.0180    -999.2500    -999.2500    -999.2500      42.1950       2.1585     100.1070
   1000.9634    -999.2500       0.0060    -999.2500      44.8300       1.0000    -999.2500    -999.2500    -999.2500      41.4500       2.1570      99.7500
   1001.1158    -999.2500       0.0130    -999.2500      45.4381       0.9890    -999.2500    -999.2500    -999.2500      41.4720       2.1510      99.7655
   1001.2682    -999.2500       0.0200    -999.2500      46.0460       0.9780    -999.2500    -999.2500    -999.2500      41.4940       2.1450      99.7810
   1001.4206    -999.2500       0.0180    -999.2500      46.3080       0.9780    -999.2500    -999.2500    -999.2500      42.3221       2.1325      99.8900
   1001.5730    -999.2500       0.0160    -999.2500      46.5700       0.9780    -999.2500    -999.2500    -999.2500      43.1500       2.1200      99.9990
   1001.7254    -999.2500       0.0100    -999.2500      46.7900       0.9770    -999.2500    -999.2500    -999.2500      43.0270       2.1215     100.2370
