#------------------------------------------------------------------------------
#
#   Created by  : [OpenWorks] Log Export Utility (LEXP)
#   Created on  : 2016-05-23 11:55:37
#   Project     : CANT971
#   User        : R5K
#   Interpreter : PEP
#
#------------------------------------------------------------------------------
~VERSION INFORMATION
VERS. 2.0 : CWLS Log ASCII Standard - version 2.0
WRAP.  NO : One line per depth step
~WELL INFORMATION
#MNEMONIC   .UNIT                                           VALUE :DESCRIPTION
#------------------------------------------------------------------------------
STRT        .M                                           299.0628 :START DEPTH
STOP        .M                                          2570.8896 :STOP DEPTH
STEP        .M                                             0.1524 :STEP
NULL        .                                           -999.2500 :NULL VALUE
COMP        .                                   PEMEX EXPL & PROD :COMPANY
WELL        .                                                  31 :WELL
FLD         .                                           CANTARELL :FIELD
LOC         .                                             UNKNOWN :LOCATION
CNTY        .                                      CD. DEL CARMEN :COUNTY
STAT        .                                            CAMPECHE :STATE
CTRY        .                                              MEXICO :COUNTRY
SRVC        .                                             UNKNOWN :SERVICE COMPANY
DATE        .                                             UNKNOWN :LOG DATE
UWI         .                                          3060000157 :UNIQUE WELL ID
XCOORD      .                                       599727.810000 :SURFACE X
YCOORD      .                                      2147216.930000 :SURFACE Y
LAT         .                                           19.417919 :LATITUDE
LON         .                                          -92.050118 :LONGITUDE
ELEV        .M                                            27.8000 :SURFACE ELEV
ELEV_TYPE   .                                                  KB :ELEV TYPE
~CURVE INFORMATION
#MNEMONIC.UNIT        API CODE       : CURVE DESCRIPTION
#------------------------------------------------------------------------------
DEPTH    .M                          : Measured Depth
CALI     .inches      UNKNOWN        : CALI:Import:rC:NONE:v0 (auto-composite)
DRHO     .g/cm3       UNKNOWN        : DRHO:Import:rC:NONE:v0 (auto-composite)
DT       .us/ft       UNKNOWN        : DT:Import:rC:NONE:v0 (auto-composite)
GR       .API         UNKNOWN        : GR:Import:rC:NONE:v0 (auto-composite)
ILD      .ohm.m       UNKNOWN        : ILD:Import:rC:NONE:v0 (auto-composite)
LLD      .ohm.m       UNKNOWN        : LLD:Import:rC:NONE:v0 (auto-composite)
LLS      .ohm.m       UNKNOWN        : LLS:Import:rC:NONE:v0 (auto-composite)
MSFL     .ohm.m       UNKNOWN        : MSFL:Import:rC:NONE:v0 (auto-composite)
NPHI     .v/v_decimal UNKNOWN        : NPHI:Import:rC:NONE:v0 (auto-composite)
RHOB     .g/cm3       UNKNOWN        : RHOB:Import:rC:NONE:v0 (auto-composite)
~A     DEPTH         CALI         DRHO           DT           GR          ILD          LLD          LLS         MSFL         NPHI         RHOB
# ...
   2552.1443       6.5007       0.1181    -999.2500      77.3251    -999.2500      31.5922      19.7951       5.9970       0.1036       2.6203
   2552.2969       6.5104       0.1369    -999.2500      73.5076    -999.2500      36.0917      22.9769       7.5217       0.1043       2.5981
   2552.4492       6.5224       0.1600    -999.2500      69.0979    -999.2500      41.5541      26.8755       9.3969       0.1053       2.5750
   2552.6016       6.5191       0.1638    -999.2500      63.9929    -999.2500      62.5061      35.9125      24.2999       0.1057       2.5727
   2552.7539       6.5116       0.1623    -999.2500      58.6957    -999.2500      87.7396      46.3832      42.8381       0.1056       2.5762
   2552.9065       6.4416       0.1534    -999.2500      54.6683    -999.2500      92.1317      60.1502      45.2299       0.1054       2.5935
   2553.0588       6.3545       0.1424    -999.2500      50.9870    -999.2500      90.8422      74.8244      43.1780       0.1050       2.6145
   2553.2112       6.3636       0.1203    -999.2500      47.8769    -999.2500      85.8540      90.5339      44.3701       0.1040       2.6848
   2553.3635       6.3987       0.0953    -999.2500      44.9205    -999.2500      79.8810     106.5244      46.4427       0.1025       2.7685
   2553.5161       6.5615       0.0497    -999.2500      41.1889    -999.2500      71.5845     108.8331      46.1169       0.0998       2.7832
   2553.6685       6.7582      -0.0014    -999.2500      37.2518    -999.2500      62.6781     107.5151      45.1552       0.0961       2.7797
   2553.8208       7.1522      -0.0112    -999.2500      32.2058    -999.2500      52.5381     101.6930      40.6421       0.0908       2.7798
   2553.9731       7.5977      -0.0102    -999.2500      26.8701    -999.2500      42.0789      94.6938      35.2007       0.0857       2.7808
   2554.1255       8.2033      -0.0032    -999.2500      17.5218    -999.2500      40.1113      83.3333      34.3591       0.0836       2.7806
   2554.2781       8.8501       0.0053    -999.2500       7.1399    -999.2500      40.3101      70.8492      34.7025       0.0834       2.7801
   2554.4304       9.5716       0.0266    -999.2500       7.0021    -999.2500      43.4902      57.0341      35.7513       0.0836       2.7780
   2554.5828      10.3120       0.0511    -999.2500       9.4399    -999.2500      47.4200      42.8811      36.9792       0.0843       2.7755
   2554.7351      11.0307       0.0864    -999.2500      18.6108    -999.2500      48.0786      43.1061      38.0069       0.0863       2.7670
   2554.8877      11.7440       0.1245    -999.2500      29.4500    -999.2500      47.9350      46.9296      38.9846       0.0907       2.7570
   2555.0400      12.3258       0.2116    -999.2500      43.8657    -999.2500      45.7219      47.6096      40.3583       0.1005       2.7257
   2555.1924      12.8754       0.3108    -999.2500      59.1546    -999.2500      43.0087      47.5145      41.8297       0.1107       2.6891
   2555.3447      13.2463       0.3272    -999.2500      71.2177    -999.2500      42.6123      44.8428      46.5627       0.1137       2.6360
   2555.4973      13.5742       0.3237    -999.2500      82.5049    -999.2500      42.7675      41.5515      52.0801       0.1115       2.5789
   2555.6497      13.7621       0.3072    -999.2500      88.9851    -999.2500      44.7276      41.0833      62.2856       0.1054       2.5235
   2555.8020      13.9167       0.2877    -999.2500      94.3264    -999.2500      47.1109      41.2840      73.6018       0.0965       2.4684
   2555.9543      13.9960       0.2515    -999.2500      96.8192    -999.2500      47.4486      44.0332      89.0380       0.0840       2.3963
   2556.1067      14.0576       0.2115    -999.2500      98.6473    -999.2500      47.3139      47.3771     105.4357       0.0691       2.3202
   2556.2593      14.0837       0.1686    -999.2500      99.3490    -999.2500      46.3604      46.9014     140.1222       0.0516       2.3060
   2556.4116      14.1017       0.1250    -999.2500      99.7945    -999.2500      45.2207      45.5478     179.0117       0.0313       2.3060
   2556.5640      14.1075       0.0937    -999.2500      99.9267    -999.2500      41.6998      39.8594     252.5379       0.0061       2.3072
   2556.7163      14.1105       0.0652    -999.2500      99.9888    -999.2500      37.6516      33.1901     333.9022      -0.0169       2.3087
   2556.8689    -999.2500       0.0477    -999.2500    -999.2500    -999.2500      31.0413      24.6051     417.5834      -0.0256       2.3143
   2557.0212    -999.2500       0.0327    -999.2500    -999.2500    -999.2500      23.8724      15.5933     501.7809      -0.0267       2.3208
   2557.1736    -999.2500       0.0111    -999.2500    -999.2500    -999.2500      17.3671      10.0762     585.0335      -0.0267       2.3364
   2557.3259    -999.2500      -0.0119    -999.2500    -999.2500    -999.2500      11.0041       5.3172     668.0812      -0.0267       2.3539
   2557.4785    -999.2500      -0.0160    -999.2500    -999.2500    -999.2500       7.3481       3.3464     673.4506      -0.0267       2.4280
   2557.6309    -999.2500      -0.0160    -999.2500    -999.2500    -999.2500       4.2635       1.9708     662.2390      -0.0267       2.5141
   2557.7832    -999.2500      -0.0156    -999.2500    -999.2500    -999.2500       2.8755       1.4408     602.1554      -0.0267       2.5286
   2557.9355    -999.2500      -0.0151    -999.2500    -999.2500    -999.2500       1.8400       1.0883     531.8076      -0.0267       2.5281
   2558.0879    -999.2500      -0.0121    -999.2500    -999.2500    -999.2500       1.3507       1.0280     420.8788      -0.0267       2.5255
   2558.2405    -999.2500      -0.0086    -999.2500    -999.2500    -999.2500       0.9718       1.0280     301.5656      -0.0267       2.5225
   2558.3928    -999.2500      -0.0022    -999.2500    -999.2500    -999.2500       0.7649       1.0280     219.7476      -0.0267       2.5158
   2558.5452    -999.2500       0.0048    -999.2500    -999.2500    -999.2500       0.5922       1.0280     145.5488      -0.0267       2.5082
   2558.6975    -999.2500       0.0202    -999.2500    -999.2500    -999.2500       0.4953       1.0280     105.4024      -0.0267       2.4924
   2558.8501    -999.2500       0.0372    -999.2500    -999.2500    -999.2500       0.4132       1.0280      71.9823      -0.0267       2.4748
   2559.0024    -999.2500       0.0631    -999.2500    -999.2500    -999.2500       0.3660       1.0280      50.8302      -0.0267       2.4439
   2559.1548    -999.2500       0.0906    -999.2500    -999.2500    -999.2500       0.3254       1.0280      32.0602      -0.0267       2.4104
   2559.3071    -999.2500       0.1379    -999.2500    -999.2500    -999.2500       0.2748       1.0280      21.1497      -0.0267       2.3726
   2559.4597    -999.2500       0.1889    -999.2500    -999.2500    -999.2500       0.2222       1.0280      11.7392      -0.0267       2.3341
   2559.6121    -999.2500       0.1936    -999.2500    -999.2500    -999.2500       0.2140       1.0280       7.4224      -0.0267       2.2749
   2559.7644    -999.2500       0.1896    -999.2500    -999.2500    -999.2500       0.2140       1.0280       4.0610      -0.0267       2.2118
   2559.9167    -999.2500       0.1725    -999.2500    -999.2500    -999.2500       0.2148       1.0280       2.6854      -0.0267       2.2037
   2560.0691    -999.2500       0.1530    -999.2500    -999.2500    -999.2500       0.2158       1.0280       1.6757      -0.0267       2.2057
   2560.2217    -999.2500       0.1216    -999.2500    -999.2500    -999.2500       0.2177       1.0280       1.2584      -0.0267       2.2060
   2560.3740    -999.2500       0.0880    -999.2500    -999.2500    -999.2500       0.2197       1.0280       0.9483      -0.0267       2.2060
   2560.5264    -999.2500       0.0592    -999.2500    -999.2500    -999.2500       0.2221       1.0280       0.7772      -0.0267       2.2043
