#------------------------------------------------------------------------------
#
#   Created by  : [OpenWorks] Log Export Utility (LEXP)
#   Created on  : 2016-05-23 11:55:55
#   Project     : CANT971
#   User        : R5K
#   Interpreter : PEP
#
#------------------------------------------------------------------------------
~VERSION INFORMATION
VERS. 2.0 : CWLS Log ASCII Standard - version 2.0
WRAP.  NO : One line per depth step
~WELL INFORMATION
#MNEMONIC   .UNIT                                           VALUE :DESCRIPTION
#------------------------------------------------------------------------------
STRT        .M                                          2870.4541 :START DEPTH
STOP        .M                                          3966.9722 :STOP DEPTH
STEP        .M                                             0.1524 :STEP
NULL        .                                           -999.2500 :NULL VALUE
COMP        .                                             UNKNOWN :COMPANY
WELL        .                                            418D-ST1 :WELL
FLD         .                                             UNKNOWN :FIELD
LOC         .                                             UNKNOWN :LOCATION
CNTY        .                                             UNKNOWN :COUNTY
STAT        .                                             UNKNOWN :STATE
CTRY        .                                             UNKNOWN :COUNTRY
SRVC        .                                             UNKNOWN :SERVICE COMPANY
DATE        .                                             UNKNOWN :LOG DATE
UWI         .                                            418D-ST1 :UNIQUE WELL ID
XCOORD      .                                       597130.010000 :SURFACE X
YCOORD      .                                      2144879.410000 :SURFACE Y
LAT         .                                           19.396924 :LATITUDE
LON         .                                          -92.074978 :LONGITUDE
ELEV        .M                                             0.0000 :SURFACE ELEV
ELEV_TYPE   .                                                  NA :ELEV TYPE
~CURVE INFORMATION
#MNEMONIC.UNIT        API CODE       : CURVE DESCRIPTION
#------------------------------------------------------------------------------
DEPTH    .M                          : Measured Depth
CALI     .inches      UNKNOWN        : CALI:litodensidad:rC:NONE:v0 (auto-composite)
CGR      .API         UNKNOWN        : CGR:litodensidad:rC:NONE:v0 (auto-composite)
DRHO     .g/cm3       UNKNOWN        : DRHO:litodensidad:rC:NONE:v0 (auto-composite)
DT       .us/ft       UNKNOWN        : DT:DT-Load:rC:NONE:v0 (auto-composite)
GR       .API         UNKNOWN        : GR:litodensidad:rC:NONE:v0 (auto-composite)
LLD      .ohm.m       UNKNOWN        : LLD:PETROWORKS:rC:NONE:v1 
LLS      .ohm.m       UNKNOWN        : LLS:PETROWORKS:rC:NONE:v1 
MSFL     .ohm.m       UNKNOWN        : MSFL:resistivos:rC:NONE:v0 (auto-composite)
NPHI     .v/v_decimal UNKNOWN        : NPHI:litodensidad:rC:NONE:v0 (auto-composite)
PEF      .UNKNOWN     UNKNOWN        : PEF:litodensidad:rC:NONE:v0 (auto-composite)
POTA     .UNKNOWN     UNKNOWN        : POTA:litodensidad:rC:NONE:v0 (auto-composite)
RHOB     .g/cm3       UNKNOWN        : RHOB:litodensidad:rC:NONE:v0 (auto-composite)
THOR     .ppm         UNKNOWN        : THOR:litodensidad:rC:NONE:v0 (auto-composite)
URAN     .ppm         UNKNOWN        : URAN:litodensidad:rC:NONE:v0 (auto-composite)
~A     DEPTH         CALI          CGR         DRHO           DT           GR          LLD          LLS         MSFL         NPHI          PEF         POTA         RHOB         THOR         URAN
# ...
   3568.1414      12.1953      88.9393      -0.0060      68.6000     102.8049       8.9086       8.0812       0.9639       0.1582       3.9746       0.0312       2.6097      10.5998       1.7821
   3568.2937      12.1953      78.1957      -0.0000      71.8000      89.9385       9.4776       8.5501       0.9746       0.1259       4.4492       0.0245       2.6064      10.5748       1.5092
   3568.4460      12.1797      78.8801       0.0265      67.4000      91.3461       8.9266       7.9958       0.9868       0.1123       5.1953       0.0245       2.5620      10.7878       1.6022
   3568.5984      12.2969      78.1571       0.0136      47.2000      90.5153       7.9158       7.0081       1.0527       0.1075       6.1953       0.0240       2.5229      10.7917       1.5883
   3568.7510      12.5703      78.1519       0.0136      59.0000      90.6302       7.5549       6.6533       0.9712       0.1396       6.2070       0.0239       2.5616      10.8451       1.6038
   3568.9033      12.5234      77.5363       0.0393      57.6000      89.8569       8.1180       6.9732       0.9727       0.1479       5.4648       0.0235       2.7000      10.8269       1.5835
   3569.0557      12.1641      64.0055       0.0413      57.4000      75.6933      11.0986       9.3549       0.9409       0.1270       5.6328       0.0202       2.7868       8.6088       1.5022
   3569.2080      12.1328      52.3847      -0.0053      53.7000      62.9427      18.4444      15.2417       1.0742       0.0626       5.8047       0.0142       2.7682       8.0301       1.3569
   3569.3606      12.1172      29.2612      -0.0050      54.1000      38.7056      30.4955      24.6680       1.0186       0.0243       5.9648       0.0086       2.7759       4.2229       1.2138
   3569.5129      12.1328      24.3217      -0.0085      53.1000      30.8711      36.9700      30.0274       1.0049       0.0178       5.9961       0.0076       2.7695       3.3202       0.8418
   3569.6653      12.1406      23.8284      -0.0085      54.5000      29.7887      37.2132      29.9628       1.0771       0.0185       5.8438       0.0075       2.7625       3.2053       0.7660
   3569.8176      12.1563      27.0753      -0.0072      54.0000      33.8917      35.5091      28.5807       1.2070       0.0195       5.6953       0.0091       2.7557       3.4062       0.8761
   3569.9702      12.1250      25.4098      -0.0027      54.1000      31.1009      36.7176      29.6504       1.1465       0.0189       5.5977       0.0084       2.7636       3.2349       0.7314
   3570.1226      12.1406      25.2094      -0.0024      56.0000      30.1675      42.4546      34.2591       1.0811       0.0188       5.9023       0.0082       2.7628       3.2784       0.6372
   3570.2749      12.1719      25.1720      -0.0010      54.2000      30.2347      49.0654      39.2379       1.0156       0.0189       6.4609       0.0077       2.7583       3.4706       0.6507
   3570.4272      12.1641      24.0521      -0.0023      52.1000      28.3421      60.5697      48.6743       1.0107       0.0191       6.6367       0.0075       2.7514       3.2925       0.5514
   3570.5796      12.1719      23.4077      -0.0035      53.7000      26.9028      79.7623      62.2392       0.9795       0.0155       6.3203       0.0077       2.7508       3.0202       0.4492
   3570.7322      12.1484      21.6461      -0.0057      53.0000      22.6310      86.5663      67.4845       1.0371       0.0102       5.8750       0.0080       2.7527       2.4242       0.1266
   3570.8845      12.1563      21.5753      -0.0049      51.6000      22.5332      84.0804      65.9653       1.2207       0.0069       5.9727       0.0077       2.7466       2.5316       0.1231
   3571.0369      12.1328      18.6383      -0.0050      52.3000      17.8840      82.9649      65.0016       1.2139       0.0053       6.0938       0.0067       2.7413       2.1398      -0.0970
   3571.1892      12.1484      20.6747      -0.0025      50.9000      21.8333      83.8326      66.5093       1.3857       0.0061       5.9688       0.0078       2.7426       2.2298       0.1489
   3571.3418      12.1250      17.9329      -0.0013      50.0000      18.5163      83.8854      67.3018       1.4307       0.0065       6.2617       0.0064       2.7521       2.1133       0.0750
   3571.4941      12.1484      19.6100       0.0013      53.5000      21.8914      83.1973      68.0219       1.2441       0.0074       6.0703       0.0063       2.7565       2.5974       0.2932
   3571.6465      12.1563      16.8609      -0.0017      52.7000      18.5360      79.5423      67.4970       1.2109       0.0083       6.3828       0.0048       2.7475       2.4999       0.2153
   3571.7988      12.1719      17.8291      -0.0030      53.1000      20.2067      67.9240      59.7531       1.2637       0.0106       6.1055       0.0051       2.7397       2.6200       0.3056
   3571.9514      12.1719      17.9876      -0.0027      53.9000      21.0953      59.5257      53.2952       1.1934       0.0143       6.4141       0.0050       2.7371       2.7250       0.3994
   3572.1038      12.1719      18.1618      -0.0014      54.0000      21.7065      51.7933      48.0456       1.2734       0.0218       6.4883       0.0050       2.7274       2.7401       0.4556
   3572.2561      12.1719      17.0624      -0.0009      54.2000      20.0490      48.4573      46.0576       1.2598       0.0249       6.8789       0.0049       2.7065       2.5090       0.3838
   3572.4084      12.1719      19.0654       0.0018      51.1000      22.6435      50.5920      48.7576       1.1309       0.0238       7.0391       0.0062       2.6892       2.4737       0.4599
   3572.5608      12.1719      18.6801       0.0038      49.9000      21.9545      54.7190      53.8256       0.9751       0.0180       6.9805       0.0066       2.6946       2.1949       0.4208
   3572.7134      12.1719      19.9494       0.0046      47.8000      24.1381      60.0808      59.5144       0.8848       0.0148       6.3281       0.0075       2.7118       2.1669       0.5383
   3572.8657      12.1719      18.5002       0.0048      50.0000      22.8465      67.3114      66.7625       0.8774       0.0114       6.0234       0.0072       2.7385       1.8934       0.5586
   3573.0181      12.1719      18.6774       0.0043      49.7000      23.6250      73.4740      73.3041       0.8462       0.0080       5.8750       0.0075       2.7594       1.8349       0.6359
   3573.1704      12.1719      17.1500       0.0013      49.3000      21.9024      73.5370      73.2045       0.8457       0.0057       5.8555       0.0068       2.7668       1.6949       0.6108
   3573.3230      12.1797      17.0674      -0.0002      50.3000      21.5091      77.8640      76.8171       0.8569       0.0051       5.8477       0.0069       2.7659       1.6375       0.5709
   3573.4753      12.1875      18.2134      -0.0002      49.9000      23.3166      83.2284      81.0030       0.8516       0.0047       5.8008       0.0072       2.7646       1.8206       0.6559
   3573.6277      12.1719      18.1846      -0.0010      50.3000      23.2131      95.3518      91.4753       0.8896       0.0042       5.8906       0.0071       2.7652       1.8523       0.6463
   3573.7800      12.1719      17.1324      -0.0008      49.8000      21.2358     106.8886     100.4212       0.8970       0.0036       6.2656       0.0065       2.7709       1.8275       0.5274
   3573.9326      12.1797      16.6171      -0.0011      49.9000      19.9675     121.7013     112.0435       0.8745       0.0030       6.3555       0.0064       2.7730       1.7549       0.4306
   3574.0850      12.2188      15.8992       0.0008      49.8000      18.9288     132.7017     119.4918       0.8472       0.0020       6.0664       0.0060       2.7754       1.6964       0.3894
   3574.2373      12.2578      17.0214       0.0008      50.2000      20.8168     139.4152     123.8954       0.8403       0.0007       5.6289       0.0065       2.7764       1.7919       0.4878
   3574.3896      12.2734      18.5831      -0.0002      50.3000      23.1987     143.7559     126.5425       0.8599       0.0004       5.3281       0.0068       2.7753       2.0761       0.5932
