#------------------------------------------------------------------------------
#
#   Created by  : [OpenWorks] Log Export Utility (LEXP)
#   Created on  : 2016-05-23 11:56:31
#   Project     : CANT971
#   User        : R5K
#   Interpreter : PEP
#
#------------------------------------------------------------------------------
~VERSION INFORMATION
VERS. 2.0 : CWLS Log ASCII Standard - version 2.0
WRAP.  NO : One line per depth step
~WELL INFORMATION
#MNEMONIC   .UNIT                                           VALUE :DESCRIPTION
#------------------------------------------------------------------------------
STRT        .M                                          1639.8856 :START DEPTH
STOP        .M                                          2789.8960 :STOP DEPTH
STEP        .M                                             0.1524 :STEP
NULL        .                                           -999.2500 :NULL VALUE
COMP        .                                             UNKNOWN :COMPANY
WELL        .                                                 477 :WELL
FLD         .                                             UNKNOWN :FIELD
LOC         .                                             UNKNOWN :LOCATION
CNTY        .                                             UNKNOWN :COUNTY
STAT        .                                             UNKNOWN :STATE
CTRY        .                                             UNKNOWN :COUNTRY
SRVC        .                                             UNKNOWN :SERVICE COMPANY
DATE        .                                             UNKNOWN :LOG DATE
UWI         .                                                 477 :UNIQUE WELL ID
XCOORD      .                                       598704.070000 :SURFACE X
YCOORD      .                                      2143268.860000 :SURFACE Y
LAT         .                                           19.382293 :LATITUDE
LON         .                                          -92.060073 :LONGITUDE
ELEV        .M                                             0.0000 :SURFACE ELEV
ELEV_TYPE   .                                                  KB :ELEV TYPE
~CURVE INFORMATION
#MNEMONIC.UNIT        API CODE       : CURVE DESCRIPTION
#------------------------------------------------------------------------------
DEPTH    .M                          : Measured Depth
CALI     .inches      UNKNOWN        : CALI:litodensidad:rC:NONE:v0 (auto-composite)
CGR      .API         UNKNOWN        : CGR:Espectrometria:rC:NONE:v0 (auto-composite)
DRHO     .g/cm3       UNKNOWN        : DRHO:litodensidad:rC:NONE:v0 (auto-composite)
DT       .us/ft       UNKNOWN        : DT:Sonico:rC:NONE:v0 (auto-composite)
GR       .API         UNKNOWN        : GR:Espectrometria:rC:NONE:v0 (auto-composite)
GR-LWD   .API         UNKNOWN        : GR-LWD:resistivos-LWD:rC:NONE:v0 (auto-composite)
LLD      .ohm.m       UNKNOWN        : LLD:resistivos:rC:NONE:v0 (auto-composite)
LLD-LWD  .ohm.m       UNKNOWN        : LLD-LWD:resistivos-LWD:rC:NONE:v0 (auto-composite)
LLS      .ohm.m       UNKNOWN        : LLS:resistivos:rC:NONE:v0 (auto-composite)
LLS-LWD  .ohm.m       UNKNOWN        : LLS-LWD:resistivos-LWD:rC:NONE:v0 (auto-composite)
MSFL     .ohm.m       UNKNOWN        : MSFL:resistivos:rC:NONE:v0 (auto-composite)
MSFL-LWD .ohm.m       UNKNOWN        : MSFL-LWD:resistivos-LWD:rC:NONE:v0 (auto-composite)
NPHI     .UNKNOWN     UNKNOWN        : NPHI:porosidad:rC:NONE:v0 (auto-composite)
PEF      .UNKNOWN     UNKNOWN        : PEF:litodensidad:rC:NONE:v0 (auto-composite)
POTA     .wtpercent   UNKNOWN        : POTA:PETROWORKS:rC:NONE:v1 
RHOB     .g/cm3       UNKNOWN        : RHOB:litodensidad:rC:NONE:v0 (auto-composite)
THOR     .ppm         UNKNOWN        : THOR:Espectrometria:rC:NONE:v0 (auto-composite)
URAN     .ppm         UNKNOWN        : URAN:Espectrometria:rC:NONE:v0 (auto-composite)
~A     DEPTH         CALI          CGR         DRHO           DT           GR       GR-LWD          LLD      LLD-LWD          LLS      LLS-LWD         MSFL     MSFL-LWD         NPHI          PEF         POTA         RHOB         THOR         URAN
# ...
   2137.7764       9.2058       7.7749       0.0184    -999.2500      64.7494    -999.2500    1186.6023    -999.2500     172.9111    -999.2500      24.1170    -999.2500       0.0249       3.3010       0.0023       2.7246       1.2744       6.3432
   2137.9287       9.0470       3.5909       0.0205    -999.2500      60.3280    -999.2500    1124.5277    -999.2500     173.2195    -999.2500      22.1436    -999.2500       0.0260       3.3162       0.0010       2.6958       0.6088       6.3168
   2138.0813       9.2060       2.6930       0.0551    -999.2500      53.1981    -999.2500    1074.9109    -999.2500     172.8241    -999.2500      21.9884    -999.2500       0.0281       3.4106       0.0014       2.6535       0.2043       5.6229
   2138.2336       9.1963       4.5312       0.1043    -999.2500      46.7041    -999.2500     975.7841    -999.2500     169.8312    -999.2500      21.4934    -999.2500       0.0324       3.5183       0.0026       2.6272       0.2693       4.6953
   2138.3860       9.2039       5.9021       0.1342    -999.2500      41.4680    -999.2500     860.5834    -999.2500     152.0471    -999.2500      28.0124    -999.2500       0.0364       3.5708       0.0031       2.6099       0.4275       3.9597
   2138.5383       9.1796       5.3915       0.1311    -999.2500      37.3515    -999.2500     781.0903    -999.2500     130.9548    -999.2500      19.2235    -999.2500       0.0368       3.5344       0.0029       2.5894       0.3651       3.5582
   2138.6909       9.0861       3.7046       0.1130    -999.2500      34.6652    -999.2500     737.1537    -999.2500     113.1716    -999.2500       9.0674    -999.2500       0.0367       3.4302       0.0023       2.5880       0.1561       3.4470
   2138.8433       9.1578       2.4397       0.0997    -999.2500      33.1003    -999.2500     721.9654    -999.2500     103.9795    -999.2500       6.6787    -999.2500       0.0366       3.3325       0.0013       2.6072       0.1738       3.4135
   2138.9956       9.2105       1.4640       0.1329    -999.2500      32.6637    -999.2500     713.2353    -999.2500     101.2012    -999.2500       7.3854    -999.2500       0.0336       3.3674       0.0006       2.6286       0.1833       3.4736
   2139.1479       9.2495       1.4489       0.2440    -999.2500      33.4981    -999.2500     677.4760    -999.2500      96.9228    -999.2500       6.5934    -999.2500       0.0296       3.5767       0.0003       2.6559       0.2782       3.5682
   2139.3005       9.3451       1.3376       0.3750    -999.2500      35.1620    -999.2500     643.2687    -999.2500      92.2175    -999.2500       6.7269    -999.2500       0.0285       3.8243       0.0003       2.7161       0.2607       3.7658
   2139.4529       9.3678       1.1042       0.3965    -999.2500      35.3128    -999.2500     606.1102    -999.2500      87.3436    -999.2500       6.7488    -999.2500       0.0293       3.9200       0.0003       2.7401       0.1960       3.8086
   2139.6052       9.3183       1.4593       0.3104    -999.2500      33.1971    -999.2500     594.1138    -999.2500      83.0305    -999.2500       5.5214    -999.2500       0.0296       3.8717       0.0003       2.6803       0.2925       3.5335
   2139.7576       9.3239       4.2865       0.1609    -999.2500      32.2834    -999.2500     587.3345    -999.2500      82.5793    -999.2500       5.5027    -999.2500       0.0282       3.6667       0.0015       2.5875       0.6119       3.1170
   2139.9099       9.3084       8.1496       0.0384    -999.2500      33.0152    -999.2500     606.6014    -999.2500      82.2048    -999.2500       6.0112    -999.2500       0.0236       3.4574       0.0032       2.5628       1.0331       2.7684
   2140.0625       9.0406       8.6187      -0.0112    -999.2500      35.6087    -999.2500     660.5150    -999.2500      85.6990    -999.2500       7.3870    -999.2500       0.0177       3.3573       0.0042       2.6456       0.7659       3.0049
   2140.2148       9.0647       7.6671      -0.0171    -999.2500      38.1738    -999.2500     743.4781    -999.2500      95.0856    -999.2500      18.5468    -999.2500       0.0149       3.3649       0.0045       2.7312       0.4003       3.3964
   2140.3672       9.1155       6.1444      -0.0083    -999.2500      40.4239    -999.2500     823.9352    -999.2500     101.7661    -999.2500     187.4407    -999.2500       0.0154       3.3955       0.0042       2.7635       0.0797       3.8165
   2140.5195       9.0428       6.1529       0.0011    -999.2500      41.1827    -999.2500     871.9581    -999.2500     105.2106    -999.2500     445.1823    -999.2500       0.0183       3.3892       0.0043       2.7221       0.0516       3.9000
   2140.6721       9.1387       6.3383       0.0304    -999.2500      40.4291    -999.2500     820.5604    -999.2500     100.8404    -999.2500     256.1822    -999.2500       0.0232       3.3591       0.0044       2.6283       0.0505       3.7955
   2140.8245       9.1239       6.7873       0.0800    -999.2500      38.4316    -999.2500     718.6406    -999.2500      89.5669    -999.2500     140.4879    -999.2500       0.0286       3.3546       0.0047       2.5488       0.0625       3.5231
   2140.9768       9.0116       7.3342       0.1153    -999.2500      36.3349    -999.2500     638.3401    -999.2500      75.7886    -999.2500      34.7227    -999.2500       0.0313       3.3738       0.0046       2.5644       0.2478       3.2287
   2141.1292       9.0112       8.6203       0.1020    -999.2500      34.5978    -999.2500     589.1404    -999.2500      64.9674    -999.2500       8.9359    -999.2500       0.0287       3.3760       0.0048       2.6504       0.5333       2.8922
   2141.2817       9.0076       7.7603       0.0595    -999.2500      32.9833    -999.2500     583.9901    -999.2500      58.1359    -999.2500       7.8715    -999.2500       0.0238       3.3559       0.0047       2.7265       0.3274       2.8081
   2141.4341       8.9994       6.1460       0.0243    -999.2500      32.8556    -999.2500     626.3838    -999.2500      58.9832    -999.2500      12.2542    -999.2500       0.0203       3.3218       0.0042       2.7487       0.0893       2.9737
   2141.5864       9.0158       4.5547       0.0107    -999.2500      30.3273    -999.2500     687.7747    -999.2500      65.0184    -999.2500      12.8184    -999.2500       0.0179       3.2879       0.0030       2.7351       0.0967       2.8694
   2141.7388       9.0123       3.8374       0.0440    -999.2500      29.4056    -999.2500     698.8537    -999.2500      69.2746    -999.2500      14.3579    -999.2500       0.0168       3.3219       0.0023       2.7027       0.1925       2.8466
   2141.8911       9.0960       4.5536       0.1392    -999.2500      30.6390    -999.2500     707.3857    -999.2500      70.0631    -999.2500      23.9238    -999.2500       0.0173       3.4591       0.0024       2.6722       0.3276       2.9042
   2142.0437       9.2709       4.5692       0.2575    -999.2500      33.9890    -999.2500     669.1887    -999.2500      67.3914    -999.2500      37.5093    -999.2500       0.0199       3.6744       0.0025       2.6644       0.3163       3.2754
   2142.1960       9.3133       4.8141       0.3289    -999.2500      35.6529    -999.2500     605.9181    -999.2500      60.4415    -999.2500      13.5998    -999.2500       0.0232       3.8732       0.0026       2.6436       0.3412       3.4334
   2142.3484       9.4309       4.3233       0.3457    -999.2500      34.9777    -999.2500     576.9171    -999.2500      53.5031    -999.2500       4.4065    -999.2500       0.0265       4.0047       0.0025       2.6064       0.2379       3.4129
   2142.5007       9.2921       4.3673       0.3244    -999.2500      32.5178    -999.2500     555.5828    -999.2500      50.5771    -999.2500       1.6508    -999.2500       0.0302       4.0328       0.0025       2.5755       0.2578       3.1341
   2142.6533       9.3128       5.6363       0.2760    -999.2500      30.7104    -999.2500     534.4080    -999.2500      48.4119    -999.2500       2.4064    -999.2500       0.0325       3.9481       0.0036       2.5992       0.1870       2.7916
