#------------------------------------------------------------------------------
#
#   Created by  : [OpenWorks] Log Export Utility (LEXP)
#   Created on  : 2016-05-23 11:57:27
#   Project     : CANT971
#   User        : R5K
#   Interpreter : PEP
#
#------------------------------------------------------------------------------
~VERSION INFORMATION
VERS. 2.0 : CWLS Log ASCII Standard - version 2.0
WRAP.  NO : One line per depth step
~WELL INFORMATION
#MNEMONIC   .UNIT                                           VALUE :DESCRIPTION
#------------------------------------------------------------------------------
STRT        .M                                           813.0000 :START DEPTH
STOP        .M                                          2589.2219 :STOP DEPTH
STEP        .M                                             0.1524 :STEP
NULL        .                                           -999.2500 :NULL VALUE
COMP        .                                   PEMEX EXPL & PROD :COMPANY
WELL        .                                                  84 :WELL
FLD         .                                           CANTARELL :FIELD
LOC         .                                             UNKNOWN :LOCATION
CNTY        .                                      CD. DEL CARMEN :COUNTY
STAT        .                                            CAMPECHE :STATE
CTRY        .                                              MEXICO :COUNTRY
SRVC        .                                             UNKNOWN :SERVICE COMPANY
DATE        .                                             UNKNOWN :LOG DATE
UWI         .                                          3060000616 :UNIQUE WELL ID
XCOORD      .                                       601709.550000 :SURFACE X
YCOORD      .                                      2142344.590000 :SURFACE Y
LAT         .                                           19.373791 :LATITUDE
LON         .                                          -92.031505 :LONGITUDE
ELEV        .M                                            24.0000 :SURFACE ELEV
ELEV_TYPE   .                                                  KB :ELEV TYPE
~CURVE INFORMATION
#MNEMONIC.UNIT        API CODE       : CURVE DESCRIPTION
#------------------------------------------------------------------------------
DEPTH    .M                          : Measured Depth
CALI     .in          UNKNOWN        : CALI:UNKNOWN:rC:NONE:v0 (auto-composite)
DRHO     .g/cm3       UNKNOWN        : DRHO:UNKNOWN:rC:NONE:v0 (auto-composite)
DT       .us/ft       UNKNOWN        : DT:DT:rC:NONE:v0 (auto-composite)
ILD      .ohmm        UNKNOWN        : ILD:UNKNOWN:rC:NONE:v0 (auto-composite)
ILM      .ohmm        UNKNOWN        : ILM:UNKNOWN:rC:NONE:v0 (auto-composite)
LLD      .ohmm        UNKNOWN        : LLD:UNKNOWN:rC:NONE:v0 (auto-composite)
LLS      .ohmm        UNKNOWN        : LLS:UNKNOWN:rC:NONE:v0 (auto-composite)
MSFL     .ohmm        UNKNOWN        : MSFL:UNKNOWN:rC:NONE:v0 (auto-composite)
NPHI     .v/v_decimal UNKNOWN        : NPHI:NPHI:rC:NONE:v0 (auto-composite)
PEF      .b/elec      UNKNOWN        : PEF:UNKNOWN:rC:NONE:v0 (auto-composite)
RG       .UNKNOWN     UNKNOWN        : RG:UNKNOWN:rC:NONE:v0 (auto-composite)
RHOB     .g/cm3       UNKNOWN        : RHOB:UNKNOWN:rC:NONE:v0 (auto-composite)
~A     DEPTH         CALI         DRHO           DT          ILD          ILM          LLD          LLS         MSFL         NPHI          PEF           RG         RHOB
# ...
   1756.6608       0.0000      -0.1000    -999.2500       1.3258       1.5077       0.0000       0.0000       0.0000    -999.2500       0.0000       7.0539       0.0000
   1756.8132       0.0000      -0.1000    -999.2500       1.3389       1.5238       0.0000       0.0000       0.0000    -999.2500       0.0000       8.6443       0.0000
   1756.9656       0.0000      -0.1000    -999.2500       1.3469       1.5353       0.0000       0.0000       0.0000    -999.2500       0.0000       9.4047       0.0000
   1757.1180       0.0000      -0.1000    -999.2500       1.3434       1.5363       0.0000       0.0000       0.0000    -999.2500       0.0000       8.2259       0.0000
   1757.2704       0.0000      -0.1000    -999.2500       1.3329       1.5239       0.0000       0.0000       0.0000    -999.2500       0.0000       7.3631       0.0000
   1757.4229       0.0000      -0.1000    -999.2500       1.3063       1.4808       0.0000       0.0000       0.0000    -999.2500       0.0000       7.2222       0.0000
   1757.5752       0.0000      -0.1000    -999.2500       1.2832       1.4347       0.0000       0.0000       0.0000    -999.2500       0.0000       7.3751       0.0000
   1757.7275       0.0000      -0.1000    -999.2500       1.2676       1.3820       0.0000       0.0000       0.0000    -999.2500       0.0000       8.1818       0.0000
   1757.8800       0.0000      -0.1000    -999.2500       1.2538       1.3476       0.0000       0.0000       0.0000    -999.2500       0.0000       8.5747       0.0000
   1758.0323       0.0000      -0.1000    -999.2500       1.2438       1.3526       0.0000       0.0000       0.0000    -999.2500       0.0000       8.0700       0.0000
   1758.1848       0.0000      -0.1000    -999.2500       1.2335       1.3600       0.0000       0.0000       0.0000    -999.2500       0.0000       7.9778       0.0000
   1758.3372       0.0000      -0.1000    -999.2500       1.2224       1.3725       0.0000       0.0000       0.0000    -999.2500       0.0000       8.7610       0.0000
   1758.4896       0.0000      -0.1000    -999.2500       1.2181       1.3862       0.0000       0.0000       0.0000    -999.2500       0.0000       9.0280       0.0000
   1758.6420       0.0000      -0.1000    -999.2500       1.2276       1.4023       0.0000       0.0000       0.0000    -999.2500       0.0000       8.2271       0.0000
   1758.7944       0.0000      -0.1000    -999.2500       1.2408       1.4195       0.0000       0.0000       0.0000    -999.2500       0.0000       7.6457       0.0000
   1758.9468       0.0000      -0.1000    -999.2500       1.2614       1.4390       0.0000       0.0000       0.0000    -999.2500       0.0000       7.5089       0.0000
   1759.0992       0.0000      -0.1000    -999.2500       1.2792       1.4547       0.0000       0.0000       0.0000    -999.2500       0.0000       7.5023       0.0000
   1759.2516       0.0000      -0.1000    -999.2500       1.2917       1.4627       0.0000       0.0000       0.0000    -999.2500       0.0000       7.7530       0.0000
   1759.4041       0.0000      -0.1000    -999.2500       1.3012       1.4702       0.0000       0.0000       0.0000    -999.2500       0.0000       7.9615       0.0000
   1759.5564       0.0000      -0.1000    -999.2500       1.3047       1.4767       0.0000       0.0000       0.0000    -999.2500       0.0000       8.0888       0.0000
   1759.7087       0.0000      -0.1000    -999.2500       1.3065       1.4838       0.0000       0.0000       0.0000    -999.2500       0.0000       7.7140       0.0000
   1759.8612       0.0000      -0.1000    -999.2500       1.3050       1.4918       0.0000       0.0000       0.0000    -999.2500       0.0000       6.3918       0.0000
   1760.0135       0.0000      -0.1000    -999.2500       1.3038       1.4979       0.0000       0.0000       0.0000    -999.2500       0.0000       5.7233       0.0000
   1760.1660       0.0000      -0.1000    -999.2500       1.3033       1.5004       0.0000       0.0000       0.0000    -999.2500       0.0000       6.2583       0.0000
   1760.3184       0.0000      -0.1000    -999.2500       1.3050       1.5002       0.0000       0.0000       0.0000    -999.2500       0.0000       6.7923       0.0000
   1760.4708       0.0000      -0.1000    -999.2500       1.3105       1.4952       0.0000       0.0000       0.0000    -999.2500       0.0000       7.3245       0.0000
   1760.6232       0.0000      -0.1000    -999.2500       1.3198       1.4955       0.0000       0.0000       0.0000    -999.2500       0.0000       7.5185       0.0000
   1760.7756       0.0000      -0.1000    -999.2500       1.3359       1.5050       0.0000       0.0000       0.0000    -999.2500       0.0000       7.1169       0.0000
   1760.9280       0.0000      -0.1000    -999.2500       1.3528       1.5224       0.0000       0.0000       0.0000    -999.2500       0.0000       7.0164       0.0000
   1761.0804       0.0000      -0.1000    -999.2500       1.3714       1.5535       0.0000       0.0000       0.0000    -999.2500       0.0000       7.4334       0.0000
   1761.2328       0.0000      -0.1000    -999.2500       1.3873       1.5823       0.0000       0.0000       0.0000    -999.2500       0.0000       7.8469       0.0000
   1761.3853       0.0000      -0.1000    -999.2500       1.3988       1.6074       0.0000       0.0000       0.0000    -999.2500       0.0000       8.2545       0.0000
   1761.5376       0.0000      -0.1000    -999.2500       1.4056       1.6173       0.0000       0.0000       0.0000    -999.2500       0.0000       8.5582       0.0000
   1761.6899       0.0000      -0.1000    -999.2500       1.4046       1.6023       0.0000       0.0000       0.0000    -999.2500       0.0000       8.6911       0.0000
   1761.8424       0.0000      -0.1000    -999.2500       1.4027       1.5788       0.0000       0.0000       0.0000    -999.2500       0.0000       8.3119       0.0000
   1761.9948       0.0000      -0.1000    -999.2500       1.3991       1.5417       0.0000       0.0000       0.0000    -999.2500       0.0000       7.1101       0.0000
   1762.1472       0.0000      -0.1000    -999.2500       1.3929       1.5132       0.0000       0.0000       0.0000    -999.2500       0.0000       6.8330       0.0000
   1762.2996       0.0000      -0.1000    -999.2500       1.3824       1.4981       0.0000       0.0000       0.0000    -999.2500       0.0000       8.0123       0.0000
   1762.4520       0.0000      -0.1000    -999.2500       1.3683       1.4888       0.0000       0.0000       0.0000    -999.2500       0.0000       8.6713       0.0000
   1762.6044       0.0000      -0.1000    -999.2500       1.3487       1.4883       0.0000       0.0000       0.0000    -999.2500       0.0000       8.5299       0.0000
   1762.7568       0.0000      -0.1000    -999.2500       1.3316       1.4828       0.0000       0.0000       0.0000    -999.2500       0.0000       8.2300       0.0000
   1762.9092       0.0000      -0.1000    -999.2500       1.3181       1.4698       0.0000       0.0000       0.0000    -999.2500       0.0000       7.6917       0.0000
   1763.0616       0.0000      -0.1000    -999.2500       1.3104       1.4547       0.0000       0.0000       0.0000    -999.2500       0.0000       7.3171       0.0000
   1763.2140       0.0000      -0.1000    -999.2500       1.3114       1.4367       0.0000       0.0000       0.0000    -999.2500       0.0000       7.1837       0.0000
   1763.3665       0.0000      -0.1000    -999.2500       1.3134       1.4313       0.0000       0.0000       0.0000    -999.2500       0.0000       7.1638       0.0000
   1763.5188       0.0000      -0.1000    -999.2500       1.3169       1.4444       0.0000       0.0000       0.0000    -999.2500       0.0000       7.3072       0.0000
   1763.6711       0.0000      -0.1000    -999.2500       1.3205       1.4616       0.0000       0.0000       0.0000    -999.2500       0.0000       7.5569       0.0000
   1763.8236       0.0000      -0.1000    -999.2500       1.3240       1.4846       0.0000       0.0000       0.0000    -999.2500       0.0000       7.9563       0.0000
