#------------------------------------------------------------------------------
#
#   Created by  : [OpenWorks] Log Export Utility (LEXP)
#   Created on  : 2016-05-23 11:57:11
#   Project     : CANT971
#   User        : R5K
#   Interpreter : PEP
#
#------------------------------------------------------------------------------
~VERSION INFORMATION
VERS. 2.0 : CWLS Log ASCII Standard - version 2.0
WRAP.  NO : One line per depth step
~WELL INFORMATION
#MNEMONIC   .UNIT                                           VALUE :DESCRIPTION
#------------------------------------------------------------------------------
STRT        .M                                           319.2782 :START DEPTH
STOP        .M                                          2532.8882 :STOP DEPTH
STEP        .M                                             0.1524 :STEP
NULL        .                                           -999.2500 :NULL VALUE
COMP        .                                   PEMEX EXPL & PROD :COMPANY
WELL        .                                                 73A :WELL
FLD         .                                           CANTARELL :FIELD
LOC         .                                             UNKNOWN :LOCATION
CNTY        .                                      CD. DEL CARMEN :COUNTY
STAT        .                                            CAMPECHE :STATE
CTRY        .                                              MEXICO :COUNTRY
SRVC        .                                             UNKNOWN :SERVICE COMPANY
DATE        .                                             UNKNOWN :LOG DATE
UWI         .                                          3060000177 :UNIQUE WELL ID
XCOORD      .                                       599722.890000 :SURFACE X
YCOORD      .                                      2147218.550000 :SURFACE Y
LAT         .                                           19.417934 :LATITUDE
LON         .                                          -92.050165 :LONGITUDE
ELEV        .M                                            27.8000 :SURFACE ELEV
ELEV_TYPE   .                                                  KB :ELEV TYPE
~CURVE INFORMATION
#MNEMONIC.UNIT        API CODE       : CURVE DESCRIPTION
#------------------------------------------------------------------------------
DEPTH    .M                          : Measured Depth
CALI     .inches      UNKNOWN        : CALI:registros:rC:NONE:v0 (auto-composite)
DRHO     .g/cm3       UNKNOWN        : DRHO:registros:rC:NONE:v0 (auto-composite)
DT       .UNKNOWN     UNKNOWN        : DT:registros:rC:NONE:v0 (auto-composite)
GR       .API         UNKNOWN        : GR:registros:rC:NONE:v0 (auto-composite)
ILD      .ohm.m       UNKNOWN        : ILD:registros:rC:NONE:v0 (auto-composite)
LLD      .ohm.m       UNKNOWN        : LLD:registros:rC:NONE:v0 (auto-composite)
LLS      .ohm.m       UNKNOWN        : LLS:registros:rC:NONE:v0 (auto-composite)
MSFL     .ohm.m       UNKNOWN        : MSFL:registros:rC:NONE:v0 (auto-composite)
RHOB     .g/cm3       UNKNOWN        : RHOB:registros:rC:NONE:v0 (auto-composite)
~A     DEPTH         CALI         DRHO           DT           GR          ILD          LLD          LLS         MSFL         RHOB
# ...
   1216.9142      16.9250       0.0545     120.3422      41.6739       0.6774    -999.2500    -999.2500    -999.2500       2.3570
   1217.0667      16.7000       0.0530     120.8950      42.5500       0.6950    -999.2500    -999.2500    -999.2500       2.3540
   1217.2190      16.7070       0.0465     122.9363      42.3088       0.7224    -999.2500    -999.2500    -999.2500       2.3420
   1217.3713      16.7140       0.0400     124.9800      42.0670       0.7500    -999.2500    -999.2500    -999.2500       2.3300
   1217.5238      16.8320       0.0330     121.9719      40.1363       0.7301    -999.2500    -999.2500    -999.2500       2.3400
   1217.6761      16.9500       0.0260     118.9600      38.2000       0.7100    -999.2500    -999.2500    -999.2500       2.3500
   1217.8286      16.9430       0.0210     118.9785      38.2145       0.7140    -999.2500    -999.2500    -999.2500       2.3470
   1217.9810      16.9360       0.0160     118.9970      38.2290       0.7180    -999.2500    -999.2500    -999.2500       2.3440
   1218.1334      16.9110       0.0180     122.0186      38.6314       0.7359    -999.2500    -999.2500    -999.2500       2.3220
   1218.2858      16.8860       0.0200     125.0400      39.0350       0.7540    -999.2500    -999.2500    -999.2500       2.3000
   1218.4382      16.8395       0.0260     124.1750      40.0933       0.7714    -999.2500    -999.2500    -999.2500       2.3050
   1218.5906      16.7930       0.0320     123.3100      41.1550       0.7890    -999.2500    -999.2500    -999.2500       2.3100
   1218.7430      16.5715       0.0470     124.2984      41.9025       0.7895    -999.2500    -999.2500    -999.2500       2.3085
   1218.8954      16.3500       0.0620     125.2870      42.6520       0.7900    -999.2500    -999.2500    -999.2500       2.3070
   1219.0479      16.4250       0.0595     128.7300      43.8249       0.7900    -999.2500    -999.2500    -999.2500       2.3020
   1219.2002      16.5000       0.0570     132.1740      45.0000       0.7900    -999.2500    -999.2500    -999.2500       2.2970
   1219.3525      16.3600       0.0420     135.5383      43.5764       0.7900    -999.2500    -999.2500    -999.2500       2.2785
   1219.5050      16.2200       0.0270     138.9040      42.1500       0.7900    -999.2500    -999.2500    -999.2500       2.2600
   1219.6573      16.3850       0.0300     143.9906      42.7534       0.7870    -999.2500    -999.2500    -999.2500       2.2615
   1219.8098      16.5500       0.0330     149.0800      43.3580       0.7840    -999.2500    -999.2500    -999.2500       2.2630
   1219.9622      16.4525       0.0405     147.9399      46.1258       0.7740    -999.2500    -999.2500    -999.2500       2.2705
   1220.1146      16.3550       0.0480     146.7990      48.9000       0.7640    -999.2500    -999.2500    -999.2500       2.2780
   1220.2670      16.0851       0.0590     143.9516      48.8051       0.7515    -999.2500    -999.2500    -999.2500       2.2885
   1220.4194      15.8150       0.0700     141.1020      48.7100       0.7390    -999.2500    -999.2500    -999.2500       2.2990
   1220.5718      15.6591       0.0650     138.9480      48.0179       0.7236    -999.2500    -999.2500    -999.2500       2.2995
   1220.7242      15.5030       0.0600     136.7920      47.3240       0.7080    -999.2500    -999.2500    -999.2500       2.3000
   1220.8766      15.2615       0.0425     128.0556      45.5893       0.7010    -999.2500    -999.2500    -999.2500       2.3100
   1221.0291      15.0200       0.0250     119.3100      43.8500       0.6940    -999.2500    -999.2500    -999.2500       2.3200
   1221.1814      15.2701       0.0255     120.7741      44.3493       0.6830    -999.2500    -999.2500    -999.2500       2.3100
   1221.3337      15.5200       0.0260     122.2400      44.8500       0.6720    -999.2500    -999.2500    -999.2500       2.3000
   1221.4862      15.4700       0.0290     128.6108      44.6513       0.6560    -999.2500    -999.2500    -999.2500       2.3015
   1221.6385      15.4200       0.0320     134.9900      44.4520       0.6400    -999.2500    -999.2500    -999.2500       2.3030
   1221.7910      15.4610       0.0425     133.5460      43.6936       0.6400    -999.2500    -999.2500    -999.2500       2.3215
   1221.9434      15.5020       0.0530     132.1010      42.9330       0.6400    -999.2500    -999.2500    -999.2500       2.3400
   1222.0958      15.6290       0.0510     126.9754      41.9091       0.6400    -999.2500    -999.2500    -999.2500       2.3355
   1222.2482      15.7560       0.0490     121.8500      40.8820       0.6400    -999.2500    -999.2500    -999.2500       2.3310
   1222.4006      15.8570       0.0420     125.1899      39.5427       0.6400    -999.2500    -999.2500    -999.2500       2.3155
   1222.5530      15.9580       0.0350     128.5300      38.2000       0.6400    -999.2500    -999.2500    -999.2500       2.3000
   1222.7054      16.0115       0.0260     128.1785      38.5347       0.6400    -999.2500    -999.2500    -999.2500       2.3000
   1222.8578      16.0650       0.0170     127.8270      38.8700       0.6400    -999.2500    -999.2500    -999.2500       2.3000
   1223.0103      16.0795       0.0190     125.9188      39.9075       0.6460    -999.2500    -999.2500    -999.2500       2.2970
   1223.1626      16.0940       0.0210     124.0100      40.9470       0.6520    -999.2500    -999.2500    -999.2500       2.2940
   1223.3149      16.1970       0.0265     125.0703      41.7826       0.6694    -999.2500    -999.2500    -999.2500       2.2820
   1223.4674      16.3000       0.0320     126.1310      42.6200       0.6870    -999.2500    -999.2500    -999.2500       2.2700
   1223.6198      16.2585       0.0360     131.0741      43.6089       0.7010    -999.2500    -999.2500    -999.2500       2.2700
   1223.7722      16.2170       0.0400     136.0200      44.6000       0.7150    -999.2500    -999.2500    -999.2500       2.2700
   1223.9246      15.8586       0.0335     134.7260      44.0981       0.7324    -999.2500    -999.2500    -999.2500       2.2730
   1224.0770      15.5000       0.0270     133.4310      43.5950       0.7500    -999.2500    -999.2500    -999.2500       2.2760
   1224.2294      15.5105       0.0305     124.9640      42.0868       0.7455    -999.2500    -999.2500    -999.2500       2.3080
   1224.3818      15.5210       0.0340     116.4900      40.5750       0.7410    -999.2500    -999.2500    -999.2500       2.3400
   1224.5342      15.6689       0.0315     117.0972      39.5638       0.7250    -999.2500    -999.2500    -999.2500       2.3340
   1224.6866      15.8170       0.0290     117.7050      38.5500       0.7090    -999.2500    -999.2500    -999.2500       2.3280
   1224.8390      16.0940       0.0345     123.1795      38.7058       0.6746    -999.2500    -999.2500    -999.2500       2.3040
   1224.9915      16.3710       0.0400     128.6600      38.8620       0.6400    -999.2500    -999.2500    -999.2500       2.2800
   1225.1438      16.4080       0.0400     128.4726      39.7547       0.6400    -999.2500    -999.2500    -999.2500       2.2830
   1225.2961      16.4450       0.0400     128.2850      40.6500       0.6400    -999.2500    -999.2500    -999.2500       2.2860
   1225.4486      16.5225       0.0380     126.7186      40.5037       0.6550    -999.2500    -999.2500    -999.2500       2.2955
   1225.6010      16.6000       0.0360     125.1500      40.3570       0.6700    -999.2500    -999.2500    -999.2500       2.3050
   1225.7534      16.5925       0.0270     125.1600      39.7839       0.6600    -999.2500    -999.2500    -999.2500       2.3275
   1225.9058      16.5850       0.0180     125.1700      39.2090       0.6500    -999.2500    -999.2500    -999.2500       2.3500
   1226.0582      16.5530       0.0180     122.8350      38.3808       0.6545    -999.2500    -999.2500    -999.2500       2.3400
   1226.2106      16.5210       0.0180     120.5000      37.5500       0.6590    -999.2500    -999.2500    -999.2500       2.3300
