#------------------------------------------------------------------------------
#
#   Created by  : [OpenWorks] Log Export Utility (LEXP)
#   Created on  : 2016-05-23 11:55:46
#   Project     : CANT971
#   User        : R5K
#   Interpreter : PEP
#
#------------------------------------------------------------------------------
~VERSION INFORMATION
VERS. 2.0 : CWLS Log ASCII Standard - version 2.0
WRAP.  NO : One line per depth step
~WELL INFORMATION
#MNEMONIC   .UNIT                                           VALUE :DESCRIPTION
#------------------------------------------------------------------------------
STRT        .M                                           325.5260 :START DEPTH
STOP        .M                                          2414.9299 :STOP DEPTH
STEP        .M                                             0.1524 :STEP
NULL        .                                           -999.2500 :NULL VALUE
COMP        .                                   PEMEX EXPL & PROD :COMPANY
WELL        .                                                   4 :WELL
FLD         .                                           CANTARELL :FIELD
LOC         .                                             UNKNOWN :LOCATION
CNTY        .                                      CD. DEL CARMEN :COUNTY
STAT        .                                            CAMPECHE :STATE
CTRY        .                                              MEXICO :COUNTRY
SRVC        .                                             UNKNOWN :SERVICE COMPANY
DATE        .                                             UNKNOWN :LOG DATE
UWI         .                                          3060000140 :UNIQUE WELL ID
XCOORD      .                                       598455.270000 :SURFACE X
YCOORD      .                                      2145027.190000 :SURFACE Y
LAT         .                                           19.398194 :LATITUDE
LON         .                                          -92.062351 :LONGITUDE
ELEV        .M                                            26.5400 :SURFACE ELEV
ELEV_TYPE   .                                                  KB :ELEV TYPE
~CURVE INFORMATION
#MNEMONIC.UNIT        API CODE       : CURVE DESCRIPTION
#------------------------------------------------------------------------------
DEPTH    .M                          : Measured Depth
CALI     .inches      UNKNOWN        : CALI:Import:rC:NONE:v0 (auto-composite)
CGR      .API         UNKNOWN        : CGR:Import:rC:NONE:v0 (auto-composite)
DRHO     .g/cm3       UNKNOWN        : DRHO:Import:rC:NONE:v0 (auto-composite)
DT       .us/ft       UNKNOWN        : DT:Import:rC:NONE:v0 (auto-composite)
GR       .API         UNKNOWN        : GR:Import:rC:NONE:v0 (auto-composite)
ILD      .ohm.m       UNKNOWN        : ILD:Import:rC:NONE:v0 (auto-composite)
LLD      .ohm.m       UNKNOWN        : LLD:Import:rC:NONE:v0 (auto-composite)
LLS      .ohm.m       UNKNOWN        : LLS:Import:rC:NONE:v0 (auto-composite)
MSFL     .ohm.m       UNKNOWN        : MSFL:Import:rC:NONE:v0 (auto-composite)
NPHI     .v/v_decimal UNKNOWN        : NPHI:Import:rC:NONE:v0 (auto-composite)
POTA     .wtpercent   UNKNOWN        : POTA:Import:rC:NONE:v0 (auto-composite)
RHOB     .g/cm3       UNKNOWN        : RHOB:Import:rC:NONE:v0 (auto-composite)
THOR     .ppm         UNKNOWN        : THOR:Import:rC:NONE:v0 (auto-composite)
URAN     .ppm         UNKNOWN        : URAN:Import:rC:NONE:v0 (auto-composite)
~A     DEPTH         CALI          CGR         DRHO           DT           GR          ILD          LLD          LLS         MSFL         NPHI         POTA         RHOB         THOR         URAN
# ...
   2040.9404       9.3010    -999.2500       0.0160      49.5480      21.5080    -999.2500    3278.5349    1104.2380     165.1560       0.0209    -999.2500       2.7250    -999.2500    -999.2500
   2041.0928       9.4262    -999.2500       0.0200      50.1162      23.2550    -999.2500    2901.0464     991.2145     192.0326       0.0198    -999.2500       2.7405    -999.2500    -999.2500
   2041.2452       9.5510    -999.2500       0.0240      50.6820      25.0000    -999.2500    2524.6001     878.5030     218.8350       0.0206    -999.2500       2.7560    -999.2500    -999.2500
   2041.3976       9.5245    -999.2500       0.0225      50.9811      26.7509    -999.2500    2316.9038     817.3434     366.5026       0.0225    -999.2500       2.7500    -999.2500    -999.2500
   2041.5500       9.4980    -999.2500       0.0210      51.2790      28.5000    -999.2500    2109.7549     756.3450     513.7810       0.0301    -999.2500       2.7440    -999.2500    -999.2500
   2041.7024       9.4715    -999.2500       0.0110      51.5165      26.2915    -999.2500    2120.9360     776.5659     414.4043       0.0411    -999.2500       2.7235    -999.2500    -999.2500
   2041.8549       9.4450    -999.2500       0.0010      51.7530      24.0850    -999.2500    2132.0891     796.7360     315.2770       0.0474    -999.2500       2.7030    -999.2500    -999.2500
   2042.0072       9.4570    -999.2500       0.0130      51.6533      21.9907    -999.2500    2308.1514     904.2682     492.7251       0.0510    -999.2500       2.7090    -999.2500    -999.2500
   2042.1595       9.4690    -999.2500       0.0250      51.5540      19.8980    -999.2500    2483.6531    1011.5440     669.7500       0.0481    -999.2500       2.7150    -999.2500    -999.2500
   2042.3120       9.5687    -999.2500       0.0160      51.9222      22.0832    -999.2500    1969.0077     819.6908     603.1492       0.0415    -999.2500       2.7130    -999.2500    -999.2500
   2042.4644       9.6680    -999.2500       0.0070      52.2890      24.2670    -999.2500    1456.3470     628.2710     536.6990       0.0355    -999.2500       2.7110    -999.2500    -999.2500
   2042.6168       9.6344    -999.2500       0.0035      51.9604      25.4193    -999.2500    1320.8342     669.0991     365.7766       0.0299    -999.2500       2.7220    -999.2500    -999.2500
   2042.7692       9.6010    -999.2500       0.0000      51.6330      26.5700    -999.2500    1185.8270     709.8400     195.2190       0.0355    -999.2500       2.7330    -999.2500    -999.2500
   2042.9216       9.4938    -999.2500       0.0040      53.1248      32.7993    -999.2500     671.9099     406.8232     232.0530       0.0478    -999.2500       2.7160    -999.2500    -999.2500
   2043.0740       9.3870    -999.2500       0.0080      54.6100      39.0160    -999.2500     159.8460     104.4150     268.8130       0.0641    -999.2500       2.6990    -999.2500    -999.2500
   2043.2264       9.5909    -999.2500       0.0130      57.5174      37.9085    -999.2500     109.4643      72.9309     239.0114       0.0830    -999.2500       2.6629    -999.2500    -999.2500
   2043.3788       9.7940    -999.2500       0.0180      60.4100      36.8030    -999.2500      59.2580      41.5060     209.2660       0.0862    -999.2500       2.6270    -999.2500    -999.2500
   2043.5312       9.9072    -999.2500       0.0075      61.5709      29.2358    -999.2500      73.8911      53.2758     108.2347       0.0798    -999.2500       2.6380    -999.2500    -999.2500
   2043.6836      10.0200    -999.2500      -0.0030      62.7260      21.6820    -999.2500      88.4750      65.0250       7.3810       0.0697    -999.2500       2.6490    -999.2500    -999.2500
   2043.8361       9.8537    -999.2500      -0.0010      62.6238      18.6080    -999.2500     125.0741     101.1730      82.8301       0.0571    -999.2500       2.6610    -999.2500    -999.2500
   2043.9884       9.6880    -999.2500       0.0010      62.5220      15.5390    -999.2500     161.5550     137.2620     158.1560       0.0510    -999.2500       2.6730    -999.2500    -999.2500
   2044.1407       9.7897    -999.2500      -0.0010      65.9290      16.5042    -999.2500     177.1938     164.4148     105.3140       0.0490    -999.2500       2.6980    -999.2500    -999.2500
   2044.2932       9.8910    -999.2500      -0.0030      69.3200      17.4680    -999.2500     192.7840     191.5050      52.5940       0.0529    -999.2500       2.7230    -999.2500    -999.2500
   2044.4456       9.8790    -999.2500       0.0125      73.2976      19.3123    -999.2500     218.8734     201.8309      54.4553       0.0606    -999.2500       2.7195    -999.2500    -999.2500
   2044.5980       9.8670    -999.2500       0.0280      77.2570      21.1540    -999.2500     244.8850     212.1260      56.3110       0.0875    -999.2500       2.7160    -999.2500    -999.2500
   2044.7504       9.8104    -999.2500       0.0195      85.6647      25.1225    -999.2500     166.0199     142.8261      79.2898       0.1263    -999.2500       2.6184    -999.2500    -999.2500
   2044.9028       9.7540    -999.2500       0.0110      94.0350      29.0860    -999.2500      87.3800      73.7240     102.2030       0.1506    -999.2500       2.5210    -999.2500    -999.2500
   2045.0552       9.7760    -999.2500      -0.0000      91.4985      27.4686    -999.2500      72.2784      56.8084      74.2979       0.1657    -999.2500       2.5210    -999.2500    -999.2500
   2045.2076       9.7980    -999.2500      -0.0110      88.9730      25.8530    -999.2500      57.2180      39.9390      46.4690       0.1543    -999.2500       2.5210    -999.2500    -999.2500
   2045.3600       9.8446    -999.2500      -0.0045      79.4806      24.6279    -999.2500     190.7289      96.6313      99.7479       0.1262    -999.2500       2.5691    -999.2500    -999.2500
   2045.5125       9.8910    -999.2500       0.0020      70.0280      23.4040    -999.2500     323.8920     153.1760     152.8880       0.0963    -999.2500       2.6170    -999.2500    -999.2500
   2045.6648       9.8219    -999.2500      -0.0060      60.4996      22.2155    -999.2500     771.3342     381.0079     305.3830       0.0654    -999.2500       2.6415    -999.2500    -999.2500
   2045.8173       9.7530    -999.2500      -0.0140      51.0100      21.0280    -999.2500    1217.6670     608.2750     457.5000       0.0512    -999.2500       2.6660    -999.2500    -999.2500
   2045.9696       9.6593    -999.2500      -0.0060      51.7730      19.6930    -999.2500    1584.1334     769.7546     329.0523       0.0479    -999.2500       2.6730    -999.2500    -999.2500
   2046.1219       9.5660    -999.2500       0.0020      52.5330      18.3590    -999.2500    1949.4440     930.8540     200.9070       0.0457    -999.2500       2.6800    -999.2500    -999.2500
   2046.2744       9.5675    -999.2500       0.0045      53.7042      19.5473    -999.2500    2037.0475     896.1894     145.5403       0.0442    -999.2500       2.6940    -999.2500    -999.2500
   2046.4268       9.5690    -999.2500       0.0070      54.8710      20.7340    -999.2500    2124.3159     861.6020      90.2970       0.0389    -999.2500       2.7080    -999.2500    -999.2500
   2046.5792       9.6086    -999.2500       0.0075      54.4382      19.7920    -999.2500    2364.4363     897.1234      98.1778       0.0310    -999.2500       2.7456    -999.2500    -999.2500
   2046.7316       9.6480    -999.2500       0.0080      54.0070      18.8520    -999.2500    2603.6680     932.5700     106.0420       0.0248    -999.2500       2.7830    -999.2500    -999.2500
   2046.8840       9.6295    -999.2500       0.0050      52.4957      19.9381    -999.2500    3114.2678    1052.4241     188.1647       0.0197    -999.2500       2.7720    -999.2500    -999.2500
   2047.0364       9.6110    -999.2500       0.0020      50.9910      21.0220    -999.2500    3623.0420    1172.0410     270.1250       0.0165    -999.2500       2.7610    -999.2500    -999.2500
   2047.1888       9.5764    -999.2500      -0.0055      51.2371      22.0945    -999.2500    3815.7664    1249.1919     232.9811       0.0147    -999.2500       2.7610    -999.2500    -999.2500
