#------------------------------------------------------------------------------
#
#   Created by  : [OpenWorks] Log Export Utility (LEXP)
#   Created on  : 2016-05-23 11:50:15
#   Project     : CANT971
#   User        : R5K
#   Interpreter : PEP
#
#------------------------------------------------------------------------------
~VERSION INFORMATION
VERS. 2.0 : CWLS Log ASCII Standard - version 2.0
WRAP.  NO : One line per depth step
~WELL INFORMATION
#MNEMONIC   .UNIT                                           VALUE :DESCRIPTION
#------------------------------------------------------------------------------
STRT        .M                                          2144.1199 :START DEPTH
STOP        .M                                          3100.2776 :STOP DEPTH
STEP        .M                                             0.1524 :STEP
NULL        .                                           -999.2500 :NULL VALUE
COMP        .                                   PEMEX EXPL & PROD :COMPANY
WELL        .                                               1004D :WELL
FLD         .                                           CANTARELL :FIELD
LOC         .                                             UNKNOWN :LOCATION
CNTY        .                                      CD. DEL CARMEN :COUNTY
STAT        .                                            CAMPECHE :STATE
CTRY        .                                              MEXICO :COUNTRY
SRVC        .                                             UNKNOWN :SERVICE COMPANY
DATE        .                                             UNKNOWN :LOG DATE
UWI         .                                               1004D :UNIQUE WELL ID
XCOORD      .                                       594534.600000 :SURFACE X
YCOORD      .                                      2142053.350000 :SURFACE Y
LAT         .                                           19.371510 :LATITUDE
LON         .                                          -92.099834 :LONGITUDE
ELEV        .M                                            30.0000 :SURFACE ELEV
ELEV_TYPE   .                                                  KB :ELEV TYPE
~CURVE INFORMATION
#MNEMONIC.UNIT        API CODE       : CURVE DESCRIPTION
#------------------------------------------------------------------------------
DEPTH    .M                          : Measured Depth
CALI     .in          UNKNOWN        : CALI:litodensidad:rC:NONE:v0 (auto-composite)
DRHO     .g/cm3       UNKNOWN        : DRHO:litodensidad:rC:NONE:v0 (auto-composite)
DT       .us/ft       UNKNOWN        : DT:DT-Load:rC:NONE:v0 (auto-composite)
GR       .API         UNKNOWN        : GR:TMDL:rC:NONE:v0 (auto-composite)
GR-LWD   .API         UNKNOWN        : GR-LWD:PETROWORKS:rC:NONE:v1 
ILD-LWD  .ohm.m       UNKNOWN        : ILD-LWD:resistivos-LWD:rC:NONE:v0 (auto-composite)
ILM-LWD  .ohm.m       UNKNOWN        : ILM-LWD:resistivos-LWD:rC:NONE:v0 (auto-composite)
LLD-LWD  .ohm.m       UNKNOWN        : LLD-LWD:resistivos-LWD:rC:NONE:v0 (auto-composite)
LLS      .ohm.m       UNKNOWN        : LLS:resistivos:rC:NONE:v0 (auto-composite)
LLS-LWD  .ohm.m       UNKNOWN        : LLS-LWD:resistivos-LWD:rC:NONE:v0 (auto-composite)
MSFL     .ohm.m       UNKNOWN        : MSFL:resistivos:rC:NONE:v0 (auto-composite)
MSFL-LWD .ohm.m       UNKNOWN        : MSFL-LWD:resistivos-LWD:rC:NONE:v0 (auto-composite)
NPHI     .v/v_decimal UNKNOWN        : NPHI:PETROWORKS:rC:NONE:v2 
PEF      .b/elec      UNKNOWN        : PEF:litodensidad:rC:NONE:v0 (auto-composite)
RHOB     .g/cm3       UNKNOWN        : RHOB:litodensidad:rC:NONE:v0 (auto-composite)
~A     DEPTH         CALI         DRHO           DT           GR       GR-LWD      ILD-LWD      ILM-LWD      LLD-LWD          LLS      LLS-LWD         MSFL     MSFL-LWD         NPHI          PEF         RHOB
# ...
   2893.0134      11.5106       0.0241      67.9865      80.3227    -999.2500    -999.2500    -999.2500    -999.2500      90.0461    -999.2500      37.7285    -999.2500       0.1036       4.2079       2.5390
   2893.1658      11.4360       0.0185      66.1503      83.9708    -999.2500    -999.2500    -999.2500    -999.2500     107.2448    -999.2500      33.1952    -999.2500       0.1193       4.1149       2.5433
   2893.3184      11.5220       0.0159      66.6566      89.0564    -999.2500    -999.2500    -999.2500    -999.2500     216.4593    -999.2500      47.3230    -999.2500       0.1204       3.9263       2.5409
   2893.4707      11.5017       0.0135      64.5834      82.6207    -999.2500    -999.2500    -999.2500    -999.2500     295.1942    -999.2500      47.4102    -999.2500       0.1050       3.7174       2.5346
   2893.6230      11.4008       0.0085      64.3278      80.9962    -999.2500    -999.2500    -999.2500    -999.2500     305.4441    -999.2500     311.1672    -999.2500       0.0826       3.6859       2.5017
   2893.7754      11.3911       0.0203      60.9971      76.2152    -999.2500    -999.2500    -999.2500    -999.2500     146.1650    -999.2500     675.7501    -999.2500       0.0719       3.8847       2.4984
   2893.9280      11.4583       0.0331      60.8387      74.5779    -999.2500    -999.2500    -999.2500    -999.2500      64.7878    -999.2500      53.8594    -999.2500       0.0654       4.2309       2.5268
   2894.0803      11.3224       0.0321      62.5829      76.3325    -999.2500    -999.2500    -999.2500    -999.2500     129.8664    -999.2500      53.9501    -999.2500       0.0513       4.4918       2.5550
   2894.2327      11.2918       0.0180      60.2571      73.3569    -999.2500    -999.2500    -999.2500    -999.2500     297.5951    -999.2500      52.9176    -999.2500       0.0379       4.5701       2.5737
   2894.3850      11.3479       0.0046      58.8740      68.2184    -999.2500    -999.2500    -999.2500    -999.2500     388.3310    -999.2500     225.9944    -999.2500       0.0261       4.5544       2.5685
   2894.5374      11.3779       0.0012      57.9349      59.4166    -999.2500    -999.2500    -999.2500    -999.2500     540.1171    -999.2500     222.5156    -999.2500       0.0241       4.5619       2.5635
   2894.6899      11.2509      -0.0006      55.9740      62.8741    -999.2500    -999.2500    -999.2500    -999.2500     577.3737    -999.2500     245.9313    -999.2500       0.0213       4.6097       2.5512
   2894.8423      11.2617      -0.0011      55.9423      65.7277    -999.2500    -999.2500    -999.2500    -999.2500     534.3433    -999.2500    1000.5454    -999.2500       0.0161       4.6164       2.5483
   2894.9946      11.2133       0.0009      55.9814      61.9956    -999.2500    -999.2500    -999.2500    -999.2500     673.4301    -999.2500    1075.9717    -999.2500       0.0098       4.5963       2.5708
   2895.1470      11.2766       0.0026      55.9779      59.5825    -999.2500    -999.2500    -999.2500    -999.2500    1009.1877    -999.2500    1115.8452    -999.2500       0.0049       4.6780       2.6051
   2895.2996      11.3385       0.0056      57.0240      60.2636    -999.2500    -999.2500    -999.2500    -999.2500    1805.2413    -999.2500    1781.3857    -999.2500       0.0040       4.8887       2.6411
   2895.4519      11.3574       0.0064      58.3320      56.5164    -999.2500    -999.2500    -999.2500    -999.2500    2075.6047    -999.2500    1462.7904    -999.2500       0.0046       5.0977       2.6570
   2895.6042      11.2473       0.0049      57.5581      51.8707    -999.2500    -999.2500    -999.2500    -999.2500    1253.3677    -999.2500    1285.5165    -999.2500       0.0066       5.1949       2.6600
   2895.7566      11.1870       0.0046      57.2465      56.0344    -999.2500    -999.2500    -999.2500    -999.2500     458.0196    -999.2500    1133.9781    -999.2500       0.0049       5.1943       2.6545
   2895.9092      11.2168       0.0053      58.3220      57.7479    -999.2500    -999.2500    -999.2500    -999.2500     706.6222    -999.2500    1073.9778    -999.2500       0.0043       5.1512       2.6541
   2896.0615      11.2803       0.0057      58.1191      55.0367    -999.2500    -999.2500    -999.2500    -999.2500    2549.7354    -999.2500     937.1805    -999.2500       0.0022       5.1282       2.6488
   2896.2139      11.3851       0.0049      58.7943      55.6951    -999.2500    -999.2500    -999.2500    -999.2500    4374.3887    -999.2500    1139.8102    -999.2500       0.0014       5.0590       2.6566
   2896.3662      11.4229       0.0019      55.9410      59.1082    -999.2500    -999.2500    -999.2500    -999.2500    7187.0220    -999.2500    1913.2994    -999.2500      -0.0000       5.0014       2.6526
   2896.5186      11.2586       0.0035      56.4607      60.6606    -999.2500    -999.2500    -999.2500    -999.2500    7166.6616    -999.2500    1999.9515    -999.2500       0.0016       4.8351       2.6592
   2896.6711      11.1497       0.0030      55.2671      67.9932    -999.2500    -999.2500    -999.2500    -999.2500    5397.9424    -999.2500    1872.3988    -999.2500       0.0033       4.6216       2.6455
   2896.8235      11.1345       0.0030      54.1407      61.4868    -999.2500    -999.2500    -999.2500    -999.2500    4405.2842    -999.2500    1627.8806    -999.2500       0.0048       4.4226       2.6337
   2896.9758      11.1158       0.0078      56.1384      57.0332    -999.2500    -999.2500    -999.2500    -999.2500    5518.4526    -999.2500    1613.0509    -999.2500       0.0028       4.4078       2.6433
   2897.1282      11.2054       0.0157      57.8082      56.5074    -999.2500    -999.2500    -999.2500    -999.2500    7082.1440    -999.2500    1867.0830    -999.2500       0.0007       4.6069       2.6770
   2897.2808      11.2804       0.0188      58.3236      60.6081    -999.2500    -999.2500    -999.2500    -999.2500    3252.2815    -999.2500    1977.6116    -999.2500      -0.0004       4.8535       2.7022
   2897.4331      10.2002       0.0151      58.8617      58.4248    -999.2500    -999.2500    -999.2500    -999.2500    1614.4595    -999.2500    1999.9501    -999.2500       0.0045       5.0033       2.6880
   2897.5854      10.0609       0.0068      60.0340      67.5526    -999.2500    -999.2500    -999.2500    -999.2500     938.6241    -999.2500     877.8695    -999.2500       0.0070       4.9166       2.6404
   2897.7378       9.3313       0.0071      59.7171      62.3411    -999.2500    -999.2500    -999.2500    -999.2500     668.1379    -999.2500     637.7681    -999.2500       0.0169       4.7630       2.6153
   2897.8904       9.2537       0.0043      59.4646      60.6932    -999.2500    -999.2500    -999.2500    -999.2500     655.1156    -999.2500     312.1667    -999.2500       0.0210       4.6572       2.6012
   2898.0427       9.5861       0.0026      57.3370      62.0706    -999.2500    -999.2500    -999.2500    -999.2500    1601.6937    -999.2500     391.4372    -999.2500       0.0190       4.7638       2.6074
   2898.1951      10.3414       0.0021      58.1172      62.9636    -999.2500    -999.2500    -999.2500    -999.2500    4323.9824    -999.2500     593.1479    -999.2500       0.0118       4.9182       2.6191
   2898.3474      11.2480       0.0054      57.9966      60.4805    -999.2500    -999.2500    -999.2500    -999.2500    5969.8706    -999.2500    1806.9011    -999.2500       0.0105       4.9919       2.6350
   2898.4998      11.3669       0.0102      60.7093      61.1396    -999.2500    -999.2500    -999.2500    -999.2500    8832.6143    -999.2500    1128.4847    -999.2500       0.0126       4.9334       2.6462
   2898.6523      11.3966       0.0078      58.3331      57.7533    -999.2500    -999.2500    -999.2500    -999.2500   11295.0840    -999.2500     812.6665    -999.2500       0.0128       4.7964       2.6250
   2898.8047      11.3109       0.0134      62.9675      54.3293    -999.2500    -999.2500    -999.2500    -999.2500    7699.5288    -999.2500     509.8844    -999.2500       0.0146       4.6960       2.6181
