#------------------------------------------------------------------------------
#
#   Created by  : [OpenWorks] Log Export Utility (LEXP)
#   Created on  : 2016-05-23 11:51:18
#   Project     : CANT971
#   User        : R5K
#   Interpreter : PEP
#
#------------------------------------------------------------------------------
~VERSION INFORMATION
VERS. 2.0 : CWLS Log ASCII Standard - version 2.0
WRAP.  NO : One line per depth step
~WELL INFORMATION
#MNEMONIC   .UNIT                                           VALUE :DESCRIPTION
#------------------------------------------------------------------------------
STRT        .M                                           690.7880 :START DEPTH
STOP        .M                                          2950.1179 :STOP DEPTH
STEP        .M                                             0.1524 :STEP
NULL        .                                           -999.2500 :NULL VALUE
COMP        .                                   PEMEX EXPL & PROD :COMPANY
WELL        .                                                1066 :WELL
FLD         .                                           CANTARELL :FIELD
LOC         .                                             UNKNOWN :LOCATION
CNTY        .                                      CD. DEL CARMEN :COUNTY
STAT        .                                            CAMPECHE :STATE
CTRY        .                                              MEXICO :COUNTRY
SRVC        .                                             UNKNOWN :SERVICE COMPANY
DATE        .                                             UNKNOWN :LOG DATE
UWI         .                                          3060000505 :UNIQUE WELL ID
XCOORD      .                                       596157.670000 :SURFACE X
YCOORD      .                                      2150605.920000 :SURFACE Y
LAT         .                                           19.448718 :LATITUDE
LON         .                                          -92.083948 :LONGITUDE
ELEV        .M                                            30.0000 :SURFACE ELEV
ELEV_TYPE   .                                                  KB :ELEV TYPE
~CURVE INFORMATION
#MNEMONIC.UNIT        API CODE       : CURVE DESCRIPTION
#------------------------------------------------------------------------------
DEPTH    .M                          : Measured Depth
CALI     .inches      UNKNOWN        : CALI:litodensidad:rC:NONE:v0 (auto-composite)
DRHO     .g/cm3       UNKNOWN        : DRHO:litodensidad:rC:NONE:v0 (auto-composite)
DT       .us/ft       UNKNOWN        : DT:DT:rC:NONE:v0 (auto-composite)
GR       .API         UNKNOWN        : GR:UNKNOWN:rC:NONE:v0 (auto-composite)
ILD      .ohmm        UNKNOWN        : ILD:UNKNOWN:rC:NONE:v0 (auto-composite)
ILM      .ohmm        UNKNOWN        : ILM:UNKNOWN:rC:NONE:v0 (auto-composite)
LLD      .ohmm        UNKNOWN        : LLD:UNKNOWN:rC:NONE:v0 (auto-composite)
LLS      .ohmm        UNKNOWN        : LLS:UNKNOWN:rC:NONE:v0 (auto-composite)
MSFL     .ohmm        UNKNOWN        : MSFL:UNKNOWN:rC:NONE:v0 (auto-composite)
NPHI     .v/v_decimal UNKNOWN        : NPHI:PETROWORKS:rC:NONE:v2 
PEF      .b/elec      UNKNOWN        : PEF:litodensidad:rC:NONE:v0 (auto-composite)
RHOB     .g/cm3       UNKNOWN        : RHOB:litodensidad:rC:NONE:v0 (auto-composite)
~A     DEPTH         CALI         DRHO           DT           GR          ILD          ILM          LLD          LLS         MSFL         NPHI          PEF         RHOB
# ...
   2190.4041    -999.2500    -999.2500    -999.2500      24.6944       2.3679       2.5972       0.2000       0.2000       0.2000      -0.1500    -999.2500    -999.2500
   2190.5564    -999.2500    -999.2500    -999.2500      23.1561       2.4810       2.7911       0.2000       0.2000       0.2000      -0.1500    -999.2500    -999.2500
   2190.7087    -999.2500    -999.2500    -999.2500      22.6083       2.4450       2.8291       0.2000       0.2000       0.2000      -0.1500    -999.2500    -999.2500
   2190.8613    -999.2500    -999.2500    -999.2500      22.3149       2.3999       2.8473       0.2000       0.2000       0.2000      -0.1500    -999.2500    -999.2500
   2191.0137    -999.2500    -999.2500    -999.2500      26.4965       2.1928       2.5173       0.2000       0.2000       0.2000      -0.1500    -999.2500    -999.2500
   2191.1660    -999.2500    -999.2500    -999.2500      30.7263       1.9870       2.1872       0.2000       0.2000       0.2000      -0.1500    -999.2500    -999.2500
   2191.3184    -999.2500    -999.2500    -999.2500      35.7196       1.8009       1.8527       0.2000       0.2000       0.2000      -0.1500    -999.2500    -999.2500
   2191.4707    -999.2500    -999.2500    -999.2500      40.4711       1.6212       1.5335       0.2000       0.2000       0.2000      -0.1500    -999.2500    -999.2500
   2191.6233    -999.2500    -999.2500    -999.2500      41.7365       1.5318       1.4326       0.2000       0.2000       0.2000      -0.1500    -999.2500    -999.2500
   2191.7756    -999.2500    -999.2500    -999.2500      42.7611       1.4472       1.3412       0.2000       0.2000       0.2000      -0.1500    -999.2500    -999.2500
   2191.9280    -999.2500    -999.2500    -999.2500      40.1669       1.4342       1.3918       0.2000       0.2000       0.2000      -0.1500    -999.2500    -999.2500
   2192.0803    -999.2500    -999.2500    -999.2500      37.5537       1.4253       1.4455       0.2000       0.2000       0.2000      -0.1500    -999.2500    -999.2500
   2192.2329    -999.2500    -999.2500    -999.2500      34.6800       1.4732       1.5404       0.2000       0.2000       0.2000      -0.1500    -999.2500    -999.2500
   2192.3853    -999.2500    -999.2500    -999.2500      32.0599       1.5236       1.6318       0.2000       0.2000       0.2000      -0.1500    -999.2500    -999.2500
   2192.5376    -999.2500    -999.2500    -999.2500      32.9679       1.6063       1.6734       0.2000       0.2000       0.2000      -0.1500    -999.2500    -999.2500
   2192.6899    -999.2500    -999.2500    -999.2500      34.0957       1.6848       1.7098       0.2000       0.2000       0.2000      -0.1500    -999.2500    -999.2500
   2192.8425    -999.2500    -999.2500    -999.2500      38.0297       1.7094       1.6792       0.2000       0.2000       0.2000      -0.1500    -999.2500    -999.2500
   2192.9949    -999.2500    -999.2500    -999.2500      41.8483       1.7272       1.6464       0.2000       0.2000       0.2000      -0.1500    -999.2500    -999.2500
   2193.1472    -999.2500    -999.2500    -999.2500      44.3083       1.6658       1.5880       0.2000       0.2000       0.2000      -0.1500    -999.2500    -999.2500
   2193.2996    -999.2500    -999.2500    -999.2500      46.4298       1.6030       1.5311       0.2000       0.2000       0.2000      -0.1500    -999.2500    -999.2500
   2193.4519    -999.2500    -999.2500    -999.2500      44.4203       1.5238       1.4925       0.2000       0.2000       0.2000      -0.1500    -999.2500    -999.2500
   2193.6045    -999.2500    -999.2500    -999.2500      42.3212       1.4479       1.4538       0.2000       0.2000       0.2000      -0.1500    -999.2500    -999.2500
   2193.7568    -999.2500    -999.2500    -999.2500      39.2101       1.4098       1.4147       0.2000       0.2000       0.2000      -0.1500    -999.2500    -999.2500
   2193.9092    -999.2500    -999.2500    -999.2500      36.5140       1.3760       1.3772       0.2000       0.2000       0.2000      -0.1500    -999.2500    -999.2500
   2194.0615    -999.2500    -999.2500    -999.2500      38.1848       1.3869       1.3562       0.2000       0.2000       0.2000      -0.1500    -999.2500    -999.2500
   2194.2141    -999.2500    -999.2500    -999.2500      39.7055       1.3962       1.3392       0.2000       0.2000       0.2000      -0.1500    -999.2500    -999.2500
   2194.3665    -999.2500    -999.2500    -999.2500      39.6303       1.3872       1.3653       0.2000       0.2000       0.2000      -0.1500    -999.2500    -999.2500
   2194.5188    -999.2500    -999.2500    -999.2500      39.3537       1.3757       1.3886       0.2000       0.2000       0.2000      -0.1500    -999.2500    -999.2500
   2194.6711    -999.2500    -999.2500    -999.2500      37.0770       1.3398       1.3841       0.2000       0.2000       0.2000      -0.1500    -999.2500    -999.2500
   2194.8237    -999.2500    -999.2500    -999.2500      34.9746       1.3043       1.3753       0.2000       0.2000       0.2000      -0.1500    -999.2500    -999.2500
   2194.9761    -999.2500    -999.2500    -999.2500      34.6557       1.2737       1.3227       0.2000       0.2000       0.2000      -0.1500    -999.2500    -999.2500
   2195.1284    -999.2500    -999.2500    -999.2500      34.6156       1.2445       1.2684       0.2000       0.2000       0.2000      -0.1500    -999.2500    -999.2500
   2195.2808    -999.2500    -999.2500    -999.2500      37.2444       1.2284       1.1987       0.2000       0.2000       0.2000      -0.1500    -999.2500    -999.2500
   2195.4331    -999.2500    -999.2500    -999.2500      39.9234       1.2111       1.1346       0.2000       0.2000       0.2000      -0.1500    -999.2500    -999.2500
   2195.5857    -999.2500    -999.2500    -999.2500      43.0540       1.1821       1.1206       0.2000       0.2000       0.2000      -0.1500    -999.2500    -999.2500
   2195.7380    -999.2500    -999.2500    -999.2500      45.6984       1.1484       1.1043       0.2000       0.2000       0.2000      -0.1500    -999.2500    -999.2500
   2195.8904    -999.2500    -999.2500    -999.2500      43.9295       1.0717       1.0667       0.2000       0.2000       0.2000      -0.1500    -999.2500    -999.2500
   2196.0427    -999.2500    -999.2500    -999.2500      42.3153       0.9984       1.0283       0.2000       0.2000       0.2000      -0.1500    -999.2500    -999.2500
   2196.1953    -999.2500    -999.2500    -999.2500      42.0465       0.9538       0.9827       0.2000       0.2000       0.2000      -0.1500    -999.2500    -999.2500
   2196.3477    -999.2500    -999.2500    -999.2500      42.3263       0.9103       0.9368       0.2000       0.2000       0.2000      -0.1500    -999.2500    -999.2500
   2196.5000    -999.2500    -999.2500    -999.2500      47.1028       0.8763       0.8888       0.2000       0.2000       0.2000      -0.1500    -999.2500    -999.2500
   2196.6523    -999.2500    -999.2500    -999.2500      51.4005       0.8416       0.8421       0.2000       0.2000       0.2000      -0.1500    -999.2500    -999.2500
   2196.8049    -999.2500    -999.2500    -999.2500      51.7389       0.8005       0.8060       0.2000       0.2000       0.2000      -0.1500    -999.2500    -999.2500
   2196.9573    -999.2500    -999.2500    -999.2500      51.9128       0.7621       0.7726       0.2000       0.2000       0.2000      -0.1500    -999.2500    -999.2500
   2197.1096    -999.2500    -999.2500    -999.2500      50.7997       0.7450       0.7606       0.2000       0.2000       0.2000      -0.1500    -999.2500    -999.2500
   2197.2620    -999.2500    -999.2500    -999.2500      49.8912       0.7330       0.7538       0.2000       0.2000       0.2000      -0.1500    -999.2500    -999.2500
   2197.4143    -999.2500    -999.2500    -999.2500      50.4979       0.7579       0.7858       0.2000       0.2000       0.2000      -0.1500    -999.2500    -999.2500
   2197.5669    -999.2500    -999.2500    -999.2500      50.6286       0.7855       0.8203       0.2000       0.2000       0.2000      -0.1500    -999.2500    -999.2500
