#------------------------------------------------------------------------------
#
#   Created by  : [OpenWorks] Log Export Utility (LEXP)
#   Created on  : 2016-05-23 11:56:24
#   Project     : CANT971
#   User        : R5K
#   Interpreter : PEP
#
#------------------------------------------------------------------------------
~VERSION INFORMATION
VERS. 2.0 : CWLS Log ASCII Standard - version 2.0
WRAP.  NO : One line per depth step
~WELL INFORMATION
#MNEMONIC   .UNIT                                           VALUE :DESCRIPTION
#------------------------------------------------------------------------------
STRT        .M                                           741.4294 :START DEPTH
STOP        .M                                          2768.5020 :STOP DEPTH
STEP        .M                                             0.1524 :STEP
NULL        .                                           -999.2500 :NULL VALUE
COMP        .                                             UNKNOWN :COMPANY
WELL        .                                                 470 :WELL
FLD         .                                             UNKNOWN :FIELD
LOC         .                                             UNKNOWN :LOCATION
CNTY        .                                             UNKNOWN :COUNTY
STAT        .                                             UNKNOWN :STATE
CTRY        .                                             UNKNOWN :COUNTRY
SRVC        .                                             UNKNOWN :SERVICE COMPANY
DATE        .                                             UNKNOWN :LOG DATE
UWI         .                                                 470 :UNIQUE WELL ID
XCOORD      .                                       598706.890000 :SURFACE X
YCOORD      .                                      2143306.000000 :SURFACE Y
LAT         .                                           19.382628 :LATITUDE
LON         .                                          -92.060044 :LONGITUDE
ELEV        .M                                             0.0000 :SURFACE ELEV
ELEV_TYPE   .                                                  NA :ELEV TYPE
~CURVE INFORMATION
#MNEMONIC.UNIT        API CODE       : CURVE DESCRIPTION
#------------------------------------------------------------------------------
DEPTH    .M                          : Measured Depth
CALI     .inches      UNKNOWN        : CALI:litodensidad:rC:NONE:v0 (auto-composite)
CGR      .API         UNKNOWN        : CGR:PETROWORKS:rC:NONE:v1 
DRHO     .g/cm3       UNKNOWN        : DRHO:litodensidad:rC:NONE:v0 (auto-composite)
DT       .us/ft       UNKNOWN        : DT:PETROWORKS:rC:NONE:v1 
GR       .API         UNKNOWN        : GR:PETROWORKS:rC:NONE:v8 
ILD      .ohm.m       UNKNOWN        : ILD:PETROWORKS:rC:NONE:v1 
ILM      .ohm.m       UNKNOWN        : ILM:PETROWORKS:rC:NONE:v1 
LLD      .ohm.m       UNKNOWN        : LLD:resistivos:rC:NONE:v0 (auto-composite)
LLS      .ohm.m       UNKNOWN        : LLS:resistivos:rC:NONE:v0 (auto-composite)
MSFL     .ohm.m       UNKNOWN        : MSFL:resistivos:rC:NONE:v0 (auto-composite)
NPHI     .v/v_decimal UNKNOWN        : NPHI:PETROWORKS:rC:NONE:v1 
PEF      .UNKNOWN     UNKNOWN        : PEF:litodensidad:rC:NONE:v0 (auto-composite)
POTA     .wtpercent   UNKNOWN        : POTA:PETROWORKS:rC:NONE:v1 
RHOB     .g/cm3       UNKNOWN        : RHOB:litodensidad:rC:NONE:v0 (auto-composite)
THOR     .ppm         UNKNOWN        : THOR:PETROWORKS:rC:NONE:v1 
URAN     .ppm         UNKNOWN        : URAN:PETROWORKS:rC:NONE:v1 
~A     DEPTH         CALI          CGR         DRHO           DT           GR          ILD          ILM          LLD          LLS         MSFL         NPHI          PEF         POTA         RHOB         THOR         URAN
# ...
   1812.8014    -999.2500      32.9502    -999.2500     107.5000      30.7356       1.2263       1.2099    -999.2500    -999.2500    -999.2500    -999.2500    -999.2500       0.0090    -999.2500       4.4378       0.2860
   1812.9539    -999.2500      32.3648    -999.2500     107.7000      33.2510       1.1727       1.2218    -999.2500    -999.2500    -999.2500    -999.2500    -999.2500       0.0092    -999.2500       4.2025       0.2606
   1813.1062    -999.2500      32.8014    -999.2500     106.2000      33.3529       1.1900       1.0806    -999.2500    -999.2500    -999.2500    -999.2500    -999.2500       0.0097    -999.2500       4.0930       0.2749
   1813.2587    -999.2500      31.0921    -999.2500     105.4000      32.1099       1.1664       0.9855    -999.2500    -999.2500    -999.2500    -999.2500    -999.2500       0.0093    -999.2500       3.8194       0.1866
   1813.4110    -999.2500      31.4393    -999.2500     106.1000      31.7253       1.1528       0.9909    -999.2500    -999.2500    -999.2500    -999.2500    -999.2500       0.0101    -999.2500       3.5988       0.1802
   1813.5635    -999.2500      30.6518    -999.2500     106.0000      30.8000       1.1077       0.9741    -999.2500    -999.2500    -999.2500    -999.2500    -999.2500       0.0100    -999.2500       3.4487       0.1307
   1813.7158    -999.2500      32.1994    -999.2500     106.3000      30.8927       1.0060       0.9187    -999.2500    -999.2500    -999.2500    -999.2500    -999.2500       0.0105    -999.2500       3.6153       0.2005
   1813.8683    -999.2500      21.7332    -999.2500     106.6000      31.9470       1.0252       0.8124    -999.2500    -999.2500    -999.2500    -999.2500    -999.2500       0.0058    -999.2500       2.9832       0.7946
   1814.0206    -999.2500      24.0281    -999.2500     108.7000      33.4972       1.0022       0.8126    -999.2500    -999.2500    -999.2500    -999.2500    -999.2500       0.0065    -999.2500       3.2484       0.9245
   1814.1731    -999.2500      24.2237    -999.2500     109.2000      33.8078       1.0018       0.9939    -999.2500    -999.2500    -999.2500    -999.2500    -999.2500       0.0069    -999.2500       3.1258       0.8992
   1814.3254    -999.2500      23.3824    -999.2500     108.6000      33.6902       1.0453       0.9309    -999.2500    -999.2500    -999.2500    -999.2500    -999.2500       0.0068    -999.2500       2.9820       0.8205
   1814.4778    -999.2500      26.7729    -999.2500     108.7000      33.0415       1.0651       0.9245    -999.2500    -999.2500    -999.2500    -999.2500    -999.2500       0.0077    -999.2500       3.4420       0.9565
   1814.6302    -999.2500      25.2320    -999.2500     107.5000      33.8870       1.0220       0.9260    -999.2500    -999.2500    -999.2500    -999.2500    -999.2500       0.0076    -999.2500       3.0967       0.8880
   1814.7826    -999.2500      24.7965    -999.2500     110.4000      33.5446       1.0676       0.9365    -999.2500    -999.2500    -999.2500    -999.2500    -999.2500       0.0077    -999.2500       2.9236       0.8434
   1814.9351    -999.2500      24.2126    -999.2500     112.2000      33.5738       1.0096       0.9783    -999.2500    -999.2500    -999.2500    -999.2500    -999.2500       0.0070    -999.2500       3.0907       0.8927
   1815.0874    -999.2500      23.2102    -999.2500     110.3000      35.0119       1.1093       1.0200    -999.2500    -999.2500    -999.2500    -999.2500    -999.2500       0.0064    -999.2500       3.1057       0.8568
   1815.2399    -999.2500      23.5999    -999.2500     108.9000      34.9779       1.0375       1.0745    -999.2500    -999.2500    -999.2500    -999.2500    -999.2500       0.0064    -999.2500       3.1991       0.9048
   1815.3922    -999.2500      24.7176    -999.2500     106.8000      33.5095       1.0184       1.0772    -999.2500    -999.2500    -999.2500    -999.2500    -999.2500       0.0071    -999.2500       3.1959       0.9130
   1815.5447    -999.2500      25.7764    -999.2500     106.4000      30.4052       0.9734       1.0880    -999.2500    -999.2500    -999.2500    -999.2500    -999.2500       0.0074    -999.2500       3.3085       0.9936
   1815.6970    -999.2500      25.5034    -999.2500     106.2000      29.6990       0.9128       1.0932    -999.2500    -999.2500    -999.2500    -999.2500    -999.2500       0.0074    -999.2500       3.2365       0.9783
   1815.8495    -999.2500      25.6591    -999.2500     107.1000      29.5359       0.7195       0.9988    -999.2500    -999.2500    -999.2500    -999.2500    -999.2500       0.0076    -999.2500       3.1984       0.9626
   1816.0018    -999.2500      24.9900    -999.2500     111.6000      27.3609       0.6125       0.8411    -999.2500    -999.2500    -999.2500    -999.2500    -999.2500       0.0071    -999.2500       3.2242       0.9247
   1816.1543    -999.2500      26.3096    -999.2500     117.1000      29.5308       0.5243       0.5868    -999.2500    -999.2500    -999.2500    -999.2500    -999.2500       0.0076    -999.2500       3.3508       0.9777
   1816.3066    -999.2500      25.4836    -999.2500     123.8000      31.9610       0.5002       0.4565    -999.2500    -999.2500    -999.2500    -999.2500    -999.2500       0.0073    -999.2500       3.2947       0.9094
   1816.4590    -999.2500      26.1713    -999.2500     126.5000      31.1818       0.4928       0.4066    -999.2500    -999.2500    -999.2500    -999.2500    -999.2500       0.0074    -999.2500       3.4043       0.9161
   1816.6115    -999.2500      27.5292    -999.2500     125.2000      30.4405       0.5361       0.4255    -999.2500    -999.2500    -999.2500    -999.2500    -999.2500       0.0076    -999.2500       3.6635       0.9672
   1816.7638    -999.2500      27.0727    -999.2500     123.3000      30.8418       0.5719       0.5798    -999.2500    -999.2500    -999.2500    -999.2500    -999.2500       0.0070    -999.2500       3.7864       0.9088
   1816.9163    -999.2500      25.5159    -999.2500     120.8000      30.7184       0.5179       0.6382    -999.2500    -999.2500    -999.2500    -999.2500    -999.2500       0.0059    -999.2500       3.8889       0.8880
   1817.0686    -999.2500      21.0329    -999.2500     119.6000      32.2344       0.4675       0.6267    -999.2500    -999.2500    -999.2500    -999.2500    -999.2500       0.0032    -999.2500       3.9098       0.9707
   1817.2211    -999.2500      21.1195    -999.2500     118.3000      36.1147       0.6597       0.6081    -999.2500    -999.2500    -999.2500    -999.2500    -999.2500       0.0031    -999.2500       3.9603       1.0607
   1817.3734    -999.2500      20.4116    -999.2500     117.4000      33.0505       0.8818       0.8206    -999.2500    -999.2500    -999.2500    -999.2500    -999.2500       0.0028    -999.2500       3.9130       1.0660
   1817.5259    -999.2500      18.6044    -999.2500     114.1000      31.8565       1.0707       1.1834    -999.2500    -999.2500    -999.2500    -999.2500    -999.2500       0.0023    -999.2500       3.6573       0.9314
   1817.6782    -999.2500      22.3037    -999.2500     109.8000      29.8929       1.0291       2.0659    -999.2500    -999.2500    -999.2500    -999.2500    -999.2500       0.0040    -999.2500       3.8555       1.0541
   1817.8307    -999.2500      23.0388    -999.2500     110.8000      30.6511       1.3752       1.8772    -999.2500    -999.2500    -999.2500    -999.2500    -999.2500       0.0044    -999.2500       3.8785       1.1195
   1817.9830    -999.2500      21.1548    -999.2500     111.7000      30.6376       1.4512       2.0124    -999.2500    -999.2500    -999.2500    -999.2500    -999.2500       0.0038    -999.2500       3.6643       1.1282
   1818.1355    -999.2500      20.5572    -999.2500     112.1000      31.7068       1.7722       3.8869    -999.2500    -999.2500    -999.2500    -999.2500    -999.2500       0.0037    -999.2500       3.5517       1.1752
   1818.2878    -999.2500      21.1218    -999.2500     111.0000      30.6176       2.1886       4.8447    -999.2500    -999.2500    -999.2500    -999.2500    -999.2500       0.0043    -999.2500       3.4461       1.2202
