#------------------------------------------------------------------------------
#
#   Created by  : [OpenWorks] Log Export Utility (LEXP)
#   Created on  : 2015-10-01 09:49:56
#   Project     : CANT971
#   User        : R5K
#   Interpreter : PEP
#
#------------------------------------------------------------------------------
~VERSION INFORMATION
VERS. 2.0 : CWLS Log ASCII Standard - version 2.0
WRAP.  NO : One line per depth step
~WELL INFORMATION
#MNEMONIC   .UNIT                                           VALUE :DESCRIPTION
#------------------------------------------------------------------------------
STRT        .M                                           799.8710 :START DEPTH
STOP        .M                                          1367.5610 :STOP DEPTH
STEP        .M                                             0.1524 :STEP
NULL        .                                           -999.2500 :NULL VALUE
COMP        .                                   PEMEX EXPL & PROD :COMPANY
WELL        .                                        CANTARELL-1A :WELL
FLD         .                                           CANTARELL :FIELD
LOC         .                                             UNKNOWN :LOCATION
CNTY        .                                      CD. DEL CARMEN :COUNTY
STAT        .                                            CAMPECHE :STATE
CTRY        .                                              MEXICO :COUNTRY
SRVC        .                                             UNKNOWN :SERVICE COMPANY
DATE        .                                             UNKNOWN :LOG DATE
UWI         .                                          3060000138 :UNIQUE WELL ID
XCOORD      .                                       600823.080000 :SURFACE X
YCOORD      .                                      2145118.550000 :SURFACE Y
LAT         .                                           19.398902 :LATITUDE
LON         .                                          -92.039798 :LONGITUDE
ELEV        .M                                            27.7000 :SURFACE ELEV
ELEV_TYPE   .                                                  KB :ELEV TYPE
~CURVE INFORMATION
#MNEMONIC.UNIT        API CODE       : CURVE DESCRIPTION
#------------------------------------------------------------------------------
DEPTH    .M                          : Measured Depth
CALI     .inches      UNKNOWN        : CALI:UNKNOWN:rC:NONE:v0 (auto-composite)
DRHO     .g/cm3       UNKNOWN        : DRHO:UNKNOWN:rC:NONE:v0 (auto-composite)
DT       .us/ft       UNKNOWN        : DT:DT:rC:NONE:v0 (auto-composite)
ILD      .ohm.m       UNKNOWN        : ILD:UNKNOWN:rC:NONE:v0 (auto-composite)
LLD      .ohm.m       UNKNOWN        : LLD:UNKNOWN:rC:NONE:v0 (auto-composite)
LLS      .ohm.m       UNKNOWN        : LLS:UNKNOWN:rC:NONE:v0 (auto-composite)
MSFL     .ohm.m       UNKNOWN        : MSFL:UNKNOWN:rC:NONE:v0 (auto-composite)
NPHI     .v/v_decimal UNKNOWN        : NPHI:NPHI:rC:NONE:v0 (auto-composite)
GR       .API         UNKNOWN        : RG:UNKNOWN:rC:NONE:v0 (auto-composite)
RHOB     .g/cm3       UNKNOWN        : RHOB:UNKNOWN:rC:NONE:v0 (auto-composite)
~A     DEPTH         CALI         DRHO           DT          ILD          LLD          LLS         MSFL         NPHI           GR         RHOB
# ...
   1132.7126      15.7619       0.0248    -999.2500       1.0920       0.2000       0.2000       0.2000      53.1085      36.6093       2.2914
   1132.8650      15.8318       0.0328    -999.2500       1.1131       0.2000       0.2000       0.2000      52.6905      36.4381       2.2984
   1133.0175      15.8719       0.0323    -999.2500       1.1312       0.2000       0.2000       0.2000      51.9557      36.7510       2.3044
   1133.1698      15.9042       0.0282    -999.2500       1.1370       0.2000       0.2000       0.2000      50.9027      37.2622       2.3040
   1133.3223      15.9248       0.0187    -999.2500       1.1245       0.2000       0.2000       0.2000      49.6203      38.0722       2.2940
   1133.4746      15.9372       0.0148    -999.2500       1.1073       0.2000       0.2000       0.2000      48.1074      38.9233       2.2904
   1133.6271      15.9377       0.0193    -999.2500       1.0832       0.2000       0.2000       0.2000      48.1046      39.8354       2.2964
   1133.7794      15.9384       0.0220    -999.2500       1.0612       0.2000       0.2000       0.2000      49.6195      40.7451       2.3014
   1133.9319      15.9394       0.0220    -999.2500       1.0421       0.2000       0.2000       0.2000      51.4541      41.6516       2.3049
   1134.0842      15.9402       0.0212    -999.2500       1.0256       0.2000       0.2000       0.2000      53.6100      42.0655       2.3053
   1134.2366      15.9407       0.0192    -999.2500       1.0126       0.2000       0.2000       0.2000      54.9637      41.7849       2.3013
   1134.3890      15.9414       0.0201    -999.2500       1.0033       0.2000       0.2000       0.2000      55.5107      41.5854       2.2986
   1134.5414      15.9424       0.0251    -999.2500       0.9993       0.2000       0.2000       0.2000      55.9243      41.4981       2.2976
   1134.6938      15.9392       0.0261    -999.2500       1.0013       0.2000       0.2000       0.2000      56.2038      41.4542       2.2991
   1134.8462      15.9301       0.0216    -999.2500       1.0113       0.2000       0.2000       0.2000      56.6710      41.4687       2.3041
   1134.9987      15.9166       0.0166    -999.2500       1.0224       0.2000       0.2000       0.2000      57.3270      41.3121       2.3087
   1135.1510      15.8970       0.0111    -999.2500       1.0349       0.2000       0.2000       0.2000      57.5311      40.9291       2.3127
   1135.3035      15.8821       0.0104    -999.2500       1.0431       0.2000       0.2000       0.2000      57.2807      40.1985       2.3148
   1135.4558      15.8730       0.0159    -999.2500       1.0456       0.2000       0.2000       0.2000      56.9002      39.0173       2.3143
   1135.6083      15.8552       0.0219    -999.2500       1.0474       0.2000       0.2000       0.2000      56.3891      38.2321       2.3164
   1135.7606      15.8261       0.0284    -999.2500       1.0484       0.2000       0.2000       0.2000      55.8433      37.9489       2.3219
   1135.9131      15.7973       0.0360    -999.2500       1.0521       0.2000       0.2000       0.2000      55.2628      37.9757       2.3288
   1136.0654      15.7687       0.0450    -999.2500       1.0591       0.2000       0.2000       0.2000      54.7048      38.3879       2.3373
   1136.2178      15.7532       0.0466    -999.2500       1.0691       0.2000       0.2000       0.2000      54.1693      38.5309       2.3400
   1136.3702      15.7537       0.0391    -999.2500       1.0826       0.2000       0.2000       0.2000      53.2668      38.3469       2.3355
   1136.5226      15.7453       0.0364    -999.2500       1.0955       0.2000       0.2000       0.2000      51.9959      38.4792       2.3344
   1136.6750      15.7263       0.0394    -999.2500       1.1075       0.2000       0.2000       0.2000      51.3637      38.9874       2.3374
   1136.8274      15.7072       0.0378    -999.2500       1.1112       0.2000       0.2000       0.2000      51.3732      39.5418       2.3415
   1136.9799      15.6882       0.0307    -999.2500       1.1052       0.2000       0.2000       0.2000      51.5084      40.1499       2.3471
   1137.1322      15.6691       0.0258    -999.2500       1.1046       0.2000       0.2000       0.2000      51.7699      40.5738       2.3444
   1137.2847      15.6500       0.0233    -999.2500       1.1101       0.2000       0.2000       0.2000      52.2018      40.7874       2.3323
   1137.4370      15.5893       0.0246    -999.2500       1.1104       0.2000       0.2000       0.2000      52.8047      40.9057       2.3281
   1137.5895      15.4820       0.0301    -999.2500       1.1049       0.2000       0.2000       0.2000      53.4800      40.9177       2.3326
   1137.7418      15.4167       0.0311    -999.2500       1.1022       0.2000       0.2000       0.2000      54.2280      40.5039       2.3381
   1137.8943      15.3971       0.0271    -999.2500       1.1027       0.2000       0.2000       0.2000      55.4824      39.6239       2.3446
   1138.0466      15.4015       0.0209    -999.2500       1.1306       0.2000       0.2000       0.2000      57.2458      38.8879       2.3521
   1138.1990      15.4316       0.0124    -999.2500       1.1877       0.2000       0.2000       0.2000      58.0308      38.3061       2.3606
   1138.3514      15.4570       0.0129    -999.2500       1.2268       0.2000       0.2000       0.2000      57.8318      37.2866       2.3594
   1138.5038      15.4776       0.0229    -999.2500       1.2468       0.2000       0.2000       0.2000      57.4723      35.8075       2.3478
   1138.6562      15.4835       0.0248    -999.2500       1.2704       0.2000       0.2000       0.2000      56.9513      35.2628       2.3467
   1138.8086      15.4745       0.0183    -999.2500       1.2974       0.2000       0.2000       0.2000      56.3396      35.6779       2.3562
   1138.9611      15.4605       0.0175    -999.2500       1.3418       0.2000       0.2000       0.2000      55.6366      36.2388       2.3602
   1139.1134      15.4415       0.0225    -999.2500       1.4034       0.2000       0.2000       0.2000      54.9669      36.9459       2.3587
   1139.2659      15.4176       0.0247    -999.2500       1.4759       0.2000       0.2000       0.2000      54.3307      36.8539       2.3613
   1139.4182      15.3890       0.0242    -999.2500       1.5591       0.2000       0.2000       0.2000      53.5346      35.9739       2.3678
   1139.5707      15.3704       0.0212    -999.2500       1.5839       0.2000       0.2000       0.2000      52.5781      35.7518       2.3713
   1139.7230      15.3614       0.0157    -999.2500       1.5523       0.2000       0.2000       0.2000      51.4537      36.1640       2.3718
   1139.8755      15.3624       0.0120    -999.2500       1.4723       0.2000       0.2000       0.2000      50.1607      36.5250       2.3661
   1140.0278      15.3729       0.0100    -999.2500       1.3465       0.2000       0.2000       0.2000      49.0157      36.8377       2.3545
   1140.1802      15.4142       0.0100    -999.2500       1.2363       0.2000       0.2000       0.2000      48.0193      36.8924       2.3336
   1140.3326      15.4839       0.0120    -999.2500       1.1405       0.2000       0.2000       0.2000      47.7443      36.7084       2.3041
   1140.4850      15.5173       0.0096    -999.2500       1.0647       0.2000       0.2000       0.2000      48.1938      37.3072       2.2610
   1140.6375      15.5178       0.0031    -999.2500       1.0071       0.2000       0.2000       0.2000      49.1671      38.6143       2.2059
   1140.7898      15.4818       0.0019    -999.2500       0.9492       0.2000       0.2000       0.2000      50.6665      39.9738       2.1712
   1140.9423      15.4137       0.0054    -999.2500       0.8910       0.2000       0.2000       0.2000      52.0560      41.3796       2.1547
   1141.0946      15.4561       0.0100    -999.2500       0.8479       0.2000       0.2000       0.2000      53.3349      42.4149       2.1593
