#------------------------------------------------------------------------------
#
#   Created by  : [OpenWorks] Log Export Utility (LEXP)
#   Created on  : 2016-05-23 11:50:23
#   Project     : CANT971
#   User        : R5K
#   Interpreter : PEP
#
#------------------------------------------------------------------------------
~VERSION INFORMATION
VERS. 2.0 : CWLS Log ASCII Standard - version 2.0
WRAP.  NO : One line per depth step
~WELL INFORMATION
#MNEMONIC   .UNIT                                           VALUE :DESCRIPTION
#------------------------------------------------------------------------------
STRT        .M                                           790.6004 :START DEPTH
STOP        .M                                          2649.8804 :STOP DEPTH
STEP        .M                                             0.1524 :STEP
NULL        .                                           -999.2500 :NULL VALUE
COMP        .                                             UNKNOWN :COMPANY
WELL        .                                               1012D :WELL
FLD         .                                             UNKNOWN :FIELD
LOC         .                                             UNKNOWN :LOCATION
CNTY        .                                             UNKNOWN :COUNTY
STAT        .                                             UNKNOWN :STATE
CTRY        .                                             UNKNOWN :COUNTRY
SRVC        .                                             UNKNOWN :SERVICE COMPANY
DATE        .                                             UNKNOWN :LOG DATE
UWI         .                                               1012D :UNIQUE WELL ID
XCOORD      .                                       594334.990000 :SURFACE X
YCOORD      .                                      2152041.060000 :SURFACE Y
LAT         .                                           19.461774 :LATITUDE
LON         .                                          -92.101239 :LONGITUDE
ELEV        .M                                             0.0000 :SURFACE ELEV
ELEV_TYPE   .                                                  KB :ELEV TYPE
~CURVE INFORMATION
#MNEMONIC.UNIT        API CODE       : CURVE DESCRIPTION
#------------------------------------------------------------------------------
DEPTH    .M                          : Measured Depth
DT       .us/ft       UNKNOWN        : DT:UNKNOWN:rC:NONE:v0 (auto-composite)
GR       .API         UNKNOWN        : GR:PETROWORKS:rC:NONE:v1 
GR-LWD   .API         UNKNOWN        : GR-LWD:PETROWORKS:rC:NONE:v1 
ILD      .ohm.m       UNKNOWN        : ILD:resistivos:rC:NONE:v0 (auto-composite)
ILD-LWD  .ohm.m       UNKNOWN        : ILD-LWD:PETROWORKS:rC:NONE:v1 
ILM      .ohm.m       UNKNOWN        : ILM:resistivos:rC:NONE:v0 (auto-composite)
ILM-LWD  .ohm.m       UNKNOWN        : ILM-LWD:PETROWORKS:rC:NONE:v1 
~A     DEPTH           DT           GR       GR-LWD          ILD      ILD-LWD          ILM      ILM-LWD
# ...
   2480.4116     112.5291      32.8086      67.1325    -999.2500       0.8230    -999.2500       0.8156
   2480.5640     113.8846      32.5368      66.6525    -999.2500       0.8297    -999.2500       0.8149
   2480.7163     114.9108      33.8659      71.8509    -999.2500       0.8458    -999.2500       0.8138
   2480.8689     113.4632      33.8175      73.7607    -999.2500       0.8102    -999.2500       0.7653
   2481.0212     111.7600      33.2583      78.4213    -999.2500       0.5891    -999.2500       0.5832
   2481.1736     110.1966      31.6051      77.2610    -999.2500       0.5199    -999.2500       0.5285
   2481.3259     107.2242      29.8046      78.6931    -999.2500       0.6671    -999.2500       0.6459
   2481.4785     105.5671      30.5226      69.4745    -999.2500       0.8707    -999.2500       0.8261
   2481.6309     104.9886      29.5907      65.1007    -999.2500       0.8698    -999.2500       0.8288
   2481.7832     104.4787      28.8851      62.0542    -999.2500       0.8956    -999.2500       0.8598
   2481.9355     104.2910      27.3741      62.6204    -999.2500       0.9352    -999.2500       0.9128
   2482.0879     104.2860      27.5882      61.6358    -999.2500       0.9668    -999.2500       0.9503
   2482.2405     104.3140      28.8128      58.7797    -999.2500       0.9505    -999.2500       0.9270
   2482.3928     104.7210      29.4975      58.7332    -999.2500       0.9270    -999.2500       0.8929
   2482.5452     105.2819      30.2939      60.6230    -999.2500       0.9170    -999.2500       0.8795
   2482.6975     105.7789      30.2461      62.6243    -999.2500       0.8455    -999.2500       0.8162
   2482.8501     106.3989      29.5913      63.4721    -999.2500       0.7438    -999.2500       0.7308
   2483.0024     106.4687      28.0226      63.8524    -999.2500       0.7207    -999.2500       0.7148
   2483.1548     106.3765      27.5073      63.7250    -999.2500       0.7957    -999.2500       0.7801
   2483.3071     106.1868      27.2197      59.9970    -999.2500       0.8757    -999.2500       0.8451
   2483.4597     105.7151      26.6288      58.0046    -999.2500       0.9306    -999.2500       0.8945
   2483.6121     105.2315      26.0474      55.0290    -999.2500       0.8830    -999.2500       0.8493
   2483.7644     104.4770      25.8527      58.0780    -999.2500       0.8059    -999.2500       0.7899
   2483.9167     105.6190      27.6618      58.8508    -999.2500       0.7708    -999.2500       0.7665
   2484.0691     102.6550      28.0525      60.1825    -999.2500       0.8111    -999.2500       0.8038
   2484.2217     108.1730      28.0876      60.7863    -999.2500       0.9504    -999.2500       0.9186
   2484.3740     105.1420      26.2667      60.9698    -999.2500       0.9454    -999.2500       0.9086
   2484.5264     104.9940      24.8366      59.8889    -999.2500       0.8871    -999.2500       0.8643
   2484.6787     105.0630      25.4707      58.6419    -999.2500       0.8063    -999.2500       0.7976
   2484.8313     105.0637      27.1311      56.1234    -999.2500       0.7198    -999.2500       0.7216
   2484.9836     105.0620      26.7129      56.5597    -999.2500       0.8037    -999.2500       0.7900
   2485.1360     105.0625      24.8148      55.4520    -999.2500       0.8858    -999.2500       0.8621
   2485.2883     105.0650      22.7359      56.0927    -999.2500       0.8292    -999.2500       0.8132
   2485.4409     105.0653      22.9160      54.7177    -999.2500       0.8202    -999.2500       0.8106
   2485.5933     105.0670      23.9451      56.3686    -999.2500       0.8913    -999.2500       0.8824
   2485.7456     105.0667      23.5232      56.5762    -999.2500       0.9018    -999.2500       0.9009
   2485.8979     105.0660      22.7964      54.6427    -999.2500       0.9226    -999.2500       0.9162
   2486.0503     105.0657      22.3699      53.8518    -999.2500       0.9141    -999.2500       0.9029
   2486.2029     105.0650      23.1140      52.8762    -999.2500       0.8540    -999.2500       0.8513
   2486.3552     105.0650      25.6159      56.9399    -999.2500       0.8439    -999.2500       0.8412
   2486.5076     105.0650      28.0773      55.4614    -999.2500       0.8368    -999.2500       0.8424
   2486.6599     105.0650      29.0631      55.3260    -999.2500       0.8810    -999.2500       0.8982
   2486.8125     105.0650      26.9926      53.1324    -999.2500       0.9855    -999.2500       0.9995
   2486.9648     105.0650      22.0979      52.4487    -999.2500       1.0500    -999.2500       1.0452
   2487.1172     105.0650      19.2360      48.9100    -999.2500       1.2059    -999.2500       1.1917
   2487.2695     105.0650      18.3848      49.6523    -999.2500       1.2517    -999.2500       1.2367
   2487.4221     105.0650      20.2479      50.9215    -999.2500       1.0029    -999.2500       1.0013
   2487.5745     105.0650      22.6119      56.0875    -999.2500       0.8460    -999.2500       0.8546
   2487.7268     105.0650      25.1282      56.9669    -999.2500       0.9207    -999.2500       0.9247
   2487.8792     105.0650      27.3171      57.3751    -999.2500       1.0314    -999.2500       1.0228
   2488.0315     105.0650      27.8817      57.3415    -999.2500       1.0803    -999.2500       1.0645
   2488.1841     105.0650      26.5944      55.9412    -999.2500       1.0275    -999.2500       1.0150
   2488.3364     105.0650      25.0176      54.7080    -999.2500       0.9843    -999.2500       0.9794
   2488.4888     105.0650      23.9468      54.1655    -999.2500       0.9474    -999.2500       0.9468
   2488.6411     105.0650      24.3852      54.4163    -999.2500       0.9401    -999.2500       0.9366
   2488.7937     105.0650      24.5544      55.4910    -999.2500       0.9342    -999.2500       0.9232
   2488.9460     105.0650      24.8937      56.1565    -999.2500       0.8876    -999.2500       0.8830
   2489.0984     105.0650      26.4422      57.3098    -999.2500       0.8691    -999.2500       0.8748
   2489.2507     105.0650      27.8446      57.4914    -999.2500       0.9105    -999.2500       0.9145
   2489.4033     105.0650      27.9226      58.4455    -999.2500       0.9715    -999.2500       0.9680
   2489.5557     105.0650      25.4879      53.6998    -999.2500       1.0479    -999.2500       1.0459
   2489.7080     105.0650      23.7507      55.7152    -999.2500       1.0639    -999.2500       1.0671
   2489.8604     105.0650      23.3083      55.4658    -999.2500       1.1226    -999.2500       1.1233
   2490.0127     105.0650      23.7882      55.7103    -999.2500       1.2274    -999.2500       1.2194
   2490.1653     105.0650      24.0651      54.4990    -999.2500       1.1723    -999.2500       1.1513
   2490.3176     105.0650      23.3043      52.9059    -999.2500       1.1731    -999.2500       1.1536
   2490.4700     105.0650      21.7733      51.1804    -999.2500       1.1815    -999.2500       1.1643
   2490.6223     105.0650      19.9418      51.1806    -999.2500       1.2194    -999.2500       1.2076
   2490.7749     105.0650      20.1430      51.7354    -999.2500       1.3492    -999.2500       1.3421
   2490.9272     105.0650      21.0061      50.8458    -999.2500       1.5449    -999.2500       1.5314
   2491.0796     105.0650      19.0834      44.3037    -999.2500       2.4305    -999.2500       2.3874
   2491.2319     105.0650      15.9131      36.6099    -999.2500       3.8212    -999.2500       3.7493
   2491.3845     105.0650      12.2501      25.0958    -999.2500       5.5901    -999.2500       5.5013
   2491.5369     105.0650      10.7119      18.7399    -999.2500       6.1769    -999.2500       6.1216
   2491.6892     105.0650       8.6988      18.0691    -999.2500       5.9658    -999.2500       6.0039
   2491.8416     105.0650       7.7437      18.4610    -999.2500       5.5842    -999.2500       5.6427
   2491.9939     105.0650       8.1136      18.3300    -999.2500       5.1425    -999.2500       5.1543
