#------------------------------------------------------------------------------
#
#   Created by  : [OpenWorks] Log Export Utility (LEXP)
#   Created on  : 2016-05-12 17:01:20
#   Project     : CANT971
#   User        : R5K
#   Interpreter : PEP
#
#------------------------------------------------------------------------------
~VERSION INFORMATION
VERS. 2.0 : CWLS Log ASCII Standard - version 2.0
WRAP.  NO : One line per depth step
~WELL INFORMATION
#MNEMONIC   .UNIT                                           VALUE :DESCRIPTION
#------------------------------------------------------------------------------
STRT        .M                                           993.9530 :START DEPTH
STOP        .M                                          2371.9539 :STOP DEPTH
STEP        .M                                             0.1524 :STEP
NULL        .                                           -999.2500 :NULL VALUE
COMP        .                                   PEMEX EXPL & PROD :COMPANY
WELL        .                                                  55 :WELL
FLD         .                                           CANTARELL :FIELD
LOC         .                                             UNKNOWN :LOCATION
CNTY        .                                      CD. DEL CARMEN :COUNTY
STAT        .                                            CAMPECHE :STATE
CTRY        .                                              MEXICO :COUNTRY
SRVC        .                                             UNKNOWN :SERVICE COMPANY
DATE        .                                             UNKNOWN :LOG DATE
UWI         .                                          3060000168 :UNIQUE WELL ID
XCOORD      .                                       602149.520000 :SURFACE X
YCOORD      .                                      2147170.290000 :SURFACE Y
LAT         .                                           19.417375 :LATITUDE
LON         .                                          -92.027057 :LONGITUDE
ELEV        .M                                            28.1700 :SURFACE ELEV
ELEV_TYPE   .                                                  KB :ELEV TYPE
~CURVE INFORMATION
#MNEMONIC.UNIT        API CODE       : CURVE DESCRIPTION
#------------------------------------------------------------------------------
DEPTH    .M                          : Measured Depth
CALI     .inches      UNKNOWN        : CALI:CALI-Load:rC:NONE:v0 (auto-composite)
DRHO     .UNKNOWN     UNKNOWN        : DRHO:DRHO-Load:rC:NONE:v0 (auto-composite)
DT       .us/ft       UNKNOWN        : DT:DT:rC:NONE:v0 (auto-composite)
GR       .UNKNOWN     UNKNOWN        : GR:GR-Load:rC:NONE:v0 (auto-composite)
ILD      .UNKNOWN     UNKNOWN        : ILD:ILD-Load:rC:NONE:v0 (auto-composite)
LLD      .UNKNOWN     UNKNOWN        : LLD:LLD-Load:rC:NONE:v0 (auto-composite)
LLS      .UNKNOWN     UNKNOWN        : LLS:LLS-Load:rC:NONE:v0 (auto-composite)
MSFL     .UNKNOWN     UNKNOWN        : MSFL:MSFL-Load:rC:NONE:v0 (auto-composite)
NPHI     .v/v_decimal UNKNOWN        : NPHI:NPHI:rC:NONE:v0 (auto-composite)
RHOB     .UNKNOWN     UNKNOWN        : RHOB:RHOB-Load:rC:NONE:v0 (auto-composite)
SP       .UNKNOWN     UNKNOWN        : SP:SP-Load:rC:NONE:v0 (auto-composite)
~A     DEPTH         CALI         DRHO           DT           GR          ILD          LLD          LLS         MSFL         NPHI         RHOB           SP
# ...
   1984.5530       5.0800       0.0390      79.4780      37.8780    -999.2500     233.3070     103.4140      64.7810      12.5400       2.5470     -30.3590
   1984.7054       5.0700       0.0235      75.3268      43.3140    -999.2500     208.8417      92.8214      43.6617      10.8548       2.5385     -30.9072
   1984.8578       5.0600       0.0080      71.1700      48.7660    -999.2500     184.3630      82.2230      22.5310       9.1700       2.5300     -31.4570
   1985.0103       5.0600       0.0135      71.1940      48.6781    -999.2500     193.7701      85.9047      25.2697       9.1740       2.5749     -33.5458
   1985.1626       5.0600       0.0190      71.2180      48.5900    -999.2500     203.1760      89.5860      28.0080       9.1780       2.6200     -35.6410
   1985.3151       5.0600       0.0185      71.7980      46.9007    -999.2500     296.3948     124.2031      27.9395       9.3215       2.6175     -35.6165
   1985.4674       5.0600       0.0180      72.3780      45.2060    -999.2500     389.6130     158.8200      27.8710       9.4650       2.6150     -35.5920
   1985.6198       5.0600       0.0070      76.1838      37.8068    -999.2500     414.7740     169.8398      26.8456      10.8324       2.5776     -35.2106
   1985.7722       5.0600      -0.0040      79.9900      30.3830    -999.2500     439.9380     180.8610      25.8200      12.2000       2.5400     -34.8280
   1985.9246       5.0450       0.0090      85.0199      28.9629    -999.2500     400.7633     165.3419      21.8730      12.9792       2.5146     -36.6071
   1986.0770       5.0300       0.0220      90.0510      27.5390    -999.2500     361.5790     149.8190      17.9250      13.7580       2.4890     -38.3910
   1986.2294       5.0450       0.0424      97.2792      31.4811    -999.2500     363.7651     140.3667      11.8816      14.0792       2.4745     -38.3321
   1986.3818       5.0600       0.0630     104.5100      35.4310    -999.2500     365.9520     130.9110       5.8360      14.4000       2.4600     -38.2730
   1986.5342       5.0450       0.0575      99.7272      37.2291    -999.2500     480.9904     157.8688      10.0225      13.5986       2.5139     -38.1052
   1986.6866       5.0300       0.0520      94.9420      39.0310    -999.2500     596.0860     184.8400      14.2110      12.7980       2.5680     -37.9370
   1986.8390       5.0300       0.0610      85.3440      34.8836    -999.2500     746.6172     229.4851      53.8432      11.2933       2.6288     -38.8580
   1986.9915       5.0300       0.0700      75.7400      30.7270    -999.2500     897.2420     274.1580      93.5000       9.7900       2.6900     -39.7810
   1987.1438       5.0300       0.0605      79.0887      35.7561    -999.2500     874.8868     263.0652      91.4738      11.0555       2.6835     -38.8136
   1987.2961       5.0300       0.0510      82.4400      40.7970    -999.2500     852.5150     251.9640      89.4460      12.3200       2.6770     -37.8440
   1987.4486       5.0300       0.0306      82.0662      40.7680    -999.2500    1001.4685     258.4722      75.9234      12.2810       2.6286     -37.8530
   1987.6010       5.0300       0.0100      81.6920      40.7390    -999.2500    1150.5520     264.9860      62.3890      12.2420       2.5800     -37.8620
   1987.7534       5.0295       0.0100      78.9149      40.5228    -999.2500    1149.3252     259.3423      49.3570      11.9304       2.5805     -37.9369
   1987.9058       5.0290       0.0100      76.1350      40.3060    -999.2500    1148.0970     253.6930      36.3120      11.6190       2.5810     -38.0120
   1988.0582       5.0045       0.0240      74.3335      40.0988    -999.2500    1073.3091     227.2274      32.6346       9.9391       2.6104     -38.3885
   1988.2106       4.9800       0.0380      72.5300      39.8910    -999.2500     998.4370     200.7320      28.9530       8.2600       2.6400     -38.7660
   1988.3630       4.9800       0.0400      73.6843      39.7817    -999.2500     984.6196     196.5056      25.2468       8.7421       2.6151     -38.1898
   1988.5154       4.9800       0.0420      74.8400      39.6720    -999.2500     970.7850     192.2740      21.5360       9.2240       2.5900     -37.6120
   1988.6678       5.0050       0.0305      73.5709      40.2761    -999.2500     892.9849     176.1681      20.1749       9.6826       2.5990     -36.7448
   1988.8202       5.0300       0.0190      72.3000      40.8820    -999.2500     815.1400     160.0530      18.8130      10.1410       2.6080     -35.8750
   1988.9727       5.0050       0.0265      73.5346      41.7007    -999.2500     644.0129     126.3303      15.0763      10.4015       2.6240     -36.6318
   1989.1250       4.9800       0.0340      74.7700      42.5220    -999.2500     472.9030      92.6110      11.3400      10.6620       2.6400     -37.3910
   1989.2773       4.9800       0.0385      72.4250      46.6997    -999.2500     453.5367      89.7330      24.2558      10.8260       2.6290     -35.4801
   1989.4298       4.9800       0.0430      70.0800      50.8910    -999.2500     434.1700      86.8550      37.1720      10.9900       2.6180     -33.5630
   1989.5822       4.9700       0.0410      71.1139      50.6649    -999.2500     372.1862      67.7344      36.7005      10.9745       2.6085     -33.6189
   1989.7346       4.9600       0.0390      72.1480      50.4380    -999.2500     310.1930      48.6110      36.2290      10.9590       2.5990     -33.6750
   1989.8870       4.9610       0.0405      76.9473      49.0648    -999.2500     255.4840      48.6445      33.8823      10.8749       2.5736     -33.9322
   1990.0394       4.9620       0.0420      81.7480      47.6880    -999.2500     200.7600      48.6780      31.5350      10.7910       2.5480     -34.1900
   1990.1918       4.9710       0.0619      82.8438      43.4732    -999.2500     199.8117      49.0949      27.8462      10.6104       2.5390     -34.2045
   1990.3442       4.9800       0.0820      83.9400      39.2500    -999.2500     198.8630      49.5120      24.1560      10.4300       2.5300     -34.2190
   1990.4966       4.9460       0.0730      83.9015      40.2764    -999.2500     217.5511      55.2465      20.1691      11.3205       2.5499     -34.5621
   1990.6490       4.9120       0.0640      83.8630      41.3050    -999.2500     236.2490      60.9840      16.1800      12.2100       2.5700     -34.9060
   1990.8014       4.8725       0.0565      83.8375      41.9797    -999.2500     254.0102      63.1048      16.2290      12.6222       2.5555     -34.1134
   1990.9539       4.8330       0.0490      83.8120      42.6560    -999.2500     271.7830      65.2270      16.2780      13.0340       2.5410     -33.3190
   1991.1062    -999.2500       0.0470    -999.2500      38.7721    -999.2500     267.9550      65.0696      18.5481      13.3566       2.5255     -33.1986
   1991.2585    -999.2500       0.0450    -999.2500      34.8790    -999.2500     264.1240      64.9120      20.8200      13.6790       2.5100     -33.0780
   1991.4110    -999.2500       0.0505    -999.2500      31.2780    -999.2500     275.8162      62.5701      25.8922      13.7745       2.5135     -33.5384
   1991.5634    -999.2500       0.0560    -999.2500      27.6680    -999.2500     287.5190      60.2260      30.9690      13.8700       2.5170     -34.0000
   1991.7158    -999.2500       0.0495    -999.2500      25.8324    -999.2500     321.7449      63.0710      29.5172      13.6094       2.5369     -33.3933
   1991.8682    -999.2500       0.0430    -999.2500      23.9920    -999.2500     356.0060      65.9190      28.0640      13.3490       2.5570     -32.7850
   1992.0206    -999.2500       0.0530    -999.2500      25.5244    -999.2500     349.1305      67.5596      25.1862      12.7644       2.5849     -32.3461
   1992.1730    -999.2500       0.0630    -999.2500      27.0610    -999.2500     342.2470      69.2020      22.3050      12.1800       2.6130     -31.9060
   1992.3254    -999.2500       0.0525    -999.2500      28.1619    -999.2500     385.4428      82.9042      27.0090      12.4720       2.6165     -32.2650
