#------------------------------------------------------------------------------
#
#   Created by  : [OpenWorks] Log Export Utility (LEXP)
#   Created on  : 2016-05-23 11:57:14
#   Project     : CANT971
#   User        : R5K
#   Interpreter : PEP
#
#------------------------------------------------------------------------------
~VERSION INFORMATION
VERS. 2.0 : CWLS Log ASCII Standard - version 2.0
WRAP.  NO : One line per depth step
~WELL INFORMATION
#MNEMONIC   .UNIT                                           VALUE :DESCRIPTION
#------------------------------------------------------------------------------
STRT        .M                                           551.2302 :START DEPTH
STOP        .M                                          2435.9609 :STOP DEPTH
STEP        .M                                             0.1524 :STEP
NULL        .                                           -999.2500 :NULL VALUE
COMP        .                                   PEMEX EXPL & PROD :COMPANY
WELL        .                                                  76 :WELL
FLD         .                                           CANTARELL :FIELD
LOC         .                                             UNKNOWN :LOCATION
CNTY        .                                      CD. DEL CARMEN :COUNTY
STAT        .                                            CAMPECHE :STATE
CTRY        .                                              MEXICO :COUNTRY
SRVC        .                                             UNKNOWN :SERVICE COMPANY
DATE        .                                             UNKNOWN :LOG DATE
UWI         .                                          3060000416 :UNIQUE WELL ID
XCOORD      .                                       599729.570000 :SURFACE X
YCOORD      .                                      2147218.620000 :SURFACE Y
LAT         .                                           19.417934 :LATITUDE
LON         .                                          -92.050101 :LONGITUDE
ELEV        .M                                            27.8000 :SURFACE ELEV
ELEV_TYPE   .                                                  KB :ELEV TYPE
~CURVE INFORMATION
#MNEMONIC.UNIT        API CODE       : CURVE DESCRIPTION
#------------------------------------------------------------------------------
DEPTH    .M                          : Measured Depth
CAL      .inches      UNKNOWN        : CAL:UNKNOWN:rC:NONE:v0 (auto-composite)
DRHO     .UNKNOWN     UNKNOWN        : DRHO:UNKNOWN:rC:NONE:v0 (auto-composite)
DT       .us/ft       UNKNOWN        : DT:DT:rC:NONE:v0 (auto-composite)
GR       .UNKNOWN     UNKNOWN        : GR:GR-Load:rC:NONE:v0 (auto-composite)
ILD      .UNKNOWN     UNKNOWN        : ILD:ILD-Load:rC:NONE:v0 (auto-composite)
LLD      .UNKNOWN     UNKNOWN        : LLD:UNKNOWN:rC:NONE:v0 (auto-composite)
LLS      .UNKNOWN     UNKNOWN        : LLS:UNKNOWN:rC:NONE:v0 (auto-composite)
NPHI     .v/v_decimal UNKNOWN        : NPHI:NPHI:rC:NONE:v0 (auto-composite)
RHOB     .UNKNOWN     UNKNOWN        : RHOB:UNKNOWN:rC:NONE:v0 (auto-composite)
~A     DEPTH          CAL         DRHO           DT           GR          ILD          LLD          LLS         NPHI         RHOB
# ...
   1968.5502       0.0000       0.2500    -999.2500      14.2084       0.2000       0.2000       0.2000    -999.2500       1.9500
   1968.7026       0.0000       0.2500    -999.2500      13.3870       0.2000       0.2000       0.2000    -999.2500       1.9500
   1968.8550       0.0000       0.2500    -999.2500      13.8503       0.2000       0.2000       0.2000    -999.2500       1.9500
   1969.0074       0.0000       0.2500    -999.2500      14.3130       0.2000       0.2000       0.2000    -999.2500       1.9500
   1969.1598       0.0000       0.2500    -999.2500      13.7401       0.2000       0.2000       0.2000    -999.2500       1.9500
   1969.3123       0.0000       0.2500    -999.2500      13.1680       0.2000       0.2000       0.2000    -999.2500       1.9500
   1969.4646       0.0000       0.2500    -999.2500      13.5447       0.2000       0.2000       0.2000    -999.2500       1.9500
   1969.6171       0.0000       0.2500    -999.2500      13.9210       0.2000       0.2000       0.2000    -999.2500       1.9500
   1969.7694       0.0000       0.2500    -999.2500      14.4393       0.2000       0.2000       0.2000    -999.2500       1.9500
   1969.9219       0.0000       0.2500    -999.2500      14.9570       0.2000       0.2000       0.2000    -999.2500       1.9500
   1970.0742       0.0000       0.2500    -999.2500      14.6904       0.2000       0.2000       0.2000    -999.2500       1.9500
   1970.2267       0.0000       0.2500    -999.2500      14.4240       0.2000       0.2000       0.2000    -999.2500       1.9500
   1970.3790       0.0000       0.2500    -999.2500      13.6842       0.2000       0.2000       0.2000    -999.2500       1.9500
   1970.5314       0.0000       0.2500    -999.2500      12.9450       0.2000       0.2000       0.2000    -999.2500       1.9500
   1970.6838       0.0000       0.2500    -999.2500      14.0333       0.2000       0.2000       0.2000    -999.2500       1.9500
   1970.8362       0.0000       0.2500    -999.2500      15.1210       0.2000       0.2000       0.2000    -999.2500       1.9500
   1970.9886       0.0000       0.2500    -999.2500      15.9882       0.2000       0.2000       0.2000    -999.2500       1.9500
   1971.1410       0.0000       0.2500    -999.2500      16.8550       0.2000       0.2000       0.2000    -999.2500       1.9500
   1971.2935       0.0000       0.2500    -999.2500      16.6460       0.2000       0.2000       0.2000    -999.2500       1.9500
   1971.4458       0.0000       0.2500    -999.2500      16.4370       0.2000       0.2000       0.2000    -999.2500       1.9500
   1971.5983       0.0000       0.2500    -999.2500      17.0078       0.2000       0.2000       0.2000    -999.2500       1.9500
   1971.7506       0.0000       0.2500    -999.2500      17.5780       0.2000       0.2000       0.2000    -999.2500       1.9500
   1971.9031       0.0000       0.2500    -999.2500      17.3698       0.2000       0.2000       0.2000    -999.2500       1.9500
   1972.0554       0.0000       0.2500    -999.2500      17.1620       0.2000       0.2000       0.2000    -999.2500       1.9500
   1972.2078       0.0000       0.2500    -999.2500      16.5025       0.2000       0.2000       0.2000    -999.2500       1.9500
   1972.3602       0.0000       0.2500    -999.2500      15.8440       0.2000       0.2000       0.2000    -999.2500       1.9500
   1972.5126       0.0000       0.2500    -999.2500      15.8920       0.2000       0.2000       0.2000    -999.2500       1.9500
   1972.6650       0.0000       0.2500    -999.2500      15.9400       0.2000       0.2000       0.2000    -999.2500       1.9500
   1972.8174       0.0000       0.2500    -999.2500      16.4588       0.2000       0.2000       0.2000    -999.2500       1.9500
   1972.9698       0.0000       0.2500    -999.2500      16.9770       0.2000       0.2000       0.2000    -999.2500       1.9500
   1973.1222       0.0000       0.2500    -999.2500      15.8513       0.2000       0.2000       0.2000    -999.2500       1.9500
   1973.2747       0.0000       0.2500    -999.2500      14.7270       0.2000       0.2000       0.2000    -999.2500       1.9500
   1973.4270       0.0000       0.2500    -999.2500      11.6488       0.2000       0.2000       0.2000    -999.2500       1.9500
   1973.5795       0.0000       0.2500    -999.2500       8.5740       0.2000       0.2000       0.2000    -999.2500       1.9500
   1973.7318       0.0000       0.2500    -999.2500       8.7361       0.2000       0.2000       0.2000    -999.2500       1.9500
   1973.8843       0.0000       0.2500    -999.2500       8.8980       0.2000       0.2000       0.2000    -999.2500       1.9500
   1974.0366       0.0000       0.2500    -999.2500       9.9304       0.2000       0.2000       0.2000    -999.2500       1.9500
   1974.1890       0.0000       0.2500    -999.2500      10.9620       0.2000       0.2000       0.2000    -999.2500       1.9500
   1974.3414       0.0000       0.2500    -999.2500      12.3840       0.2000       0.2000       0.2000    -999.2500       1.9500
   1974.4938       0.0000       0.2500    -999.2500      13.8050       0.2000       0.2000       0.2000    -999.2500       1.9500
   1974.6462       0.0000       0.2500    -999.2500      13.7005       0.2000       0.2000       0.2000    -999.2500       1.9500
   1974.7986       0.0000       0.2500    -999.2500      13.5960       0.2000       0.2000       0.2000    -999.2500       1.9500
   1974.9510       0.0000       0.2500    -999.2500      12.7528       0.2000       0.2000       0.2000    -999.2500       1.9500
   1975.1034       0.0000       0.2500    -999.2500      11.9100       0.2000       0.2000       0.2000    -999.2500       1.9500
   1975.2559       0.0000       0.2500    -999.2500      12.1066       0.2000       0.2000       0.2000    -999.2500       1.9500
   1975.4082       0.0000       0.2500    -999.2500      12.3030       0.2000       0.2000       0.2000    -999.2500       1.9500
   1975.5607       0.0000       0.2500    -999.2500      13.1698       0.2000       0.2000       0.2000    -999.2500       1.9500
   1975.7130       0.0000       0.2500    -999.2500      14.0350       0.2000       0.2000       0.2000    -999.2500       1.9500
   1975.8655       0.0000       0.2500    -999.2500      14.0250       0.2000       0.2000       0.2000    -999.2500       1.9500
   1976.0178       0.0000       0.2500    -999.2500      14.0150       0.2000       0.2000       0.2000    -999.2500       1.9500
   1976.1702       0.0000       0.2500    -999.2500      13.2569       0.2000       0.2000       0.2000    -999.2500       1.9500
   1976.3226       0.0000       0.2500    -999.2500      12.5000       0.2000       0.2000       0.2000    -999.2500       1.9500
   1976.4750       0.0000       0.2500    -999.2500      12.5746       0.2000       0.2000       0.2000    -999.2500       1.9500
   1976.6274       0.0000       0.2500    -999.2500      12.6490       0.2000       0.2000       0.2000    -999.2500       1.9500
   1976.7798       0.0000       0.2500    -999.2500      13.0358       0.2000       0.2000       0.2000    -999.2500       1.9500
   1976.9323       0.0000       0.2500    -999.2500      13.4220       0.2000       0.2000       0.2000    -999.2500       1.9500
   1977.0846       0.0000       0.2500    -999.2500      14.1309       0.2000       0.2000       0.2000    -999.2500       1.9500
   1977.2371       0.0000       0.2500    -999.2500      14.8390       0.2000       0.2000       0.2000    -999.2500       1.9500
   1977.3894       0.0000       0.2500    -999.2500      15.6584       0.2000       0.2000       0.2000    -999.2500       1.9500
   1977.5419       0.0000       0.2500    -999.2500      16.4770       0.2000       0.2000       0.2000    -999.2500       1.9500
   1977.6942       0.0000       0.2500    -999.2500      16.4190       0.2000       0.2000       0.2000    -999.2500       1.9500
   1977.8467       0.0000       0.2500    -999.2500      16.3610       0.2000       0.2000       0.2000    -999.2500       1.9500
