#------------------------------------------------------------------------------
#
#   Created by  : [OpenWorks] Log Export Utility (LEXP)
#   Created on  : 2016-05-23 11:56:12
#   Project     : CANT971
#   User        : R5K
#   Interpreter : PEP
#
#------------------------------------------------------------------------------
~VERSION INFORMATION
VERS. 2.0 : CWLS Log ASCII Standard - version 2.0
WRAP.  NO : One line per depth step
~WELL INFORMATION
#MNEMONIC   .UNIT                                           VALUE :DESCRIPTION
#------------------------------------------------------------------------------
STRT        .M                                           365.7604 :START DEPTH
STOP        .M                                          2883.8655 :STOP DEPTH
STEP        .M                                             0.1524 :STEP
NULL        .                                           -999.2500 :NULL VALUE
COMP        .                                   PEMEX EXPL & PROD :COMPANY
WELL        .                                                  44 :WELL
FLD         .                                           CANTARELL :FIELD
LOC         .                                             UNKNOWN :LOCATION
CNTY        .                                      CD. DEL CARMEN :COUNTY
STAT        .                                            CAMPECHE :STATE
CTRY        .                                              MEXICO :COUNTRY
SRVC        .                                             UNKNOWN :SERVICE COMPANY
DATE        .                                             UNKNOWN :LOG DATE
UWI         .                                          3060000162 :UNIQUE WELL ID
XCOORD      .                                       599695.380000 :SURFACE X
YCOORD      .                                      2143038.730000 :SURFACE Y
LAT         .                                           19.380164 :LATITUDE
LON         .                                          -92.050646 :LONGITUDE
ELEV        .M                                            26.7400 :SURFACE ELEV
ELEV_TYPE   .                                                  KB :ELEV TYPE
~CURVE INFORMATION
#MNEMONIC.UNIT        API CODE       : CURVE DESCRIPTION
#------------------------------------------------------------------------------
DEPTH    .M                          : Measured Depth
CALI     .inches      UNKNOWN        : CALI:registros:rC:NONE:v0 (auto-composite)
CGR      .API         UNKNOWN        : CGR:registros:rC:NONE:v0 (auto-composite)
DRHO     .g/cm3       UNKNOWN        : DRHO:registros:rC:NONE:v0 (auto-composite)
DT       .UNKNOWN     UNKNOWN        : DT:registros:rC:NONE:v0 (auto-composite)
GR       .API         UNKNOWN        : GR:registros:rC:NONE:v0 (auto-composite)
ILD      .ohm.m       UNKNOWN        : ILD:registros:rC:NONE:v0 (auto-composite)
LLD      .ohm.m       UNKNOWN        : LLD:registros:rC:NONE:v0 (auto-composite)
LLS      .ohm.m       UNKNOWN        : LLS:registros:rC:NONE:v0 (auto-composite)
MSFL     .ohm.m       UNKNOWN        : MSFL:registros:rC:NONE:v0 (auto-composite)
NPHI     .UNKNOWN     UNKNOWN        : NPHI:registros:rC:NONE:v0 (auto-composite)
PEF      .b/elec      UNKNOWN        : PEF:registros:rC:NONE:v0 (auto-composite)
POTA     .wtpercent   UNKNOWN        : POTA:registros:rC:NONE:v0 (auto-composite)
RHOB     .g/cm3       UNKNOWN        : RHOB:registros:rC:NONE:v0 (auto-composite)
THOR     .ppm         UNKNOWN        : THOR:registros:rC:NONE:v0 (auto-composite)
URAN     .ppm         UNKNOWN        : URAN:registros:rC:NONE:v0 (auto-composite)
~A     DEPTH         CALI          CGR         DRHO           DT           GR          ILD          LLD          LLS         MSFL         NPHI          PEF         POTA         RHOB         THOR         URAN
# ...
   2261.7688       9.7504    -999.2500       0.0225      60.2030      32.3698    -999.2500     896.4410     207.8621      47.0611       0.1105    -999.2500    -999.2500       2.6192    -999.2500    -999.2500
   2261.9211       9.6360    -999.2500       0.0290      60.8120      27.6990    -999.2500    1023.5820     225.8370      37.0980       0.0988    -999.2500    -999.2500       2.6490    -999.2500    -999.2500
   2262.0735       9.5807    -999.2500       0.0426      61.8993      29.3756    -999.2500     859.2194     195.3344      32.8634       0.1052    -999.2500    -999.2500       2.6435    -999.2500    -999.2500
   2262.2261       9.5260    -999.2500       0.0560      62.9780      31.0390    -999.2500     696.1460     165.0710      28.6620       0.1140    -999.2500    -999.2500       2.6380    -999.2500    -999.2500
   2262.3784       9.5707    -999.2500       0.0962      64.0473      29.0990    -999.2500     531.6426     135.9502      18.1333       0.1185    -999.2500    -999.2500       2.6335    -999.2500    -999.2500
   2262.5308       9.6150    -999.2500       0.1360      65.1050      27.1800    -999.2500     368.9280     107.1460       7.7190       0.1214    -999.2500    -999.2500       2.6290    -999.2500    -999.2500
   2262.6831       9.6316    -999.2500       0.0797      64.0331      25.0332    -999.2500     336.6913      98.9339       8.5347       0.1210    -999.2500    -999.2500       2.6069    -999.2500    -999.2500
   2262.8357       9.6480    -999.2500       0.0240      62.9710      22.9060    -999.2500     304.7500      90.7970       9.3430       0.1192    -999.2500    -999.2500       2.5850    -999.2500    -999.2500
   2262.9880       9.4417    -999.2500       0.0386      62.1259      23.3903    -999.2500     336.5886     101.3629      13.1151       0.1139    -999.2500    -999.2500       2.6147    -999.2500    -999.2500
   2263.1404       9.2380    -999.2500       0.0530      61.2870      23.8710    -999.2500     368.1900     111.8500      16.8590       0.1095    -999.2500    -999.2500       2.6440    -999.2500    -999.2500
   2263.2927       9.2792    -999.2500       0.0500      62.7340      24.8430    -999.2500     419.0793     135.8712      15.6440       0.1130    -999.2500    -999.2500       2.6360    -999.2500    -999.2500
   2263.4451       9.3200    -999.2500       0.0470      64.1750      25.8110    -999.2500     469.7580     159.7930      14.4340       0.1189    -999.2500    -999.2500       2.6280    -999.2500    -999.2500
   2263.5977       9.2702    -999.2500       0.0349      65.8536      26.9747    -999.2500     464.4107     156.8714      16.1733       0.1283    -999.2500    -999.2500       2.6149    -999.2500    -999.2500
   2263.7500       9.2210    -999.2500       0.0230      67.5200      28.1300    -999.2500     459.1020     153.9710      17.9000       0.1377    -999.2500    -999.2500       2.6020    -999.2500    -999.2500
   2263.9023       9.1908    -999.2500       0.0165      66.7132      29.1868    -999.2500     437.4423     142.1732      19.0035       0.1435    -999.2500    -999.2500       2.5940    -999.2500    -999.2500
   2264.0547       9.1610    -999.2500       0.0100      65.9160      30.2310    -999.2500     416.0390     130.5150      20.0940       0.1484    -999.2500    -999.2500       2.5860    -999.2500    -999.2500
   2264.2073       9.1283    -999.2500       0.0140      65.0436      32.4251    -999.2500     402.1869     131.2216      20.4262       0.1518    -999.2500    -999.2500       2.5870    -999.2500    -999.2500
   2264.3596       9.0960    -999.2500       0.0180      64.1800      34.5970    -999.2500     388.4750     131.9210      20.7550       0.1542    -999.2500    -999.2500       2.5880    -999.2500    -999.2500
   2264.5120       9.0633    -999.2500       0.0155      64.1875      38.8460    -999.2500     395.8823     136.6893      35.9739       0.1525    -999.2500    -999.2500       2.5905    -999.2500    -999.2500
   2264.6643       9.0310    -999.2500       0.0130      64.1950      43.0660    -999.2500     403.2390     141.4250      51.0890       0.1493    -999.2500    -999.2500       2.5930    -999.2500    -999.2500
   2264.8169       8.9842    -999.2500       0.0140      63.0530      42.2175    -999.2500     410.3074     148.4624      45.0905       0.1429    -999.2500    -999.2500       2.5990    -999.2500    -999.2500
   2264.9692       8.9380    -999.2500       0.0150      61.9150      41.3720    -999.2500     417.3510     155.4750      39.1130       0.1372    -999.2500    -999.2500       2.6050    -999.2500    -999.2500
   2265.1216       8.9496    -999.2500       0.0165      60.6865      44.6052    -999.2500     453.7918     168.0791      35.2100       0.1373    -999.2500    -999.2500       2.6085    -999.2500    -999.2500
   2265.2739       8.9610    -999.2500       0.0180      59.4680      47.8120    -999.2500     489.9340     180.5800      31.3390       0.1378    -999.2500    -999.2500       2.6120    -999.2500    -999.2500
   2265.4263       9.0047    -999.2500       0.0245      58.6764      47.3400    -999.2500     594.1021     203.4534      36.2711       0.1339    -999.2500    -999.2500       2.6205    -999.2500    -999.2500
   2265.5789       9.0480    -999.2500       0.0310      57.8950      46.8740    -999.2500     696.9370     226.0340      41.1400       0.1270    -999.2500    -999.2500       2.6290    -999.2500    -999.2500
   2265.7312       9.0726    -999.2500       0.0355      56.4366      44.0888    -999.2500     788.2497     234.0737      62.7873       0.1098    -999.2500    -999.2500       2.6461    -999.2500    -999.2500
   2265.8835       9.0970    -999.2500       0.0400      54.9920      41.3300    -999.2500     878.6950     242.0370      84.2290       0.0915    -999.2500    -999.2500       2.6630    -999.2500    -999.2500
   2266.0359       9.1116    -999.2500       0.0320      52.3674      37.7850    -999.2500    1020.0515     240.5213      66.3691       0.0774    -999.2500    -999.2500       2.6715    -999.2500    -999.2500
   2266.1885       9.1260    -999.2500       0.0240      49.7590      34.2620    -999.2500    1160.5310     239.0150      48.6200       0.0663    -999.2500    -999.2500       2.6800    -999.2500    -999.2500
   2266.3408       9.1411    -999.2500       0.0280      49.9810      34.4715    -999.2500    1262.0828     246.2658      58.8129       0.0651    -999.2500    -999.2500       2.7082    -999.2500    -999.2500
   2266.4932       9.1560    -999.2500       0.0320      50.2020      34.6800    -999.2500    1363.1790     253.4840      68.9600       0.0657    -999.2500    -999.2500       2.7360    -999.2500    -999.2500
   2266.6455       9.1822    -999.2500       0.0350      50.5714      33.0739    -999.2500    1519.1779     284.3161      74.2284       0.0652    -999.2500    -999.2500       2.7471    -999.2500    -999.2500
   2266.7981       9.2080    -999.2500       0.0380      50.9380      31.4800    -999.2500    1673.9969     314.9150      79.4570       0.0645    -999.2500    -999.2500       2.7580    -999.2500    -999.2500
   2266.9504       9.2407    -999.2500       0.0360      50.5107      28.9285    -999.2500    1630.6549     309.0751     101.8159       0.0640    -999.2500    -999.2500       2.7454    -999.2500    -999.2500
   2267.1028       9.2730    -999.2500       0.0340      50.0880      26.4040    -999.2500    1587.7720     303.2970     123.9380       0.0633    -999.2500    -999.2500       2.7330    -999.2500    -999.2500
   2267.2551       9.2141    -999.2500       0.0239      50.3266      27.8655    -999.2500    1368.7264     268.7570     166.3343       0.0610    -999.2500    -999.2500       2.7169    -999.2500    -999.2500
   2267.4075       9.1560    -999.2500       0.0140      50.5630      29.3140    -999.2500    1151.6270     234.5240     208.3540       0.0588    -999.2500    -999.2500       2.7010    -999.2500    -999.2500
   2267.5601       9.1957    -999.2500       0.0145      50.5560      30.0938    -999.2500    1085.1361     219.6903     182.8967       0.0586    -999.2500    -999.2500       2.6904    -999.2500    -999.2500
