#------------------------------------------------------------------------------
#
#   Created by  : [OpenWorks] Log Export Utility (LEXP)
#   Created on  : 2016-05-23 11:56:14
#   Project     : CANT971
#   User        : R5K
#   Interpreter : PEP
#
#------------------------------------------------------------------------------
~VERSION INFORMATION
VERS. 2.0 : CWLS Log ASCII Standard - version 2.0
WRAP.  NO : One line per depth step
~WELL INFORMATION
#MNEMONIC   .UNIT                                           VALUE :DESCRIPTION
#------------------------------------------------------------------------------
STRT        .M                                          2395.2905 :START DEPTH
STOP        .M                                          2859.1960 :STOP DEPTH
STEP        .M                                             0.1524 :STEP
NULL        .                                           -999.2500 :NULL VALUE
COMP        .                                             UNKNOWN :COMPANY
WELL        .                                               446-V :WELL
FLD         .                                             UNKNOWN :FIELD
LOC         .                                             UNKNOWN :LOCATION
CNTY        .                                             UNKNOWN :COUNTY
STAT        .                                             UNKNOWN :STATE
CTRY        .                                             UNKNOWN :COUNTRY
SRVC        .                                             UNKNOWN :SERVICE COMPANY
DATE        .                                             UNKNOWN :LOG DATE
UWI         .                                               446-V :UNIQUE WELL ID
XCOORD      .                                       596708.730000 :SURFACE X
YCOORD      .                                      2143311.960000 :SURFACE Y
LAT         .                                           19.382780 :LATITUDE
LON         .                                          -92.079070 :LONGITUDE
ELEV        .M                                             0.0000 :SURFACE ELEV
ELEV_TYPE   .                                                  NA :ELEV TYPE
~CURVE INFORMATION
#MNEMONIC.UNIT        API CODE       : CURVE DESCRIPTION
#------------------------------------------------------------------------------
DEPTH    .M                          : Measured Depth
CALI     .inches      UNKNOWN        : CALI:litodensidad:rC:NONE:v0 (auto-composite)
CGR      .API         UNKNOWN        : CGR:Espectrometria:rC:NONE:v0 (auto-composite)
DRHO     .g/cm3       UNKNOWN        : DRHO:litodensidad:rC:NONE:v0 (auto-composite)
DT       .us/ft       UNKNOWN        : DT:sonico:rC:NONE:v0 (auto-composite)
GR       .API         UNKNOWN        : GR:GR-Load:rC:NONE:v0 (auto-composite)
GR-LWD   .API         UNKNOWN        : GR-LWD:resistivos-LWD:rC:NONE:v0 (auto-composite)
ILD-LWD  .ohm.m       UNKNOWN        : ILD-LWD:resistivos-LWD:rC:NONE:v0 (auto-composite)
ILM-LWD  .UNKNOWN     UNKNOWN        : ILM-LWD:resistivos-LWD:rC:NONE:v0 (auto-composite)
LLD      .ohm.m       UNKNOWN        : LLD:resistivos:rC:NONE:v0 (auto-composite)
LLS      .ohm.m       UNKNOWN        : LLS:resistivos:rC:NONE:v0 (auto-composite)
MSFL     .ohm.m       UNKNOWN        : MSFL:resistivos:rC:NONE:v0 (auto-composite)
NPHI     .UNKNOWN     UNKNOWN        : NPHI:porosidad:rC:NONE:v0 (auto-composite)
PEF      .UNKNOWN     UNKNOWN        : PEF:litodensidad:rC:NONE:v0 (auto-composite)
POTA     .wtpercent   UNKNOWN        : POTA:Espectrometria:rC:NONE:v0 (auto-composite)
RHOB     .g/cm3       UNKNOWN        : RHOB:litodensidad:rC:NONE:v0 (auto-composite)
THOR     .ppm         UNKNOWN        : THOR:Espectrometria:rC:NONE:v0 (auto-composite)
URAN     .ppm         UNKNOWN        : URAN:Espectrometria:rC:NONE:v0 (auto-composite)
~A     DEPTH         CALI          CGR         DRHO           DT           GR       GR-LWD      ILD-LWD      ILM-LWD          LLD          LLS         MSFL         NPHI          PEF         POTA         RHOB         THOR         URAN
# ...
   2758.0024       9.3937      19.4554       0.0524      67.4463      39.5278      32.8517      35.6896      41.5871      50.4073      49.1939       0.7316       0.1240       3.2483       0.0101       2.6594       1.5085       2.2347
   2758.1550       9.4036      19.9325       0.0488      66.5841      40.0830      33.1988      34.7329      41.0561      53.0465      51.2511       0.9440       0.1257       3.2339       0.0107       2.6650       1.4229       2.2435
   2758.3074       9.4807      21.5338       0.0448      61.1334      38.5459      33.0013      34.2239      41.1144      56.4636      52.6709       0.9315       0.1199       3.2100       0.0107       2.6820       1.8681       1.8940
   2758.4597       9.5383      22.5894       0.0419      60.2314      36.8400      32.5567      33.2726      41.7901      59.3936      54.4278       0.8099       0.1100       3.1987       0.0107       2.6863       2.1656       1.5866
   2758.6121       9.4603      24.2868       0.0411      56.6162      35.3922      30.3827      32.5566      43.8460      65.9482      58.7013       0.6401       0.0985       3.2149       0.0114       2.6902       2.3797       1.2364
   2758.7646       9.3029      25.3155       0.0453      54.2662      34.7700      29.8224      32.5642      44.7700      70.1302      61.6410       0.6736       0.1009       3.2443       0.0123       2.6979       2.3131       1.0526
   2758.9170       9.0335      26.9708       0.0552      52.8524      33.7734      28.8041      32.9004      47.4971      78.0430      67.5364       0.7909       0.0854       3.2717       0.0146       2.7206       1.8378       0.7574
   2759.0693       8.9990      29.2473       0.0599      51.7191      32.6973      27.6198      33.3465      51.0054      84.7707      73.6896       0.9117       0.0750       3.2589       0.0160       2.7331       1.9573       0.3841
   2759.2217       8.9941      29.4086       0.0633      51.0565      31.8146      27.0037      33.3903      52.5979      94.7297      82.6341       1.1658       0.0752       3.2395       0.0150       2.7437       2.4070       0.2679
   2759.3740       9.0015      28.2772       0.0631      50.6262      31.1557      26.0974      32.9673      52.8425     107.6109      94.4382       1.5662       0.0751       3.2489       0.0130       2.7487       2.8818       0.3205
   2759.5266       8.9885      24.7896       0.0572      50.4952      31.0140      25.9047      32.4281      52.4037     112.4211      99.1675       1.7363       0.0734       3.2698       0.0112       2.7450       2.5966       0.6930
   2759.6790       8.9950      18.9106       0.0474      50.1581      30.7876      27.3614      31.7012      51.3905     110.7885      98.2431       1.7016       0.0722       3.2686       0.0088       2.7375       1.8607       1.3223
   2759.8313       9.0176      17.8400       0.0437      49.1246      30.6879      28.0909      31.3522      50.8070     105.6964      93.4061       1.2698       0.0721       3.2480       0.0090       2.7392       1.4862       1.4304
   2759.9836       9.0295      16.2110       0.0444      48.9950      31.5956      29.5970      30.8938      49.9359      98.5773      87.0679       0.8508       0.0704       3.2398       0.0096       2.7500       0.7766       1.7129
   2760.1362       9.0597      16.6622       0.0490      48.6592      32.7556      30.9515      30.2450      48.6450      92.8288      82.3388       0.7785       0.0693       3.2643       0.0109       2.7669       0.4173       1.7917
   2760.2886       9.0887      17.1087       0.0532      48.8430      34.3395      31.4773      29.9493      48.0072      88.5804      79.4424       0.9218       0.0665       3.2924       0.0111       2.7829       0.4338       1.9184
   2760.4409       9.0462      18.4657       0.0520      48.9182      35.6333      31.9372      29.0605      46.1363      87.3160      79.3074       1.1083       0.0647       3.2934       0.0105       2.7834       1.0733       1.9113
   2760.5933       8.9904      21.0395       0.0478      49.1443      36.8580      30.6867      27.4237      42.3391      87.3022      80.8270       1.2632       0.0646       3.2673       0.0109       2.7752       1.6424       1.7611
   2760.7456       8.9695      22.3171       0.0445      49.2554      36.2670      29.5755      26.7348      40.7104      84.7445      80.6935       1.3295       0.0661       3.2245       0.0119       2.7654       1.6255       1.5531
   2760.8982       9.0005      23.4552       0.0449      49.3427      33.7636      27.2205      25.1190      36.6405      65.5120      67.2366       1.1566       0.0681       3.1327       0.0121       2.7585       1.8340       1.1477
   2761.0505       9.0226      20.9149       0.0484      49.3465      31.7047      26.5699      23.7372      32.9875      52.8758      55.7495       0.9029       0.0707       3.0895       0.0105       2.7602       1.7569       1.2013
   2761.2029       9.0902      18.3858       0.0513      49.3330      34.3286      27.8792      22.5767      29.8723      37.0903      38.1062       0.4247       0.0737       3.0643       0.0088       2.7586       1.7130       1.7750
   2761.3552       9.1054      20.4679       0.0492      49.1194      39.6219      31.2875      21.9129      28.0654      32.3965      31.4944       0.3605       0.0729       3.0975       0.0100       2.7488       1.8389       2.1325
   2761.5078       9.0497      32.8670       0.0484      49.0403      53.3098      35.4712      21.4643      26.8717      28.5866      27.4688       0.4387       0.0766       3.1982       0.0154       2.7301       3.2294       2.2760
   2761.6602       9.0232      38.4854       0.0544      48.6800      58.4095      42.9909      21.2562      26.4380      27.4491      26.4469       0.6378       0.0818       3.2787       0.0182       2.7253       3.7051       2.2183
   2761.8125       8.9428      40.5764       0.0661      48.1971      57.4246      42.8840      21.2253      26.6100      30.8503      31.0402       0.7150       0.0835       3.4798       0.0196       2.7314       3.7201       1.8757
   2761.9648       8.8879      36.0304       0.0659      48.1591      50.5528      37.5122      21.0202      26.5001      39.4776      48.6296       0.8775       0.0781       3.6506       0.0180       2.7410       3.0814       1.6168
   2762.1174       8.8479      27.6092       0.0599      48.0551      37.9759      29.0500      20.4282      25.4994      79.0429     103.8404       1.3098       0.0534       3.8753       0.0136       2.7715       2.4363       1.1542
   2762.2698       8.8732      23.0466       0.0607      48.0657      32.4859      24.1255      20.5145      25.6544     133.7014     152.1694       1.4326       0.0469       3.8906       0.0111       2.7984       2.1395       1.0509
   2762.4221       8.9318      18.3996       0.0606      48.0820      29.5671      23.6845      21.7094      27.6350     209.1930     194.3068       1.3309       0.0454       3.7971       0.0089       2.8148       1.6764       1.2433
   2762.5745       9.0121      14.8771       0.0567      48.2248      28.4740      23.6930      22.8415      29.8438     217.6587     173.6996       1.0693       0.0385       3.6291       0.0078       2.8175       1.1088       1.5138
   2762.7268       9.0233      13.0974       0.0556      48.4211      28.2694      24.3266      23.6962      31.6091     162.3042     140.8369       1.1510       0.0382       3.5541       0.0080       2.8134       0.5363       1.6892
   2762.8794       9.0086      11.1206       0.0613      48.7773      28.1137      25.8479      24.5436      33.8794     107.0124     101.8678       1.6709       0.0393       3.5134       0.0077       2.8169       0.0976       1.8919
   2763.0317       8.9203      13.8345       0.0630      48.9190      28.9176      27.0432      24.8557      35.4939      87.8020      82.1514       1.6978       0.0457       3.4885       0.0086       2.8143       0.5242       1.6792
   2763.1841       8.7825      19.1594       0.0595      49.1405      30.6689      27.6074      25.1035      37.3243      78.7904      70.6240       1.0694       0.0511       3.4550       0.0101       2.8107       1.4389       1.2814
