#------------------------------------------------------------------------------
#
#   Created by  : [OpenWorks] Log Export Utility (LEXP)
#   Created on  : 2016-05-23 11:51:27
#   Project     : CANT971
#   User        : R5K
#   Interpreter : PEP
#
#------------------------------------------------------------------------------
~VERSION INFORMATION
VERS. 2.0 : CWLS Log ASCII Standard - version 2.0
WRAP.  NO : One line per depth step
~WELL INFORMATION
#MNEMONIC   .UNIT                                           VALUE :DESCRIPTION
#------------------------------------------------------------------------------
STRT        .M                                           294.1315 :START DEPTH
STOP        .M                                          1758.8479 :STOP DEPTH
STEP        .M                                             0.1524 :STEP
NULL        .                                           -999.2500 :NULL VALUE
COMP        .                                   PEMEX EXPL & PROD :COMPANY
WELL        .                                                1084 :WELL
FLD         .                                           CANTARELL :FIELD
LOC         .                                             UNKNOWN :LOCATION
CNTY        .                                      CD. DEL CARMEN :COUNTY
STAT        .                                            CAMPECHE :STATE
CTRY        .                                              MEXICO :COUNTRY
SRVC        .                                             UNKNOWN :SERVICE COMPANY
DATE        .                                             UNKNOWN :LOG DATE
UWI         .                                          3060000213 :UNIQUE WELL ID
XCOORD      .                                       596992.320000 :SURFACE X
YCOORD      .                                      2148289.820000 :SURFACE Y
LAT         .                                           19.427749 :LATITUDE
LON         .                                          -92.076116 :LONGITUDE
ELEV        .M                                            27.5000 :SURFACE ELEV
ELEV_TYPE   .                                                  KB :ELEV TYPE
~CURVE INFORMATION
#MNEMONIC.UNIT        API CODE       : CURVE DESCRIPTION
#------------------------------------------------------------------------------
DEPTH    .M                          : Measured Depth
CALI     .in          UNKNOWN        : CALI:registros:rC:NONE:v0 (auto-composite)
DRHO     .g/cm3       UNKNOWN        : DRHO:registros:rC:NONE:v0 (auto-composite)
DT       .us/ft       UNKNOWN        : DT:registros:rC:NONE:v0 (auto-composite)
GR       .api         UNKNOWN        : GR:registros:rC:NONE:v0 (auto-composite)
ILD      .ohmm        UNKNOWN        : ILD:registros:rC:NONE:v0 (auto-composite)
NPHI     .v/v_decimal UNKNOWN        : NPHI:registros:rC:NONE:v0 (auto-composite)
RHOB     .g/cm3       UNKNOWN        : RHOB:registros:rC:NONE:v0 (auto-composite)
~A     DEPTH         CALI         DRHO           DT           GR          ILD         NPHI         RHOB
# ...
   1444.1418      14.5600       0.2680     112.1390      62.2170       1.5600    -999.2500       2.4600
   1444.2943      14.6590       0.2890     123.3768      62.6785       1.5615    -999.2500       2.4585
   1444.4467      14.7580       0.3100     134.5900      63.1420       1.5630    -999.2500       2.4570
   1444.5991      15.5992       0.3085     134.2917      63.4369       1.5715    -999.2500       2.4485
   1444.7515      16.4400       0.3070     133.9940      63.7330       1.5800    -999.2500       2.4400
   1444.9039      16.4185       0.3020     130.3535      65.2830       1.6000    -999.2500       2.4400
   1445.0563      16.3970       0.2970     126.7200      66.8400       1.6200    -999.2500       2.4400
   1445.2087      16.2020       0.2910     128.3972      66.5357       1.6185    -999.2500       2.4415
   1445.3611      16.0070       0.2850     130.0700      66.2300       1.6170    -999.2500       2.4430
   1445.5135      15.3985       0.2725     129.8577      66.2644       1.6120    -999.2500       2.4490
   1445.6659      14.7900       0.2600     129.6460      66.2990       1.6070    -999.2500       2.4550
   1445.8184      14.9195       0.2600     128.6364      66.9709       1.5970    -999.2500       2.4640
   1445.9707      15.0490       0.2600     127.6300      67.6460       1.5870    -999.2500       2.4730
   1446.1230      15.4795       0.2650     126.3020      69.8425       1.5635    -999.2500       2.4765
   1446.2755      15.9100       0.2700     124.9780      72.0500       1.5400    -999.2500       2.4800
   1446.4279      15.8450       0.2650     123.1463      71.7717       1.5195    -999.2500       2.4815
   1446.5803      15.7800       0.2600     121.3200      71.4920       1.4990    -999.2500       2.4830
   1446.7327      16.1001       0.2615     121.4952      70.3675       1.4760    -999.2500       2.4865
   1446.8851      16.4200       0.2630     121.6700      69.2380       1.4530    -999.2500       2.4900
   1447.0375      16.2784       0.2680     122.2633      67.7233       1.4300    -999.2500       2.4850
   1447.1899      16.1370       0.2730     122.8550      66.2030       1.4070    -999.2500       2.4800
   1447.3423      15.5742       0.2815     123.2715      64.0956       1.4005    -999.2500       2.4800
   1447.4948      15.0120       0.2900     123.6870      61.9800       1.3940    -999.2500       2.4800
   1447.6471      14.5428       0.2885     124.6146      62.1147       1.3805    -999.2500       2.4785
   1447.7996      14.0740       0.2870     125.5400      62.2500       1.3670    -999.2500       2.4770
   1447.9519      14.0220       0.2820     125.3948      61.6562       1.3435    -999.2500       2.4635
   1448.1042      13.9700       0.2770     125.2500      61.0600       1.3200    -999.2500       2.4500
   1448.2567      14.0270       0.2635     125.4953      61.1738       1.3215    -999.2500       2.4500
   1448.4091      14.0840       0.2500     125.7400      61.2880       1.3230    -999.2500       2.4500
   1448.5615      15.1072       0.2500     124.5588      61.9600       1.3315    -999.2500       2.4500
   1448.7139      16.1300       0.2500     123.3800      62.6350       1.3400    -999.2500       2.4500
   1448.8663      16.0000       0.2525     125.8709      64.4634       1.3350    -999.2500       2.4515
   1449.0187      15.8700       0.2550     128.3570      66.3000       1.3300    -999.2500       2.4530
   1449.1711      15.9700       0.2650     137.3146      66.2975       1.3300    -999.2500       2.4565
   1449.3235      16.0700       0.2750     146.2490      66.2950       1.3300    -999.2500       2.4600
   1449.4760      16.0305       0.2840     152.3745      66.2077       1.3340    -999.2500       2.4600
   1449.6283      15.9910       0.2930     158.4800      66.1200       1.3380    -999.2500       2.4600
   1449.7806      14.9305       0.2965     158.4409      65.8541       1.3590    -999.2500       2.4625
   1449.9331      13.8700       0.3000     158.4020      65.5870       1.3800    -999.2500       2.4650
   1450.0854      13.8900       0.2985     157.9113      64.7306       1.3750    -999.2500       2.4775
   1450.2379      13.9100       0.2970     157.4220      63.8700       1.3700    -999.2500       2.4900
   1450.3903      13.8830       0.2885     154.9194      64.0635       1.3715    -999.2500       2.4885
   1450.5427      13.8560       0.2800     152.4240      64.2580       1.3730    -999.2500       2.4870
   1450.6951      13.7780       0.2800     148.0810      66.2488       1.3790    -999.2500       2.4810
   1450.8475      13.7000       0.2800     143.7500      68.2500       1.3850    -999.2500       2.4750
   1450.9999      13.6350       0.2800     141.6678      68.1687       1.3965    -999.2500       2.4660
   1451.1523      13.5700       0.2800     139.5910      68.0870       1.4080    -999.2500       2.4570
   1451.3047      13.5855       0.2760     137.4238      67.7482       1.4255    -999.2500       2.4485
   1451.4572      13.6010       0.2720     135.2620      67.4080       1.4430    -999.2500       2.4400
   1451.6095      13.6560       0.2560     133.1034      67.0722       1.4695    -999.2500       2.4440
   1451.7618      13.7110       0.2400     130.9500      66.7350       1.4960    -999.2500       2.4480
   1451.9143      13.7430       0.2415     131.1647      66.6876       1.5220    -999.2500       2.4605
   1452.0667      13.7750       0.2430     131.3790      66.6400       1.5480    -999.2500       2.4730
   1452.2191      13.7825       0.2465     133.2815      66.2513       1.5630    -999.2500       2.4790
   1452.3715      13.7900       0.2500     135.1800      65.8610       1.5780    -999.2500       2.4850
   1452.5239      13.7900       0.2500     134.8026      64.7929       1.5965    -999.2500       2.5025
   1452.6763      13.7900       0.2500     134.4260      63.7200       1.6150    -999.2500       2.5200
   1452.8287      13.7900       0.2525     128.0595      64.0044       1.6490    -999.2500       2.5185
   1452.9811      13.7900       0.2550     121.7100      64.2900       1.6830    -999.2500       2.5170
   1453.1335      13.7975       0.2625     122.2359      63.9513       1.7290    -999.2500       2.5095
   1453.2859      13.8050       0.2700     122.7600      63.6110       1.7750    -999.2500       2.5020
   1453.4384      13.8365       0.2685     125.6797      62.2323       1.8564    -999.2500       2.4860
   1453.5907      13.8680       0.2670     128.5900      60.8470       1.9380    -999.2500       2.4700
   1453.7430      13.9885       0.2585     124.9694      59.4195       2.1223    -999.2500       2.4700
   1453.8955      14.1090       0.2500     121.3600      57.9850       2.3070    -999.2500       2.4700
   1454.0479      14.5210       0.2700     122.0761      56.5147       2.6098    -999.2500       2.4675
   1454.2003      14.9330       0.2900     122.7900      55.0370       2.9130    -999.2500       2.4650
   1454.3527      15.6167       0.2870     121.4816      53.4167       3.5644    -999.2500       2.4475
   1454.5051      16.3000       0.2840     120.1770      51.7880       4.2160    -999.2500       2.4300
   1454.6575      16.1394       0.2730     100.8071      50.4969       4.9588    -999.2500       2.4450
   1454.8099      15.9790       0.2620      81.4900      49.1990       5.7020    -999.2500       2.4600
   1454.9623      15.3652       0.2460      82.3271      47.9254       7.9103    -999.2500       2.4585
   1455.1147      14.7520       0.2300      83.1620      46.6460      10.1200    -999.2500       2.4570
   1455.2671      14.2708       0.2325      88.8620      46.1290       9.9746    -999.2500       2.4435
   1455.4196      13.7900       0.2350      94.5480      45.6100       9.8290    -999.2500       2.4300
   1455.5719      13.7925       0.2450     107.9988      45.6479       9.1938    -999.2500       2.4315
   1455.7242      13.7950       0.2550     121.4180      45.6860       8.5580    -999.2500       2.4330
