#------------------------------------------------------------------------------
#
#   Created by  : [OpenWorks] Log Export Utility (LEXP)
#   Created on  : 2016-05-23 11:56:43
#   Project     : CANT971
#   User        : R5K
#   Interpreter : PEP
#
#------------------------------------------------------------------------------
~VERSION INFORMATION
VERS. 2.0 : CWLS Log ASCII Standard - version 2.0
WRAP.  NO : One line per depth step
~WELL INFORMATION
#MNEMONIC   .UNIT                                           VALUE :DESCRIPTION
#------------------------------------------------------------------------------
STRT        .M                                           650.2150 :START DEPTH
STOP        .M                                          2618.6135 :STOP DEPTH
STEP        .M                                             0.1524 :STEP
NULL        .                                           -999.2500 :NULL VALUE
COMP        .                                   PEMEX EXPL & PROD :COMPANY
WELL        .                                                  4D :WELL
FLD         .                                           CANTARELL :FIELD
LOC         .                                             UNKNOWN :LOCATION
CNTY        .                                      CD. DEL CARMEN :COUNTY
STAT        .                                            CAMPECHE :STATE
CTRY        .                                              MEXICO :COUNTRY
SRVC        .                                             UNKNOWN :SERVICE COMPANY
DATE        .                                             UNKNOWN :LOG DATE
UWI         .                                          3060000662 :UNIQUE WELL ID
XCOORD      .                                       598468.500000 :SURFACE X
YCOORD      .                                      2145023.700000 :SURFACE Y
LAT         .                                           19.398162 :LATITUDE
LON         .                                          -92.062225 :LONGITUDE
ELEV        .M                                            26.5400 :SURFACE ELEV
ELEV_TYPE   .                                                  KB :ELEV TYPE
~CURVE INFORMATION
#MNEMONIC.UNIT        API CODE       : CURVE DESCRIPTION
#------------------------------------------------------------------------------
DEPTH    .M                          : Measured Depth
CAL      .inches      UNKNOWN        : CAL:UNKNOWN:rC:NONE:v0 (auto-composite)
CGR      .UNKNOWN     UNKNOWN        : CGR:UNKNOWN:rC:NONE:v0 (auto-composite)
DRHO     .UNKNOWN     UNKNOWN        : DRHO:UNKNOWN:rC:NONE:v0 (auto-composite)
DT       .us/ft       UNKNOWN        : DT:DT:rC:NONE:v0 (auto-composite)
GR       .API         UNKNOWN        : GR:UNKNOWN:rC:NONE:v0 (auto-composite)
ILD      .UNKNOWN     UNKNOWN        : ILD:UNKNOWN:rC:NONE:v0 (auto-composite)
ILM      .UNKNOWN     UNKNOWN        : ILM:UNKNOWN:rC:NONE:v0 (auto-composite)
LLD      .UNKNOWN     UNKNOWN        : LLD:UNKNOWN:rC:NONE:v0 (auto-composite)
LLS      .UNKNOWN     UNKNOWN        : LLS:UNKNOWN:rC:NONE:v0 (auto-composite)
MSFL     .UNKNOWN     UNKNOWN        : MSFL:UNKNOWN:rC:NONE:v0 (auto-composite)
NPHI     .v/v_decimal UNKNOWN        : NPHI:PETROWORKS:rC:NONE:v1 
PEF      .UNKNOWN     UNKNOWN        : PEF:UNKNOWN:rC:NONE:v0 (auto-composite)
POTA     .UNKNOWN     UNKNOWN        : POTA:UNKNOWN:rC:NONE:v0 (auto-composite)
RHOB     .UNKNOWN     UNKNOWN        : RHOB:UNKNOWN:rC:NONE:v0 (auto-composite)
THOR     .UNKNOWN     UNKNOWN        : THOR:UNKNOWN:rC:NONE:v0 (auto-composite)
URAN     .UNKNOWN     UNKNOWN        : URAN:UNKNOWN:rC:NONE:v0 (auto-composite)
~A     DEPTH          CAL          CGR         DRHO           DT           GR          ILD          ILM          LLD          LLS         MSFL         NPHI          PEF         POTA         RHOB         THOR         URAN
# ...
   2499.7415    -999.2500       4.4887    -999.2500      51.0104      15.7484    -999.2500    -999.2500       0.1792       0.0134       0.2697       0.0261    -999.2500       0.0016    -999.2500       0.4282       1.3579
   2499.8938    -999.2500       6.1246    -999.2500      51.1346      17.3281    -999.2500    -999.2500       0.1623       0.0132       0.3244       0.0261    -999.2500       0.0020    -999.2500       0.6809       1.3326
   2500.0461    -999.2500       5.5454    -999.2500      50.2405      16.4842    -999.2500    -999.2500       0.1698       0.0142       0.2274       0.0261    -999.2500       0.0020    -999.2500       0.7389       1.3011
   2500.1987    -999.2500       4.8681    -999.2500      49.6269      15.5805    -999.2500    -999.2500       0.1773       0.0151       0.1454    -999.2500    -999.2500       0.0019    -999.2500       0.7574       1.2823
   2500.3511    -999.2500       3.7146    -999.2500      50.3762      14.3930    -999.2500    -999.2500       0.1848       0.0156       0.1359    -999.2500    -999.2500       0.0014    -999.2500       0.5838       1.3248
   2500.5034    -999.2500       3.1993    -999.2500      51.3221      13.8586    -999.2500    -999.2500       0.1893       0.0159       0.1292    -999.2500    -999.2500       0.0012    -999.2500       0.4646       1.3467
   2500.6558    -999.2500       5.7672    -999.2500      53.2178      16.4450    -999.2500    -999.2500       0.1793       0.0154       0.1362    -999.2500    -999.2500       0.0022    -999.2500       0.6080       1.2693
   2500.8081    -999.2500       7.6870    -999.2500      54.6426      18.2851    -999.2500    -999.2500       0.1758       0.0147       0.1414    -999.2500    -999.2500       0.0028    -999.2500       0.7354       1.2001
   2500.9607    -999.2500       6.4560    -999.2500      53.8039      16.5379    -999.2500    -999.2500       0.2038       0.0127       0.1379    -999.2500    -999.2500       0.0018    -999.2500       0.7844       1.1716
   2501.1130    -999.2500       5.3417    -999.2500      53.1981      15.1900    -999.2500    -999.2500       0.2239       0.0113       0.1386    -999.2500    -999.2500       0.0010    -999.2500       0.8363       1.1546
   2501.2654    -999.2500       4.7915    -999.2500      53.7183      15.7738    -999.2500    -999.2500       0.2059       0.0128       0.1596    -999.2500    -999.2500       0.0010    -999.2500       0.9023       1.1931
   2501.4177    -999.2500       4.3973    -999.2500      53.9238      16.0887    -999.2500    -999.2500       0.1950       0.0143       0.1739    -999.2500    -999.2500       0.0010    -999.2500       0.9297       1.2211
   2501.5703    -999.2500       4.7630    -999.2500      52.6154      15.0804    -999.2500    -999.2500       0.2185       0.0163       0.1559    -999.2500    -999.2500       0.0010    -999.2500       0.7697       1.1981
   2501.7227    -999.2500       5.1367    -999.2500      51.4521      14.3250    -999.2500    -999.2500       0.2344       0.0177       0.1393    -999.2500    -999.2500       0.0011    -999.2500       0.6409       1.1704
   2501.8750    -999.2500       5.5499    -999.2500      50.9915      14.7663    -999.2500    -999.2500       0.2134       0.0157       0.1293    -999.2500    -999.2500       0.0016    -999.2500       0.6639       1.1198
   2502.0273    -999.2500       5.9316    -999.2500      50.7090      15.0594    -999.2500    -999.2500       0.2015       0.0143       0.1220    -999.2500    -999.2500       0.0021    -999.2500       0.6637       1.0745
   2502.1799    -999.2500       6.1620    -999.2500      51.2848      14.6471    -999.2500    -999.2500       0.2335       0.0163       0.1280    -999.2500    -999.2500       0.0026    -999.2500       0.5518       1.0540
   2502.3323    -999.2500       6.7031    -999.2500      51.9479      14.8065    -999.2500    -999.2500       0.2528       0.0177       0.1307    -999.2500    -999.2500       0.0030    -999.2500       0.5194       1.0466
   2502.4846    -999.2500       8.7494    -999.2500      53.0343      17.7044    -999.2500    -999.2500       0.2108       0.0157       0.1172    -999.2500    -999.2500       0.0030    -999.2500       0.8725       1.1026
   2502.6370    -999.2500      10.5361    -999.2500      54.0604      19.9591    -999.2500    -999.2500       0.1767       0.0141       0.1066    -999.2500    -999.2500       0.0031    -999.2500       1.1730       1.1369
   2502.7893    -999.2500      11.0724    -999.2500      54.7961      19.0785    -999.2500    -999.2500       0.1807       0.0146       0.1101    -999.2500    -999.2500       0.0036    -999.2500       1.2195       1.0664
   2502.9419    -999.2500      11.3407    -999.2500      55.3366      18.5437    -999.2500    -999.2500       0.1847       0.0151       0.1122    -999.2500    -999.2500       0.0039    -999.2500       1.2235       1.0148
   2503.0942    -999.2500      10.3093    -999.2500      54.9304      19.7049    -999.2500    -999.2500       0.1887       0.0156       0.1077    -999.2500    -999.2500       0.0034    -999.2500       1.0214       1.0543
   2503.2466    -999.2500       9.3699    -999.2500      54.7003      20.3716    -999.2500    -999.2500       0.1952       0.0163       0.1056    -999.2500    -999.2500       0.0030    -999.2500       0.8633       1.0941
   2503.3989    -999.2500       8.8741    -999.2500      55.3196      18.7053    -999.2500    -999.2500       0.2137       0.0183       0.1151    -999.2500    -999.2500       0.0030    -999.2500       0.9172       1.1356
   2503.5515    -999.2500       8.4217    -999.2500      55.8982      17.5386    -999.2500    -999.2500       0.2280       0.0199       0.1219    -999.2500    -999.2500       0.0029    -999.2500       0.9797       1.1812
   2503.7039    -999.2500       8.1801    -999.2500      56.2798      18.7426    -999.2500    -999.2500       0.2220       0.0194       0.1154    -999.2500    -999.2500       0.0024    -999.2500       1.0832       1.2467
   2503.8562    -999.2500       7.9985    -999.2500      56.2516      19.6143    -999.2500    -999.2500       0.2146       0.0187       0.1106    -999.2500    -999.2500       0.0021    -999.2500       1.1219       1.3065
   2504.0085    -999.2500       8.1065    -999.2500      54.2444      18.8816    -999.2500    -999.2500       0.2006       0.0167       0.1141    -999.2500    -999.2500       0.0026    -999.2500       0.8475       1.3385
   2504.1611    -999.2500       7.8374    -999.2500      52.7613      18.0136    -999.2500    -999.2500       0.1905       0.0153       0.1201    -999.2500    -999.2500       0.0029    -999.2500       0.5724       1.3617
   2504.3135    -999.2500       5.7366    -999.2500      53.7958      16.4884    -999.2500    -999.2500       0.1990       0.0168       0.1381    -999.2500    -999.2500       0.0024    -999.2500       0.2938       1.3422
   2504.4658    -999.2500       4.2132    -999.2500      54.5172      15.5637    -999.2500    -999.2500       0.2049       0.0179       0.1500    -999.2500    -999.2500       0.0021    -999.2500       0.0915       1.3395
   2504.6182    -999.2500       5.4802    -999.2500      53.7255      17.4454    -999.2500    -999.2500       0.1984       0.0174       0.1325    -999.2500    -999.2500       0.0026    -999.2500       0.2580       1.4179
   2504.7705    -999.2500       6.4292    -999.2500      53.2606      18.8756    -999.2500    -999.2500       0.2082       0.0155       0.1194    -999.2500    -999.2500       0.0029    -999.2500       0.4210       1.4810
   2504.9231    -999.2500       5.8325    -999.2500      54.3676      18.1835    -999.2500    -999.2500       0.2972       0.0070       0.1274    -999.2500    -999.2500       0.0024    -999.2500       0.5676       1.4695
   2505.0754    -999.2500       5.2208    -999.2500      55.1197      17.4477    -999.2500    -999.2500       0.3609       0.0000       0.1322    -999.2500    -999.2500       0.0018    -999.2500       0.7006       1.4508
   2505.2278    -999.2500       4.5366    -999.2500      54.1548      16.5036    -999.2500    -999.2500       0.3019       0.0000       0.1217    -999.2500    -999.2500       0.0008    -999.2500       0.7680       1.3968
