#------------------------------------------------------------------------------
#
#   Created by  : [OpenWorks] Log Export Utility (LEXP)
#   Created on  : 2016-05-23 11:57:09
#   Project     : CANT971
#   User        : R5K
#   Interpreter : PEP
#
#------------------------------------------------------------------------------
~VERSION INFORMATION
VERS. 2.0 : CWLS Log ASCII Standard - version 2.0
WRAP.  NO : One line per depth step
~WELL INFORMATION
#MNEMONIC   .UNIT                                           VALUE :DESCRIPTION
#------------------------------------------------------------------------------
STRT        .M                                           143.0270 :START DEPTH
STOP        .M                                          2096.0330 :STOP DEPTH
STEP        .M                                             0.1524 :STEP
NULL        .                                           -999.2500 :NULL VALUE
COMP        .                                   PEMEX EXPL & PROD :COMPANY
WELL        .                                                   7 :WELL
FLD         .                                           CANTARELL :FIELD
LOC         .                                             UNKNOWN :LOCATION
CNTY        .                                      CD. DEL CARMEN :COUNTY
STAT        .                                            CAMPECHE :STATE
CTRY        .                                              MEXICO :COUNTRY
SRVC        .                                             UNKNOWN :SERVICE COMPANY
DATE        .                                             UNKNOWN :LOG DATE
UWI         .                                            W-C-0007 :UNIQUE WELL ID
XCOORD      .                                       603360.340000 :SURFACE X
YCOORD      .                                      2145093.880000 :SURFACE Y
LAT         .                                           19.398550 :LATITUDE
LON         .                                          -92.015638 :LONGITUDE
ELEV        .M                                            27.1400 :SURFACE ELEV
ELEV_TYPE   .                                                  KB :ELEV TYPE
~CURVE INFORMATION
#MNEMONIC.UNIT        API CODE       : CURVE DESCRIPTION
#------------------------------------------------------------------------------
DEPTH    .M                          : Measured Depth
CAL      .inches      UNKNOWN        : CAL:UNKNOWN:rC:NONE:v0 (auto-composite)
DRHO     .g/cm3       UNKNOWN        : DRHO:UNKNOWN:rC:NONE:v0 (auto-composite)
DT       .us/ft       UNKNOWN        : DT:UNKNOWN:rC:NONE:v0 (auto-composite)
GR       .api         UNKNOWN        : GR:UNKNOWN:rC:NONE:v0 (auto-composite)
ILD      .ohmm        UNKNOWN        : ILD:UNKNOWN:rC:NONE:v0 (auto-composite)
NPHI     .v/v_decimal UNKNOWN        : NPHI:UNKNOWN:rC:NONE:v0 (auto-composite)
RHOB     .g/cm3       UNKNOWN        : RHOB:UNKNOWN:rC:NONE:v0 (auto-composite)
~A     DEPTH          CAL         DRHO           DT           GR          ILD         NPHI         RHOB
# ...
   1692.0206       8.5492       0.2500      50.8639       0.0000     113.7103      -0.1500       1.9500
   1692.1730       8.5356       0.2500      51.2414       0.0000     113.6729      -0.1500       1.9500
   1692.3254       8.5205       0.2500      51.6120       0.0000     113.6359      -0.1500       1.9500
   1692.4778       8.4962       0.2500      51.9421       0.0000     113.6010      -0.1500       1.9500
   1692.6302       8.4697       0.2500      52.2315       0.0000     113.5652      -0.1500       1.9500
   1692.7826       8.4187       0.2500      52.0849       0.0000     113.5205      -0.1500       1.9500
   1692.9349       8.3694       0.2500      51.9311       0.0000     113.4759      -0.1500       1.9500
   1693.0874       8.3834       0.2500      51.4978       0.0000     113.4317      -0.1500       1.9500
   1693.2397       8.3975       0.2500      51.0645       0.0000     113.3876      -0.1500       1.9500
   1693.3922       8.3844       0.2500      50.6315       0.0000     113.3354      -0.1500       1.9500
   1693.5446       8.3703       0.2500      50.1985       0.0000     113.2830      -0.1500       1.9500
   1693.6970       8.3392       0.2500      51.5333       0.0000     113.2271      -0.1500       1.9500
   1693.8494       8.3061       0.2500      53.0555       0.0000     113.1708      -0.1500       1.9500
   1694.0018       8.2736       0.2500      56.3078       0.0000     112.9863      -0.1500       1.9500
   1694.1542       8.2410       0.2500      59.8799       0.0000     112.7780      -0.1500       1.9500
   1694.3066       8.2675       0.2500      61.3590       0.0000     111.2276      -0.1500       1.9500
   1694.4590       8.3102       0.2500      62.2611       0.0000     109.3071      -0.1500       1.9500
   1694.6115       8.3202       0.2500      60.1645       0.0000     106.3057      -0.1500       1.9500
   1694.7638       8.3178       0.2500      56.9186       0.0000     102.8899      -0.1500       1.9500
   1694.9161       8.2765       0.2500      54.9052       0.0000      99.7299      -0.1500       1.9500
   1695.0686       8.2153       0.2500      53.5189       0.0000      96.7000      -0.1500       1.9500
   1695.2209       8.1846       0.2500      53.0230       0.0000      94.5518      -0.1500       1.9500
   1695.3734       8.1739       0.2500      53.1142       0.0000      92.9850      -0.1500       1.9500
   1695.5258       8.1566       0.2500      53.2570       0.0000      91.5434      -0.1500       1.9500
   1695.6782       8.1338       0.2500      53.4434       0.0000      90.2075      -0.1500       1.9500
   1695.8306       8.1250       0.2500      53.6071       0.0000      87.9689      -0.1500       1.9500
   1695.9830       8.1313       0.2500      53.7464       0.0000      84.7585      -0.1500       1.9500
   1696.1354       8.1456       0.2500      54.3077       0.0000      81.9860      -0.1500       1.9500
   1696.2878       8.1709       0.2500      55.4484       0.0000      79.8148      -0.1500       1.9500
   1696.4402       8.1863       0.2500      56.2962       0.0000      78.3121      -0.1500       1.9500
   1696.5927       8.1844       0.2500      56.6262       0.0000      77.9914      -0.1500       1.9500
   1696.7450       8.1815       0.2500      56.4979       0.0000      77.7609      -0.1500       1.9500
   1696.8973       8.1767       0.2500      55.3024       0.0000      77.7405      -0.1500       1.9500
   1697.0498       8.1701       0.2500      54.7023       0.0000      77.6276      -0.1500       1.9500
   1697.2021       8.1579       0.2500      55.9857       0.0000      77.2223      -0.1500       1.9500
   1697.3546       8.1543       0.2500      57.2862       0.0000      76.6329      -0.1500       1.9500
   1697.5070       8.1892       0.2500      58.6647       0.0000      75.2054      -0.1500       1.9500
   1697.6594       8.2196       0.2500      59.7422       0.0000      73.7460      -0.1500       1.9500
   1697.8118       8.2162       0.2500      58.5942       0.0000      72.0510      -0.1500       1.9500
   1697.9642       8.2118       0.2500      57.4518       0.0000      70.3865      -0.1500       1.9500
   1698.1166       8.1909       0.2500      56.3985       0.0000      69.2079      -0.1500       1.9500
   1698.2690       8.1700       0.2500      55.3440       0.0000      68.0280      -0.1500       1.9500
   1698.4214       8.1656       0.2500      56.2450       0.0000      68.8272      -0.1500       1.9500
   1698.5739       8.1613       0.2500      57.1470       0.0000      69.6273      -0.1500       1.9500
   1698.7262       8.1842       0.2500      58.2278       0.0000      72.0663      -0.1500       1.9500
   1698.8785       8.2090       0.2500      59.3205       0.0000      74.6137      -0.1500       1.9500
   1699.0310       8.2431       0.2500      59.0322       0.0000      77.4372      -0.1500       1.9500
   1699.1833       8.2785       0.2500      58.5516       0.0000      80.2991      -0.1500       1.9500
   1699.3358       8.3437       0.2500      58.0322       0.0000      85.4000      -0.1500       1.9500
   1699.4882       8.4156       0.2500      57.5041       0.0000      91.0001      -0.1500       1.9500
   1699.6406       8.4672       0.2500      58.5287       0.0000      97.2892      -0.1500       1.9500
   1699.7930       8.5123       0.2500      60.0503       0.0000     103.7989      -0.1500       1.9500
   1699.9454       8.4912       0.2500      60.1773       0.0000     107.5319      -0.1500       1.9500
   1700.0978       8.4412       0.2500      59.6967       0.0000     110.0555      -0.1500       1.9500
   1700.2502       8.4026       0.2500      58.7608       0.0000     111.1534      -0.1500       1.9500
   1700.4026       8.3706       0.2500      57.5647       0.0000     111.4369      -0.1500       1.9500
   1700.5551       8.3701       0.2500      56.6710       0.0000     112.9778      -0.1500       1.9500
   1700.7074       8.3929       0.2500      55.9994       0.0000     115.4432      -0.1500       1.9500
   1700.8597       8.4017       0.2500      55.0086       0.0000     117.7950      -0.1500       1.9500
   1701.0122       8.3974       0.2500      53.7174       0.0000     120.0400      -0.1500       1.9500
   1701.1646       8.3762       0.2500      52.5999       0.0000     119.8978      -0.1500       1.9500
   1701.3170       8.3350       0.2500      51.6902       0.0000     116.8990      -0.1500       1.9500
   1701.4694       8.3238       0.2500      50.8372       0.0000     114.3037      -0.1500       1.9500
   1701.6218       8.3588       0.2500      50.0707       0.0000     112.3261      -0.1500       1.9500
   1701.7742       8.3903       0.2500      49.6397       0.0000     110.9171      -0.1500       1.9500
   1701.9266       8.4150       0.2500      49.8745       0.0000     110.6366      -0.1500       1.9500
   1702.0790       8.4269       0.2500      49.8608       0.0000     109.7564      -0.1500       1.9500
   1702.2314       8.4046       0.2500      49.1885       0.0000     107.2871      -0.1500       1.9500
   1702.3838       8.3967       0.2500      48.5369       0.0000     104.3146      -0.1500       1.9500
   1702.5361       8.4418       0.2500      47.9612       0.0000      99.4926      -0.1500       1.9500
   1702.6886       8.4752       0.2500      47.5174       0.0000      95.0944      -0.1500       1.9500
   1702.8409       8.4436       0.2500      47.7998       0.0000      93.0289      -0.1500       1.9500
   1702.9934       8.4148       0.2500      48.1265       0.0000      91.3405      -0.1500       1.9500
   1703.1458       8.4129       0.2500      48.8856       0.0000      93.3394      -0.1500       1.9500
   1703.2982       8.4100       0.2500      49.6277       0.0000      95.4276      -0.1500       1.9500
   1703.4506       8.3794       0.2500      49.8621       0.0000     100.1598      -0.1500       1.9500
   1703.6030       8.3488       0.2500      50.0966       0.0000     104.8921      -0.1500       1.9500
