#------------------------------------------------------------------------------
#
#   Created by  : [OpenWorks] Log Export Utility (LEXP)
#   Created on  : 2016-05-23 11:51:57
#   Project     : CANT971
#   User        : R5K
#   Interpreter : PEP
#
#------------------------------------------------------------------------------
~VERSION INFORMATION
VERS. 2.0 : CWLS Log ASCII Standard - version 2.0
WRAP. YES : Mulitple lines per depth step
~WELL INFORMATION
#MNEMONIC   .UNIT                                           VALUE :DESCRIPTION
#------------------------------------------------------------------------------
STRT        .M                                           782.8787 :START DEPTH
STOP        .M                                          2966.0088 :STOP DEPTH
STEP        .M                                             0.1524 :STEP
NULL        .                                           -999.2500 :NULL VALUE
COMP        .                                   PEMEX EXPL & PROD :COMPANY
WELL        .                                                 178 :WELL
FLD         .                                           CANTARELL :FIELD
LOC         .                                             UNKNOWN :LOCATION
CNTY        .                                      CD. DEL CARMEN :COUNTY
STAT        .                                            CAMPECHE :STATE
CTRY        .                                              MEXICO :COUNTRY
SRVC        .                                             UNKNOWN :SERVICE COMPANY
DATE        .                                             UNKNOWN :LOG DATE
UWI         .                                          3060000702 :UNIQUE WELL ID
XCOORD      .                                       602144.590000 :SURFACE X
YCOORD      .                                      2147185.340000 :SURFACE Y
LAT         .                                           19.417512 :LATITUDE
LON         .                                          -92.027103 :LONGITUDE
ELEV        .M                                            28.1700 :SURFACE ELEV
ELEV_TYPE   .                                                  KB :ELEV TYPE
~CURVE INFORMATION
#MNEMONIC.UNIT        API CODE       : CURVE DESCRIPTION
#------------------------------------------------------------------------------
DEPTH    .M                          : Measured Depth
CALI     .inches      UNKNOWN        : CALI:registros:rC:NONE:v0 (auto-composite)
CGR      .API         UNKNOWN        : CGR:registros:rC:NONE:v0 (auto-composite)
DRHO     .g/cm3       UNKNOWN        : DRHO:registros:rC:NONE:v0 (auto-composite)
DT       .UNKNOWN     UNKNOWN        : DT:registros:rC:NONE:v0 (auto-composite)
GR       .API         UNKNOWN        : GR:registros:rC:NONE:v0 (auto-composite)
GR-LWD   .UNKNOWN     UNKNOWN        : GR-LWD:registros:rC:NONE:v0 (auto-composite)
ILD      .ohm.m       UNKNOWN        : ILD:registros:rC:NONE:v0 (auto-composite)
ILM      .ohm.m       UNKNOWN        : ILM:registros:rC:NONE:v0 (auto-composite)
LLD      .ohm.m       UNKNOWN        : LLD:registros:rC:NONE:v0 (auto-composite)
LLD-LWD  .UNKNOWN     UNKNOWN        : LLD-LWD:registros:rC:NONE:v0 (auto-composite)
LLS      .ohm.m       UNKNOWN        : LLS:registros:rC:NONE:v0 (auto-composite)
LLS-LWD  .UNKNOWN     UNKNOWN        : LLS-LWD:registros:rC:NONE:v0 (auto-composite)
MSFL     .ohm.m       UNKNOWN        : MSFL:registros:rC:NONE:v0 (auto-composite)
MSFL-LWD .UNKNOWN     UNKNOWN        : MSFL-LWD:registros:rC:NONE:v0 (auto-composite)
NPHI     .v/v_decimal UNKNOWN        : NPHI:registros:rC:NONE:v0 (auto-composite)
PEF      .b/elec      UNKNOWN        : PEF:registros:rC:NONE:v0 (auto-composite)
POTA     .wtpercent   UNKNOWN        : POTA:registros:rC:NONE:v0 (auto-composite)
RHOB     .g/cm3       UNKNOWN        : RHOB:registros:rC:NONE:v0 (auto-composite)
THOR     .ppm         UNKNOWN        : THOR:registros:rC:NONE:v0 (auto-composite)
URAN     .ppm         UNKNOWN        : URAN:registros:rC:NONE:v0 (auto-composite)
~A
# ...
   1653.5399
       0.0000      10.4539      -1.4272      55.8435      32.5468    -999.2500
       3.2077       3.6225    -999.2500    -999.2500    -999.2500    -999.2500
    -999.2500    -999.2500       0.2734      18.5804       0.0037       1.8526
       1.6797       1.0433
   1653.6924
       0.0000       9.7107      -1.3683      55.8495      35.0133    -999.2500
       2.9513       3.3404    -999.2500    -999.2500    -999.2500    -999.2500
    -999.2500    -999.2500       0.2740      17.2998       0.0036       2.0823
       1.5034       1.0963
   1653.8447
       0.0000       9.0551      -1.3132      55.8544      34.5336    -999.2500
       2.7670       3.0771    -999.2500    -999.2500    -999.2500    -999.2500
    -999.2500    -999.2500       0.2680      16.2252       0.0036       2.2969
       1.3385       1.1459
   1653.9971
       0.0000       9.4152      -1.3032      55.8469      35.4839    -999.2500
       2.6715       2.9121    -999.2500    -999.2500    -999.2500    -999.2500
    -999.2500    -999.2500       0.2578      17.5278       0.0038       2.3334
       1.3075       1.1569
   1654.1495
       0.0000       9.8055      -1.2936      55.8373      40.0694    -999.2500
       2.6005       2.8424    -999.2500    -999.2500    -999.2500    -999.2500
    -999.2500    -999.2500       0.2508      18.6286       0.0040       2.3662
       1.2857       1.1616
   1654.3019
       0.0000      10.5302      -1.2886      55.8038      43.8449    -999.2500
       2.5513       2.8669    -999.2500    -999.2500    -999.2500    -999.2500
    -999.2500    -999.2500       0.2529      17.3980       0.0043       2.3562
       1.3691       1.0947
   1654.4543
       0.0000      11.2465      -1.2835      55.7706      43.6048    -999.2500
       2.5979       3.0149    -999.2500    -999.2500    -999.2500    -999.2500
    -999.2500    -999.2500       0.2582      16.1619       0.0047       2.3483
       1.4523       1.0314
   1654.6067
       0.0000      11.8483      -1.2775      55.7406      41.3440    -999.2500
       2.7906       3.3486    -999.2500    -999.2500    -999.2500    -999.2500
    -999.2500    -999.2500       0.2632      14.8960       0.0048       2.3638
       1.5308       1.0119
   1654.7592
       0.0000      12.4658      -1.2757      55.7136      40.0667    -999.2500
       3.1165       3.9598    -999.2500    -999.2500    -999.2500    -999.2500
    -999.2500    -999.2500       0.2769      13.8998       0.0050       2.3729
       1.6064       0.9934
   1654.9115
       0.0000      13.2448      -1.3212      55.7206      38.9546    -999.2500
       3.5241       4.9184    -999.2500    -999.2500    -999.2500    -999.2500
    -999.2500    -999.2500       0.3084      15.9931       0.0051       2.3095
       1.6484       0.9859
   1655.0640
       0.0000      14.0007      -1.3642      55.7277      35.5405    -999.2500
       3.9640       6.1507    -999.2500    -999.2500    -999.2500    -999.2500
    -999.2500    -999.2500       0.3412      18.0061       0.0051       2.2482
       1.6889       0.9759
   1655.2163
       0.0000      14.4689      -1.3787      55.7362      30.1080    -999.2500
       4.3590       7.2097    -999.2500    -999.2500    -999.2500    -999.2500
    -999.2500    -999.2500       0.3643      19.0755       0.0053       2.2137
       1.7119       0.9368
   1655.3688
       0.0000      14.8526      -1.3891      55.7443      25.6210    -999.2500
       4.4689       7.2548    -999.2500    -999.2500    -999.2500    -999.2500
    -999.2500    -999.2500       0.3729      20.1172       0.0055       2.1873
       1.7262       0.8977
   1655.5211
       0.0000      14.2640      -1.3525      55.7483      20.8796    -999.2500
       4.1044       6.0984    -999.2500    -999.2500    -999.2500    -999.2500
    -999.2500    -999.2500       0.3585      20.8277       0.0056       2.2532
       1.6423       0.8572
   1655.6736
       0.0000      13.5663      -1.3168      55.7543      19.5666    -999.2500
       3.5142       4.6594    -999.2500    -999.2500    -999.2500    -999.2500
    -999.2500    -999.2500       0.3311      21.4096       0.0057       2.3189
       1.5436       0.8232
   1655.8259
       0.0000      11.6307      -1.2898      55.7828      17.6726    -999.2500
       2.9926       3.5917    -999.2500    -999.2500    -999.2500    -999.2500
    -999.2500    -999.2500       0.2927      20.5098       0.0052       2.3804
       1.2773       0.8627
   1655.9783
       0.0000       9.7563      -1.2648      55.8096      15.8316    -999.2500
       2.6191       2.9393    -999.2500    -999.2500    -999.2500    -999.2500
    -999.2500    -999.2500       0.2519      19.5502       0.0047       2.4403
       1.0224       0.9020
   1656.1307
       0.0000       8.6157      -1.2618      55.8166      14.6550    -999.2500
       2.3748       2.5613    -999.2500    -999.2500    -999.2500    -999.2500
    -999.2500    -999.2500       0.2138      17.9224       0.0044       2.4813
       0.9030       0.9395
   1656.2831
       0.0000       7.6068      -1.2617      55.8212      13.6260    -999.2500
       2.2163       2.3414    -999.2500    -999.2500    -999.2500    -999.2500
    -999.2500    -999.2500       0.1920      16.4116       0.0041       2.5159
       0.7913       0.9744
   1656.4355
       0.0000       8.1279      -1.2947      55.7982      14.2945    -999.2500
       2.1060       2.2228    -999.2500    -999.2500    -999.2500    -999.2500
    -999.2500    -999.2500       0.2019      16.2702       0.0044       2.4774
       0.7698       0.9794
   1656.5879
       0.0000       8.7693      -1.3261      55.7774      15.0857    -999.2500
       2.0321       2.1804    -999.2500    -999.2500    -999.2500    -999.2500
    -999.2500    -999.2500       0.2279      16.3026       0.0046       2.4394
       0.7602       0.9810
   1656.7404
       0.0000      10.7796      -1.3401      55.7829      17.2921    -999.2500
       1.9870       2.1846    -999.2500    -999.2500    -999.2500    -999.2500
    -999.2500    -999.2500       0.2649      18.3094       0.0053       2.4074
       0.8866       0.9446
   1656.8927
       0.0000      12.7143      -1.3506      55.7859      19.4389    -999.2500
       1.9598       2.1968    -999.2500    -999.2500    -999.2500    -999.2500
    -999.2500    -999.2500       0.3042      20.0700       0.0059       2.3786
       1.0143       0.9106
   1657.0452
       0.0000      13.7404      -1.3206      55.7594      20.8278    -999.2500
       1.9506       2.1941    -999.2500    -999.2500    -999.2500    -999.2500
    -999.2500    -999.2500       0.3406      18.9955       0.0060       2.3861
       1.1536       0.9056
   1657.1975
       0.0000      14.6627      -1.2935      55.7340      22.0965    -999.2500
       1.9621       2.1872    -999.2500    -999.2500    -999.2500    -999.2500
    -999.2500    -999.2500       0.3640      17.9165       0.0060       2.3929
       1.2915       0.9035
   1657.3500
       0.0000      14.3745      -1.3000      55.7215      21.8881    -999.2500
       2.0063       2.2131    -999.2500    -999.2500    -999.2500    -999.2500
    -999.2500    -999.2500       0.3618      16.8106       0.0057       2.3914
       1.4089       0.9345
   1657.5023
       0.0000      14.1132      -1.3058      55.7109      21.7059    -999.2500
       2.1175       2.3114    -999.2500    -999.2500    -999.2500    -999.2500
    -999.2500    -999.2500       0.3518      15.8740       0.0054       2.3904
       1.5199       0.9633
   1657.6547
       0.0000      14.1657      -1.3033      55.7219      21.8316    -999.2500
       2.2953       2.5038    -999.2500    -999.2500    -999.2500    -999.2500
    -999.2500    -999.2500       0.3431      16.8879       0.0053       2.3949
       1.5559       0.9673
   1657.8071
       0.0000      14.2064      -1.3020      55.7326      21.9224    -999.2500
       2.4639       2.8206    -999.2500    -999.2500    -999.2500    -999.2500
    -999.2500    -999.2500       0.3360      17.8786       0.0052       2.3980
       1.5817       0.9700
