#------------------------------------------------------------------------------
#
#   Created by  : [OpenWorks] Log Export Utility (LEXP)
#   Created on  : 2016-05-23 11:52:56
#   Project     : CANT971
#   User        : R5K
#   Interpreter : PEP
#
#------------------------------------------------------------------------------
~VERSION INFORMATION
VERS. 2.0 : CWLS Log ASCII Standard - version 2.0
WRAP.  NO : One line per depth step
~WELL INFORMATION
#MNEMONIC   .UNIT                                           VALUE :DESCRIPTION
#------------------------------------------------------------------------------
STRT        .M                                           340.6189 :START DEPTH
STOP        .M                                          3243.0769 :STOP DEPTH
STEP        .M                                             0.1524 :STEP
NULL        .                                           -999.2500 :NULL VALUE
COMP        .                                   PEMEX EXPL & PROD :COMPANY
WELL        .                                                2098 :WELL
FLD         .                                           CANTARELL :FIELD
LOC         .                                             UNKNOWN :LOCATION
CNTY        .                                      CD. DEL CARMEN :COUNTY
STAT        .                                            CAMPECHE :STATE
CTRY        .                                              MEXICO :COUNTRY
SRVC        .                                             UNKNOWN :SERVICE COMPANY
DATE        .                                             UNKNOWN :LOG DATE
UWI         .                                          3060000229 :UNIQUE WELL ID
XCOORD      .                                       599692.800000 :SURFACE X
YCOORD      .                                      2143031.510000 :SURFACE Y
LAT         .                                           19.380099 :LATITUDE
LON         .                                          -92.050671 :LONGITUDE
ELEV        .M                                            26.7400 :SURFACE ELEV
ELEV_TYPE   .                                                  KB :ELEV TYPE
~CURVE INFORMATION
#MNEMONIC.UNIT        API CODE       : CURVE DESCRIPTION
#------------------------------------------------------------------------------
DEPTH    .M                          : Measured Depth
CALI     .inches      UNKNOWN        : CALI:litodensidad:rC:NONE:v0 (auto-composite)
CGR      .API         UNKNOWN        : CGR:Espectrometria:rC:NONE:v0 (auto-composite)
DRHO     .g/cm3       UNKNOWN        : DRHO:litodensidad:rC:NONE:v0 (auto-composite)
DT       .us/ft       UNKNOWN        : DT:DT-Load:rC:NONE:v0 (auto-composite)
GR       .API         UNKNOWN        : GR:GR-load:rC:NONE:v0 (auto-composite)
ILD      .UNKNOWN     UNKNOWN        : ILD:resistivos:rC:NONE:v0 (auto-composite)
LLD      .ohm.m       UNKNOWN        : LLD:resistivos:rC:NONE:v0 (auto-composite)
LLS      .UNKNOWN     UNKNOWN        : LLS:resistivos:rC:NONE:v0 (auto-composite)
MSFL     .UNKNOWN     UNKNOWN        : MSFL:resistivos:rC:NONE:v0 (auto-composite)
NPHI     .v/v_decimal UNKNOWN        : NPHI:porosidad:rC:NONE:v0 (auto-composite)
PEF      .UNKNOWN     UNKNOWN        : PEF:litodensidad:rC:NONE:v0 (auto-composite)
POTA     .UNKNOWN     UNKNOWN        : POTA:Espectrometria:rC:NONE:v0 (auto-composite)
RHOB     .UNKNOWN     UNKNOWN        : RHOB:litodensidad:rC:NONE:v0 (auto-composite)
THOR     .ppm         UNKNOWN        : THOR:Espectrometria:rC:NONE:v0 (auto-composite)
URAN     .ppm         UNKNOWN        : URAN:Espectrometria:rC:NONE:v0 (auto-composite)
~A     DEPTH         CALI          CGR         DRHO           DT           GR          ILD          LLD          LLS         MSFL         NPHI          PEF         POTA         RHOB         THOR         URAN
# ...
   3003.3516       6.3239      10.7837       0.0052      52.6062      18.0309    -999.2500      87.1822     143.9127      80.9813       0.0695       3.5831       0.0043       2.5950       0.4470       0.7185
   3003.5042       6.3139      11.0187       0.0104      52.8174      17.7146    -999.2500      45.5208     128.4023     139.7011       0.0719       3.4050       0.0047       2.5844       0.3387       0.6639
   3003.6565       6.3284       9.7533       0.0137      52.6231      15.5092    -999.2500      94.9441     120.6949      76.6407       0.0692       3.4467       0.0048       2.5973       0.0696       0.5707
   3003.8088       6.2862      11.1243       0.0161      53.9295      18.6277    -999.2500      94.5133     108.5593      69.4538       0.0463       4.0482       0.0051       2.6333       0.2253       0.7439
   3003.9612       6.2747      11.1601       0.0191      51.9673      19.4360    -999.2500     124.3495     140.4951      53.2047       0.0238       4.8357       0.0048       2.6863       0.3180       0.8205
   3004.1138       6.2712      10.7328       0.0101      51.7594      19.0173    -999.2500     154.9567     177.7057     113.5502       0.0115       5.2053       0.0046       2.6901       0.3435       0.8214
   3004.2661       6.2471       8.5667       0.0000      50.3413      15.7923    -999.2500     183.4206     210.3842      77.5362       0.0127       5.1177       0.0036       2.6685       0.3061       0.7164
   3004.4185       6.2738       8.0265      -0.0050      50.8353      14.8775    -999.2500     202.4531     231.7837     124.0335       0.0145       5.0684       0.0037       2.6421       0.1585       0.6793
   3004.5708       6.3018       7.7618      -0.0069      51.7460      14.8591    -999.2500     218.6846     252.2960     136.0920       0.0166       4.8599       0.0035       2.6264       0.1897       0.7037
   3004.7231       6.3012       6.3961      -0.0089      50.1330      13.5623    -999.2500     151.2871     175.1006      93.8964       0.0147       5.0419       0.0026       2.6220       0.2368       0.7105
   3004.8757       6.3013       5.9504      -0.0057      48.6257      13.5912    -999.2500     112.4729     129.2692     118.0537       0.0127       4.9658       0.0025       2.6367       0.2065       0.7576
   3005.0281       6.3020       7.4255      -0.0017      49.1618      16.8035    -999.2500     106.3874     120.7909      39.8851       0.0100       5.0016       0.0025       2.6519       0.5064       0.9298
   3005.1804       6.3054       6.7835       0.0012      49.3717      16.6717    -999.2500     105.9587     119.5554      63.0149       0.0088       5.1530       0.0018       2.6652       0.6587       0.9804
   3005.3328       6.3036       5.7239       0.0044      49.7923      14.9692    -999.2500     106.2393     119.4302      64.3265       0.0077       5.1067       0.0017       2.6790       0.4830       0.9166
   3005.4854       6.2663       5.6679       0.0084      49.4596      14.0236    -999.2500     124.2235     138.0656      61.3873       0.0077       5.2584       0.0019       2.6898       0.3808       0.8284
   3005.6377       6.2458       6.2496       0.0113      49.2130      14.3067    -999.2500     176.5689     202.7571      81.6169       0.0087       4.9312       0.0020       2.6947       0.4701       0.7988
   3005.7900       6.2477       4.9222       0.0135      48.1574      10.8189    -999.2500     225.8365     261.5118     219.5172       0.0097       5.1091       0.0017       2.6891       0.3092       0.5846
   3005.9424       6.2433       5.3713       0.0159      48.9233      10.0188    -999.2500     222.6711     256.8222     202.4246       0.0110       5.0113       0.0020       2.6880       0.2935       0.4608
   3006.0950       6.2410       6.3302       0.0235      49.3930      11.1334    -999.2500     220.4119     255.1735     322.9193       0.0119       5.2335       0.0017       2.6891       0.6154       0.4762
   3006.2473       6.2351       7.0241       0.0279      52.1100      11.8171    -999.2500     220.5891     254.7504     345.7896       0.0130       5.1664       0.0014       2.6938       0.8787       0.4752
   3006.3997       6.2358       5.7462       0.0267      52.6901      10.1071    -999.2500     185.7708     216.9767     191.4081       0.0140       5.1675       0.0015       2.6853       0.5613       0.4324
   3006.5520       6.2429       7.4561       0.0237      53.3075      12.8000    -999.2500     135.3760     158.0688     103.4030       0.0153       5.1824       0.0019       2.6763       0.7411       0.5298
   3006.7043       6.2358      10.2254       0.0252      53.2355      16.1145    -999.2500     114.4426     134.0933     135.0818       0.0159       5.0307       0.0020       2.6724       1.2856       0.5839
   3006.8569       6.2099       9.1655       0.0212      52.4494      12.5056    -999.2500     107.4634     125.9320     109.7676       0.0166       5.0200       0.0017       2.6698       1.1741       0.3312
   3007.0093       6.2155      10.7097       0.0217      50.3416      15.1536    -999.2500     106.3223     124.7207     191.5759       0.0159       5.0543       0.0025       2.6811       1.1685       0.4406
   3007.1616       6.2079      12.9700       0.0214      50.0385      18.9636    -999.2500     106.0522     124.2516     191.6065       0.0144       4.9839       0.0035       2.6882       1.2306       0.5942
   3007.3140       6.2071      11.5174       0.0169      50.1653      16.8746    -999.2500     112.2147     131.8177     127.8152       0.0116       5.0978       0.0034       2.6871       0.9730       0.5312
   3007.4666       6.2070      10.5630       0.0131      50.1485      16.5042    -999.2500     122.0690     142.8766     127.2667       0.0092       5.0326       0.0031       2.6868       0.8962       0.5890
   3007.6189       6.2069      10.1639       0.0132      49.9023      16.0630    -999.2500     143.0778     167.0006     759.2531       0.0080       5.4660       0.0031       2.6909       0.8110       0.5849
   3007.7712       6.2101      10.9238       0.0128      50.6507      17.9522    -999.2500     157.5185     184.3113     263.8893       0.0081       5.6457       0.0031       2.6982       0.9840       0.6969
   3007.9236       6.2162       9.5222       0.0125      50.5826      16.3437    -999.2500     174.4209     202.3118     511.4393       0.0083       5.5351       0.0025       2.6842       0.9295       0.6763
   3008.0762       6.2286       8.7679       0.0183      49.5431      13.4537    -999.2500     212.0540     241.8889    2000.0000       0.0086       5.2812       0.0035       2.6801       0.3873       0.4646
   3008.2285       6.2354       9.5457       0.0202      49.8125      14.4064    -999.2500     246.8322     281.0534     212.3000       0.0093       5.0812       0.0036       2.6678       0.4950       0.4819
   3008.3809       6.2347       6.3777       0.0270      49.4662      10.6735    -999.2500     219.2807     251.4429     174.0827       0.0101       5.0581       0.0020       2.6824       0.5009       0.4259
   3008.5332       6.2628       5.2137       0.0363      49.7211       8.7674    -999.2500     193.1591     221.2669     235.8083       0.0114       5.1567       0.0018       2.6943       0.3236       0.3523
   3008.6855       6.2910       6.2683       0.0393      49.9826      10.1762    -999.2500     191.8011     217.5054     101.1410       0.0123       5.2701       0.0023       2.7050       0.3395       0.3875
   3008.8381       6.3059       6.0965       0.0285      50.7683       6.1341    -999.2500     233.9261     263.2411     399.6357       0.0133       5.3284       0.0003       2.6797       1.1201       0.0037
   3008.9905       6.3324       2.2237       0.0249      50.2651       4.1170    -999.2500     336.6060     378.6973     958.2432       0.0137       5.4735       0.0001       2.6696       0.4026       0.1877
   3009.1428       6.3358       3.9414       0.0210      51.0629       5.8697    -999.2500     406.4671     462.2179    2000.0000       0.0139       5.4183       0.0014       2.6572       0.2277       0.1912
