#------------------------------------------------------------------------------
#
#   Created by  : [OpenWorks] Log Export Utility (LEXP)
#   Created on  : 2016-05-23 11:56:43
#   Project     : CANT971
#   User        : R5K
#   Interpreter : PEP
#
#------------------------------------------------------------------------------
~VERSION INFORMATION
VERS. 2.0 : CWLS Log ASCII Standard - version 2.0
WRAP.  NO : One line per depth step
~WELL INFORMATION
#MNEMONIC   .UNIT                                           VALUE :DESCRIPTION
#------------------------------------------------------------------------------
STRT        .M                                           650.2150 :START DEPTH
STOP        .M                                          2618.6135 :STOP DEPTH
STEP        .M                                             0.1524 :STEP
NULL        .                                           -999.2500 :NULL VALUE
COMP        .                                   PEMEX EXPL & PROD :COMPANY
WELL        .                                                  4D :WELL
FLD         .                                           CANTARELL :FIELD
LOC         .                                             UNKNOWN :LOCATION
CNTY        .                                      CD. DEL CARMEN :COUNTY
STAT        .                                            CAMPECHE :STATE
CTRY        .                                              MEXICO :COUNTRY
SRVC        .                                             UNKNOWN :SERVICE COMPANY
DATE        .                                             UNKNOWN :LOG DATE
UWI         .                                          3060000662 :UNIQUE WELL ID
XCOORD      .                                       598468.500000 :SURFACE X
YCOORD      .                                      2145023.700000 :SURFACE Y
LAT         .                                           19.398162 :LATITUDE
LON         .                                          -92.062225 :LONGITUDE
ELEV        .M                                            26.5400 :SURFACE ELEV
ELEV_TYPE   .                                                  KB :ELEV TYPE
~CURVE INFORMATION
#MNEMONIC.UNIT        API CODE       : CURVE DESCRIPTION
#------------------------------------------------------------------------------
DEPTH    .M                          : Measured Depth
CAL      .inches      UNKNOWN        : CAL:UNKNOWN:rC:NONE:v0 (auto-composite)
CGR      .UNKNOWN     UNKNOWN        : CGR:UNKNOWN:rC:NONE:v0 (auto-composite)
DRHO     .UNKNOWN     UNKNOWN        : DRHO:UNKNOWN:rC:NONE:v0 (auto-composite)
DT       .us/ft       UNKNOWN        : DT:DT:rC:NONE:v0 (auto-composite)
GR       .API         UNKNOWN        : GR:UNKNOWN:rC:NONE:v0 (auto-composite)
ILD      .UNKNOWN     UNKNOWN        : ILD:UNKNOWN:rC:NONE:v0 (auto-composite)
ILM      .UNKNOWN     UNKNOWN        : ILM:UNKNOWN:rC:NONE:v0 (auto-composite)
LLD      .UNKNOWN     UNKNOWN        : LLD:UNKNOWN:rC:NONE:v0 (auto-composite)
LLS      .UNKNOWN     UNKNOWN        : LLS:UNKNOWN:rC:NONE:v0 (auto-composite)
MSFL     .UNKNOWN     UNKNOWN        : MSFL:UNKNOWN:rC:NONE:v0 (auto-composite)
NPHI     .v/v_decimal UNKNOWN        : NPHI:PETROWORKS:rC:NONE:v1 
PEF      .UNKNOWN     UNKNOWN        : PEF:UNKNOWN:rC:NONE:v0 (auto-composite)
POTA     .UNKNOWN     UNKNOWN        : POTA:UNKNOWN:rC:NONE:v0 (auto-composite)
RHOB     .UNKNOWN     UNKNOWN        : RHOB:UNKNOWN:rC:NONE:v0 (auto-composite)
THOR     .UNKNOWN     UNKNOWN        : THOR:UNKNOWN:rC:NONE:v0 (auto-composite)
URAN     .UNKNOWN     UNKNOWN        : URAN:UNKNOWN:rC:NONE:v0 (auto-composite)
~A     DEPTH          CAL          CGR         DRHO           DT           GR          ILD          ILM          LLD          LLS         MSFL         NPHI          PEF         POTA         RHOB         THOR         URAN
# ...
   2606.8787       6.5033      21.7002       0.0197      56.9460      37.9242    -999.2500    -999.2500      87.5249      74.9840      31.7254       0.0711       3.5781       0.0060       2.7694       2.7364       1.9394
   2607.0310       6.5743      20.9584       0.0122      56.9460      37.1226    -999.2500    -999.2500      91.1212      74.9840     158.1945       0.0776       3.5496       0.0060       2.7599       2.6564       1.9889
   2607.1833       6.6292      21.1271       0.0098      56.9460      37.4054    -999.2500    -999.2500      94.1050      74.9840     240.8547       0.0814       3.5287       0.0064       2.7424       2.6034       2.0375
   2607.3359       6.6072      25.7306       0.0318      56.9460      42.8541    -999.2500    -999.2500      94.1050      74.9840     110.1016       0.0795       3.5442       0.0089       2.6869       2.6824       2.0815
   2607.4883       6.5778      30.3761       0.0578      56.9460      48.5343    -999.2500    -999.2500      94.1050      74.9840       1.6987       0.0804       3.5696       0.0113       2.6421       2.8254       2.1651
   2607.6406       6.5127      35.2274       0.1028      56.9460      55.3239    -999.2500    -999.2500      94.1050      74.9840       2.8416       0.0940       3.6426       0.0128       2.6486       3.2821       2.4432
   2607.7930       6.4808      37.9792       0.1440      56.9460      59.5137    -999.2500    -999.2500      94.1050      74.9840       3.5597       0.1044       3.6674       0.0136       2.6667       3.5198       2.6458
   2607.9453       6.6062      30.4950       0.1670      56.9460      51.0274    -999.2500    -999.2500      94.1050      74.9840       2.2062       0.1037       3.4620       0.0111       2.7402       2.6902       2.4804
   2608.0979       6.6920      24.1934       0.1799      56.9460      43.8097    -999.2500    -999.2500      94.1050      74.9840       3.5786       0.1066       3.2871       0.0091       2.7980       1.9852       2.3331
   2608.2502       6.5874      23.6937       0.1444      56.9460      42.8160    -999.2500    -999.2500      94.1050      74.9840      18.3231       0.1207       3.2586       0.0096       2.7805       1.8922       2.2746
   2608.4026       6.5150      23.4353       0.1086      56.9460      41.7542    -999.2500    -999.2500      94.1050      74.9840      28.6495       0.1336       3.2419       0.0101       2.7631       1.7575       2.2009
   2608.5549       6.5960      24.3544       0.0716      56.9460      40.3713    -999.2500    -999.2500      94.1050      74.9840      17.4153       0.1311       3.2819       0.0106       2.7461       1.4197       2.0535
   2608.7075       6.6575      26.3441       0.0394      56.9460      41.0801    -999.2500    -999.2500      94.1050      74.9840       7.7740       0.1265       3.3039       0.0113       2.7245       1.3309       1.9782
   2608.8599       6.6255      33.5902       0.0304      56.9460      51.7179    -999.2500    -999.2500      94.1050      74.9840       5.9539       0.1179       3.2394       0.0133       2.6810       2.4648       2.2573
   2609.0122       6.6048      39.8547       0.0279      56.9460      59.1026    -999.2500    -999.2500      94.1050      74.9840       4.3356       0.1092       3.2122       0.0147       2.6580       3.4480       2.4346
   2609.1646       6.6383      41.3241       0.0564      56.9460      50.7757    -999.2500    -999.2500      94.1050      74.9840       3.7039       0.1047       3.3632       0.0132       2.7330       3.6954       2.1148
   2609.3171       6.6683      41.3420       0.0789      56.9460      44.6090    -999.2500    -999.2500      94.1050      74.9840       4.3777       0.1016       3.4604       0.0122       2.7908       3.7264       1.9021
   2609.4695       6.6813      34.2269       0.0724      56.9460      48.9390    -999.2500    -999.2500      94.1050      74.9840      11.4673       0.1010       3.3014       0.0132       2.7668       2.6935       2.2162
   2609.6218       6.6750      27.4888       0.0699      56.9460      51.5062    -999.2500    -999.2500      94.1050      74.9840      16.1237       0.1010       3.1806       0.0136       2.7436       1.7649       2.4952
   2609.7742       6.5764      22.5939       0.0864      56.9460      45.8326    -999.2500    -999.2500      94.1050      74.9840       8.8849       0.1010       3.2422       0.0111       2.7241       1.3461       2.6021
   2609.9265       6.5146      17.7710       0.1017      56.9460      40.0449    -999.2500    -999.2500      94.1050      74.9840       3.6603       0.1010       3.2875       0.0086       2.7168       0.9760       2.6535
   2610.0791       6.6276      13.3024       0.1117      56.9460      33.7202    -999.2500    -999.2500      94.1050      74.9840       8.3440       0.1010       3.2560       0.0061       2.7672       0.8460       2.4314
   2610.2314       6.7288      10.2729       0.1139      56.9460      29.3991    -999.2500    -999.2500      94.1050      74.9840      11.2689       0.1010       3.2219       0.0043       2.8005       0.8055       2.2724
   2610.3838       6.7738      14.2854       0.0783      56.9460      34.6628    -999.2500    -999.2500      94.1050      74.9840       5.5873       0.1010       3.1749       0.0058       2.7515       1.2031       2.4219
   2610.5361       6.7897      17.7365       0.0496      56.9460      39.2034    -999.2500    -999.2500      94.1050      74.9840       2.3797       0.1010       3.1675       0.0070       2.7134       1.5488       2.5529
   2610.6887       6.6673      18.4552       0.0531      56.9460      40.2634    -999.2500    -999.2500      94.1050      74.9840      11.2143       0.1010       3.3489       0.0070       2.7274       1.6412       2.5934
   2610.8411       6.5705      18.8064       0.0597      56.9020      40.7442    -999.2500    -999.2500      94.1050      74.9840      17.1278       0.1010       3.4961       0.0070       2.7444       1.6747       2.6089
   2610.9934       6.5965      17.3578       0.0812      56.6474      38.4201    -999.2500    -999.2500      94.1050      74.9840       8.7342       0.1010       3.4791       0.0070       2.7754       1.4191       2.5024
   2611.1458       6.6097      16.8366       0.1098      56.0568      36.9667    -999.2500    -999.2500      94.1050      74.9840       2.6698       0.1010       3.4383       0.0073       2.7930       1.2683       2.3808
   2611.2983       6.5617      20.8328       0.1717      53.8652      39.8046    -999.2500    -999.2500      94.1050      74.9840       7.9535       0.1010       3.2844       0.0088       2.7470       1.6281       2.1859
   2611.4507       6.5409      24.2857       0.2222      52.4732      42.2823    -999.2500    -999.2500      94.1050      74.9840      11.4918       0.1010       3.1602       0.0101       2.7093       1.9213       2.0335
   2611.6030       6.6505      25.0744       0.2177      54.9131      43.0529    -999.2500    -999.2500      94.1050      74.9840       6.4739       0.1010       3.1787       0.0106       2.7113       1.8878       2.0895
   2611.7554       6.7161      24.9163       0.2119      56.9314      42.8239    -999.2500    -999.2500      94.1050      74.9840       2.2768       0.1010       3.2111       0.0106       2.7218       1.8327       2.1316
   2611.9077       6.5727      20.1403       0.1999      56.9394      37.8286    -999.2500    -999.2500      94.1050      74.9840       2.0819       0.1010       3.3095       0.0081       2.7722       1.6723       2.1056
   2612.0603       6.4625      15.9854       0.1820      56.9460      33.4359    -999.2500    -999.2500      94.1050      74.9840       4.0804       0.1010       3.3734       0.0059       2.8083       1.5498       2.0744
   2612.2126       6.5115      14.8775       0.1355      56.9460      31.9343    -999.2500    -999.2500      94.1050      74.9840      16.8407       0.1010       3.2714       0.0054       2.7753       1.6139       2.0179
   2612.3650       6.5462      14.3948       0.0964      56.9460      31.2553    -999.2500    -999.2500      94.1050      74.9840      25.2989       0.1010       3.1848       0.0053       2.7506       1.6547       1.9881
