#------------------------------------------------------------------------------
#
#   Created by  : [OpenWorks] Log Export Utility (LEXP)
#   Created on  : 2016-05-23 11:56:05
#   Project     : CANT971
#   User        : R5K
#   Interpreter : PEP
#
#------------------------------------------------------------------------------
~VERSION INFORMATION
VERS. 2.0 : CWLS Log ASCII Standard - version 2.0
WRAP.  NO : One line per depth step
~WELL INFORMATION
#MNEMONIC   .UNIT                                           VALUE :DESCRIPTION
#------------------------------------------------------------------------------
STRT        .M                                          1100.3549 :START DEPTH
STOP        .M                                          2766.5439 :STOP DEPTH
STEP        .M                                             0.1524 :STEP
NULL        .                                           -999.2500 :NULL VALUE
COMP        .                                   PEMEX EXPL & PROD :COMPANY
WELL        .                                                  43 :WELL
FLD         .                                           CANTARELL :FIELD
LOC         .                                             UNKNOWN :LOCATION
CNTY        .                                      CD. DEL CARMEN :COUNTY
STAT        .                                            CAMPECHE :STATE
CTRY        .                                              MEXICO :COUNTRY
SRVC        .                                             UNKNOWN :SERVICE COMPANY
DATE        .                                             UNKNOWN :LOG DATE
UWI         .                                          3060000465 :UNIQUE WELL ID
XCOORD      .                                       601717.960000 :SURFACE X
YCOORD      .                                      2142346.560000 :SURFACE Y
LAT         .                                           19.373808 :LATITUDE
LON         .                                          -92.031425 :LONGITUDE
ELEV        .M                                            24.0000 :SURFACE ELEV
ELEV_TYPE   .                                                  KB :ELEV TYPE
~CURVE INFORMATION
#MNEMONIC.UNIT        API CODE       : CURVE DESCRIPTION
#------------------------------------------------------------------------------
DEPTH    .M                          : Measured Depth
CAL      .inches      UNKNOWN        : CAL:UNKNOWN:rC:NONE:v0 (auto-composite)
CALI     .in          UNKNOWN        : CALI:UNKNOWN:rC:NONE:v0 (auto-composite)
CNL      .v/v_decimal UNKNOWN        : CNL:UNKNOWN:rC:NONE:v0 (auto-composite)
DT       .us/ft       UNKNOWN        : DT:DT:rC:NONE:v0 (auto-composite)
GR       .API         UNKNOWN        : GR:UNKNOWN:rC:NONE:v0 (auto-composite)
ILD      .ohmm        UNKNOWN        : ILD:UNKNOWN:rC:NONE:v0 (auto-composite)
ILM      .ohmm        UNKNOWN        : ILM:UNKNOWN:rC:NONE:v0 (auto-composite)
LLD      .ohmm        UNKNOWN        : LLD:UNKNOWN:rC:NONE:v0 (auto-composite)
LLS      .ohmm        UNKNOWN        : LLS:UNKNOWN:rC:NONE:v0 (auto-composite)
NPHI     .v/v_decimal UNKNOWN        : NPHI:UNKNOWN:rC:NONE:v0 (auto-composite)
PEF      .b/elec      UNKNOWN        : PEF:UNKNOWN:rC:NONE:v0 (auto-composite)
RHOB     .g/cm3       UNKNOWN        : RHOB:UNKNOWN:rC:NONE:v0 (auto-composite)
~A     DEPTH          CAL         CALI          CNL           DT           GR          ILD          ILM          LLD          LLS         NPHI          PEF         RHOB
# ...
   1926.9724       9.5284       9.7654      15.7154      62.2391      48.7986    -999.2500    -999.2500      27.2231      19.3287      13.0405       3.3866       2.4747
   1927.1249       9.6634       9.7125      14.0722      62.2401      43.3956    -999.2500    -999.2500      27.1127      20.8669      13.0929       3.6614       2.5616
   1927.2772       9.7873       9.6886      13.0599      62.2532      38.9652    -999.2500    -999.2500      26.3898      22.1194      13.5985       3.8868       2.6328
   1927.4297       9.8562       9.7980      13.2214      62.3377      38.9996    -999.2500    -999.2500      22.8552      22.0599      16.1844       3.8858       2.6318
   1927.5820       9.8161       9.8586      14.9257      62.7440      39.3274    -999.2500    -999.2500      19.5456      21.5635      18.5253       3.8749       2.6252
   1927.7345       9.6826       9.6927      17.9523      65.0574      41.0172    -999.2500    -999.2500      17.2800      19.0381      19.7287       3.8179       2.5922
   1927.8868       9.7889       9.5567      19.5913      68.6899      43.1871    -999.2500    -999.2500      15.1073      16.3166      20.8406       3.7324       2.5554
   1928.0393       9.8359       9.5607      20.8966      80.1450      47.6000    -999.2500    -999.2500      13.3677      12.6791      21.5245       3.5136       2.5009
   1928.1917       9.6335       9.5930      21.6945      89.9479      51.7323    -999.2500    -999.2500      11.7292       9.3908      23.0919       3.3619       2.4584
   1928.3441       9.6813       9.7589      23.4090      89.9469      54.5390    -999.2500    -999.2500      10.5680       7.7523      28.8338       3.5274       2.4719
   1928.4965       9.8843       9.9156      25.6919      89.9318      57.5157    -999.2500    -999.2500       9.1206       6.1838      33.5089       3.6622       2.4817
   1928.6488       9.9557      10.0300      32.6086      89.8333      61.2651    -999.2500    -999.2500       6.3713       4.9344      33.3305       3.6577       2.4747
   1928.8013      10.0244      10.1538      36.5070      89.3901      69.7357    -999.2500    -999.2500       4.1158       3.9105      31.9759       3.6249       2.4692
   1928.9536      10.0939      10.3207      34.2326      86.8997      99.9276    -999.2500    -999.2500       4.1313       3.9245      25.2099       3.4620       2.4702
   1929.1061      10.2567      10.4868      27.7417      82.8351     124.6521    -999.2500    -999.2500       4.2705       4.0480      18.6785       3.3181       2.4798
   1929.2584      10.4602      10.6492      19.5926      69.4160     124.0731    -999.2500    -999.2500       4.9824       4.6785      13.2336       3.2627       2.5292
   1929.4109      10.6620      10.7923      14.5762      58.2354     120.0739    -999.2500    -999.2500       6.2701       5.5889       8.9188       3.1984       2.5770
   1929.5632      10.8076      10.8453      10.9095      60.3631     100.0640    -999.2500    -999.2500      10.2534       7.8100       9.8949       3.0930       2.6170
   1929.7157      10.8740      10.8880       9.1447      62.1117      80.3307    -999.2500    -999.2500      15.5297      10.3750      10.7000       3.0250       2.6498
   1929.8680      10.8890      10.8825       9.6693      61.6192      61.8995    -999.2500    -999.2500      26.8952      14.5599      10.7000       3.1332       2.6488
   1930.0205      10.8882      10.8464      10.7000      61.3387      46.7935    -999.2500    -999.2500      38.5837      19.9219      10.6975       3.2220       2.6436
   1930.1729      10.8821      10.6704      10.7000      62.3111      46.8465    -999.2500    -999.2500      51.7450      30.6498      10.6835       3.2220       2.6191
   1930.3253      10.7769      10.4875      10.6958      63.1428      47.3584    -999.2500    -999.2500      63.8267      40.2139      10.6284       3.2206       2.5967
   1930.4777      10.5703      10.2721      10.6873      63.1413      49.9747    -999.2500    -999.2500      70.9578      44.4413      10.3851       3.2126       2.5837
   1930.6300      10.3121      10.0575      10.4529      62.6270      52.1203    -999.2500    -999.2500      78.6963      48.8762      10.0464       3.1783       2.5731
   1930.7825      10.0730       9.8461      10.0327      59.0776      52.0829    -999.2500    -999.2500      89.2522      54.2729       9.2653       3.0224       2.5736
   1930.9348       9.9371       9.6727       9.0690      56.0414      51.8665    -999.2500    -999.2500      97.8790      58.7147       8.4635       2.8958       2.5765
   1931.0873       9.8068       9.6767       8.3003      56.0439      50.8153    -999.2500    -999.2500      97.5053      58.7017       7.5658       2.9058       2.5905
   1931.2396       9.6806       9.6992       7.6773      56.0788      49.9433    -999.2500    -999.2500      95.5336      57.7431       6.8325       2.9622       2.6048
   1931.3921       9.7356       9.8090       6.8878      56.3058      49.9162    -999.2500    -999.2500      86.0197      52.3216       6.8757       3.2380       2.6208
   1931.5444       9.8037       9.9181       6.4098      57.1085      49.7741    -999.2500    -999.2500      76.8868      48.0505       7.1249       3.4917       2.6360
   1931.6969       9.8714      10.0240       6.7177      61.3244      49.1091    -999.2500    -999.2500      69.4850      49.0067       8.3110       3.6450       2.6470
   1931.8492       9.9391      10.1110       7.7580      65.2265      47.8048    -999.2500    -999.2500      62.1057      49.7624       9.5392       3.7706       2.6560
   1932.0017      10.0060      10.1110       9.1750      67.2680      43.5621    -999.2500    -999.2500      54.8298      49.5970      10.9616       3.7681       2.6560
   1932.1541      10.0707      10.1099      10.9658      69.3076      40.0801    -999.2500    -999.2500      47.6167      47.3698      12.2445       3.7541       2.6554
   1932.3065      10.1094      10.1039      12.3712      71.3365      40.1146    -999.2500    -999.2500      40.6940      35.6121      12.8824       3.6871       2.6519
   1932.4589      10.1052      10.0745      13.1545      72.8581      41.5670    -999.2500    -999.2500      35.0116      25.9410      13.5085       3.5967       2.6436
   1932.6112      10.0475       9.9356      13.8253      71.3671      49.6493    -999.2500    -999.2500      35.1285      26.0259      14.0790       3.3964       2.6132
   1932.7637       9.9605       9.8231      14.4784      70.1508      56.3037    -999.2500    -999.2500      35.7469      26.7199      14.9158       3.2313       2.5822
   1932.9160       9.7764       9.8351      15.3758      70.5658      56.2044    -999.2500    -999.2500      38.7372      30.2948      17.0116       3.2334       2.5491
   1933.0685       9.7150       9.8939      16.4746      70.9208      55.6972    -999.2500    -999.2500      41.3600      33.1440      18.4597       3.2438       2.5220
   1933.2208       9.8040      10.1653      17.8206      70.9193      53.3327    -999.2500    -999.2500      42.3096      32.6887      16.9583       3.2928       2.5220
   1933.3733      10.0912      10.4242      18.3995      70.0719      50.8183    -999.2500    -999.2500      43.0925      32.3411      15.7277       3.3330       2.5223
   1933.5256      10.4120      10.6260      18.4217      64.1947      47.6170    -999.2500    -999.2500      43.1120      32.4870      15.7372       3.3330       2.5238
   1933.6781      10.6674      10.8006      16.5905      59.1683      44.6141    -999.2500    -999.2500      44.0922      33.2395      15.9184       3.3344       2.5277
   1933.8304      10.8205      10.8491      15.8631      59.1703      42.5309    -999.2500    -999.2500      49.5232      36.8020      16.8951       3.3424       2.5426
   1933.9829      10.8821      10.8875      16.1228      59.1936      40.6264    -999.2500    -999.2500      53.9374      40.4556      17.6724       3.3652       2.5675
   1934.1353      10.8890      10.8790      16.9895      59.3431      39.5599    -999.2500    -999.2500      53.5870      44.5359      17.5155       3.4571       2.6385
