#------------------------------------------------------------------------------
#
#   Created by  : [OpenWorks] Log Export Utility (LEXP)
#   Created on  : 2016-05-23 11:56:31
#   Project     : CANT971
#   User        : R5K
#   Interpreter : PEP
#
#------------------------------------------------------------------------------
~VERSION INFORMATION
VERS. 2.0 : CWLS Log ASCII Standard - version 2.0
WRAP.  NO : One line per depth step
~WELL INFORMATION
#MNEMONIC   .UNIT                                           VALUE :DESCRIPTION
#------------------------------------------------------------------------------
STRT        .M                                          1639.8856 :START DEPTH
STOP        .M                                          2789.8960 :STOP DEPTH
STEP        .M                                             0.1524 :STEP
NULL        .                                           -999.2500 :NULL VALUE
COMP        .                                             UNKNOWN :COMPANY
WELL        .                                                 477 :WELL
FLD         .                                             UNKNOWN :FIELD
LOC         .                                             UNKNOWN :LOCATION
CNTY        .                                             UNKNOWN :COUNTY
STAT        .                                             UNKNOWN :STATE
CTRY        .                                             UNKNOWN :COUNTRY
SRVC        .                                             UNKNOWN :SERVICE COMPANY
DATE        .                                             UNKNOWN :LOG DATE
UWI         .                                                 477 :UNIQUE WELL ID
XCOORD      .                                       598704.070000 :SURFACE X
YCOORD      .                                      2143268.860000 :SURFACE Y
LAT         .                                           19.382293 :LATITUDE
LON         .                                          -92.060073 :LONGITUDE
ELEV        .M                                             0.0000 :SURFACE ELEV
ELEV_TYPE   .                                                  KB :ELEV TYPE
~CURVE INFORMATION
#MNEMONIC.UNIT        API CODE       : CURVE DESCRIPTION
#------------------------------------------------------------------------------
DEPTH    .M                          : Measured Depth
CALI     .inches      UNKNOWN        : CALI:litodensidad:rC:NONE:v0 (auto-composite)
CGR      .API         UNKNOWN        : CGR:Espectrometria:rC:NONE:v0 (auto-composite)
DRHO     .g/cm3       UNKNOWN        : DRHO:litodensidad:rC:NONE:v0 (auto-composite)
DT       .us/ft       UNKNOWN        : DT:Sonico:rC:NONE:v0 (auto-composite)
GR       .API         UNKNOWN        : GR:Espectrometria:rC:NONE:v0 (auto-composite)
GR-LWD   .API         UNKNOWN        : GR-LWD:resistivos-LWD:rC:NONE:v0 (auto-composite)
LLD      .ohm.m       UNKNOWN        : LLD:resistivos:rC:NONE:v0 (auto-composite)
LLD-LWD  .ohm.m       UNKNOWN        : LLD-LWD:resistivos-LWD:rC:NONE:v0 (auto-composite)
LLS      .ohm.m       UNKNOWN        : LLS:resistivos:rC:NONE:v0 (auto-composite)
LLS-LWD  .ohm.m       UNKNOWN        : LLS-LWD:resistivos-LWD:rC:NONE:v0 (auto-composite)
MSFL     .ohm.m       UNKNOWN        : MSFL:resistivos:rC:NONE:v0 (auto-composite)
MSFL-LWD .ohm.m       UNKNOWN        : MSFL-LWD:resistivos-LWD:rC:NONE:v0 (auto-composite)
NPHI     .UNKNOWN     UNKNOWN        : NPHI:porosidad:rC:NONE:v0 (auto-composite)
PEF      .UNKNOWN     UNKNOWN        : PEF:litodensidad:rC:NONE:v0 (auto-composite)
POTA     .wtpercent   UNKNOWN        : POTA:PETROWORKS:rC:NONE:v1 
RHOB     .g/cm3       UNKNOWN        : RHOB:litodensidad:rC:NONE:v0 (auto-composite)
THOR     .ppm         UNKNOWN        : THOR:Espectrometria:rC:NONE:v0 (auto-composite)
URAN     .ppm         UNKNOWN        : URAN:Espectrometria:rC:NONE:v0 (auto-composite)
~A     DEPTH         CALI          CGR         DRHO           DT           GR       GR-LWD          LLD      LLD-LWD          LLS      LLS-LWD         MSFL     MSFL-LWD         NPHI          PEF         POTA         RHOB         THOR         URAN
# ...
   2369.1196      11.4130       5.3501       0.1314    -999.2500      30.4484    -999.2500     484.5493    -999.2500      23.2889    -999.2500       6.3250    -999.2500       0.0764       3.5254       0.0031       2.5954       0.2792       2.7943
   2369.2720      12.0100       6.2027       0.0576    -999.2500      32.3675    -999.2500     471.9200    -999.2500      23.1132    -999.2500       4.5094    -999.2500       0.0688       3.4702       0.0042       2.6126       0.1042       2.9130
   2369.4243      11.9913       7.6044       0.0608    -999.2500      33.8151    -999.2500     473.5419    -999.2500      23.5030    -999.2500       6.2568    -999.2500       0.0715       3.5578       0.0052       2.5783       0.0757       2.9181
   2369.5769       9.7566       9.4744       0.0784    -999.2500      32.8579    -999.2500     507.1429    -999.2500      25.0810    -999.2500      18.1760    -999.2500       0.0770       3.6248       0.0056       2.5067       0.4530       2.6034
   2369.7292       9.1150      11.3940       0.0724    -999.2500      33.6016    -999.2500     569.7652    -999.2500      26.8349    -999.2500      50.2022    -999.2500       0.0743       3.5881       0.0059       2.4886       0.8743       2.4725
   2369.8816       9.0625      12.4258       0.0439    -999.2500      34.0500    -999.2500     640.5471    -999.2500      27.2860    -999.2500      47.0418    -999.2500       0.0638       3.5001       0.0060       2.5462       1.1455       2.4075
   2370.0339       9.0070      10.7513       0.0222    -999.2500      33.6313    -999.2500     683.9799    -999.2500      26.3954    -999.2500      40.3205    -999.2500       0.0527       3.4277       0.0054       2.6441       0.9103       2.5473
   2370.1865       9.0086       9.0130       0.0140    -999.2500      33.3496    -999.2500     681.9096    -999.2500      24.5921    -999.2500      24.3630    -999.2500       0.0455       3.3953       0.0049       2.6917       0.6253       2.7095
   2370.3389       9.0328       8.4211       0.0691    -999.2500      33.1942    -999.2500     667.8636    -999.2500      23.8455    -999.2500       9.2093    -999.2500       0.0462       3.4763       0.0047       2.6935       0.5247       2.7581
   2370.4912       8.8695       9.9307       0.2085    -999.2500      33.1437    -999.2500     674.8510    -999.2500      24.8100    -999.2500       2.4258    -999.2500       0.0537       3.7122       0.0049       2.6825       0.8892       2.5844
   2370.6436       8.7409       9.3737       0.3505    -999.2500      33.0326    -999.2500     688.3079    -999.2500      26.4658    -999.2500       1.9180    -999.2500       0.0671       3.9378       0.0044       2.6584       0.8999       2.6341
   2370.7959       8.8904       6.6321       0.3580    -999.2500      33.4397    -999.2500     711.4495    -999.2500      28.4491    -999.2500       2.3443    -999.2500       0.0819       3.9183       0.0031       2.5949       0.6377       2.9846
   2370.9485       8.9712       5.4048       0.2079    -999.2500      34.7194    -999.2500     737.1136    -999.2500      30.0433    -999.2500       5.5928    -999.2500       0.0832       3.6502       0.0027       2.5390       0.4427       3.2637
   2371.1008       8.9504       6.1571       0.0565    -999.2500      36.8544    -999.2500     748.6655    -999.2500      30.6354    -999.2500      11.8156    -999.2500       0.0725       3.4012       0.0037       2.5607       0.2919       3.4176
   2371.2532       8.9298       8.8792       0.0047    -999.2500      40.1408    -999.2500     766.8859    -999.2500      31.3582    -999.2500      15.5642    -999.2500       0.0635       3.3400       0.0052       2.6412       0.4537       3.4805
   2371.4055       8.8032      10.7267       0.0025    -999.2500      43.3815    -999.2500     767.3455    -999.2500      31.8817    -999.2500      15.8955    -999.2500       0.0593       3.3830       0.0057       2.7025       0.7750       3.6356
   2371.5581       8.7553      10.4130       0.0101    -999.2500      44.8308    -999.2500     747.0547    -999.2500      30.9108    -999.2500      19.2490    -999.2500       0.0584       3.4225       0.0049       2.7026       1.0093       3.8319
   2371.7104       8.7226       9.2855       0.0153    -999.2500      43.5835    -999.2500     736.9993    -999.2500      30.6160    -999.2500      21.9548    -999.2500       0.0588       3.4234       0.0036       2.6742       1.2079       3.8185
   2371.8628       8.8056       9.5699       0.0210    -999.2500      40.6548    -999.2500     730.6223    -999.2500      30.3339    -999.2500      14.3370    -999.2500       0.0581       3.4118       0.0034       2.6524       1.3515       3.4608
   2372.0151       8.8188       8.8983       0.0319    -999.2500      38.1655    -999.2500     752.1068    -999.2500      31.4824    -999.2500      12.7504    -999.2500       0.0555       3.4267       0.0047       2.6483       0.6479       3.2585
   2372.1677       8.8403       9.2598       0.0500    -999.2500      38.9930    -999.2500     822.2701    -999.2500      36.0047    -999.2500      17.6103    -999.2500       0.0515       3.4443       0.0063       2.6854       0.1182       3.3103
   2372.3201       8.7580       9.6671       0.0528    -999.2500      36.2980    -999.2500    1045.7430    -999.2500      52.5048    -999.2500      25.3922    -999.2500       0.0468       3.4295       0.0066       2.7256       0.1162       2.9649
   2372.4724       8.7107       8.6711       0.0359    -999.2500      33.9354    -999.2500    1456.3107    -999.2500      75.3716    -999.2500      25.0214    -999.2500       0.0420       3.3941       0.0054       2.7482       0.3190       2.8127
   2372.6248       8.6548       8.2992       0.0150    -999.2500      35.5561    -999.2500    2152.6294    -999.2500     102.6237    -999.2500      36.8124    -999.2500       0.0388       3.3725       0.0046       2.7463       0.5474       3.0346
   2372.7771       8.6304       9.4785       0.0036    -999.2500      40.0035    -999.2500    2527.7419    -999.2500     115.0992    -999.2500      57.4822    -999.2500       0.0386       3.3727       0.0061       2.7368       0.2840       3.3985
   2372.9297       8.6829      12.5564      -0.0004    -999.2500      44.7837    -999.2500    2482.3284    -999.2500     113.7012    -999.2500      76.8020    -999.2500       0.0400       3.3813       0.0087       2.7350       0.0895       3.5880
   2373.0820       8.6929      14.9238      -0.0020    -999.2500      47.5777    -999.2500    2207.6946    -999.2500     105.4438    -999.2500     105.6851    -999.2500       0.0418       3.4029       0.0106       2.7364       0.0398       3.6354
   2373.2344       8.7100      13.8444      -0.0029    -999.2500      46.3065    -999.2500    1773.1132    -999.2500      88.4020    -999.2500     164.4816    -999.2500       0.0431       3.4283       0.0094       2.7358       0.1870       3.6141
   2373.3867       8.7030      12.6215      -0.0001    -999.2500      42.4443    -999.2500    1385.2177    -999.2500      71.1992    -999.2500     135.3645    -999.2500       0.0430       3.4357       0.0076       2.7327       0.5615       3.3203
   2373.5393       8.6600      13.0518       0.0019    -999.2500      38.1182    -999.2500    1149.5145    -999.2500      60.6398    -999.2500      86.8434    -999.2500       0.0419       3.4110       0.0063       2.7248       1.1827       2.7907
   2373.6917       8.6813      16.8324      -0.0028    -999.2500      35.3152    -999.2500    1043.1639    -999.2500      58.6751    -999.2500      55.4127    -999.2500       0.0415       3.3674       0.0068       2.7122       2.0877       2.0578
   2373.8440       8.7175      16.9893      -0.0143    -999.2500      34.4077    -999.2500    1022.6932    -999.2500      60.3496    -999.2500      51.4080    -999.2500       0.0417       3.3477       0.0069       2.6981       2.0713       1.9392
   2373.9963       8.7322      13.2097      -0.0236    -999.2500      34.4209    -999.2500    1068.5652    -999.2500      63.9654    -999.2500      72.9364    -999.2500       0.0413       3.3568       0.0061       2.6895       1.3374       2.3616
