#------------------------------------------------------------------------------
#
#   Created by  : [OpenWorks] Log Export Utility (LEXP)
#   Created on  : 2016-05-23 11:56:14
#   Project     : CANT971
#   User        : R5K
#   Interpreter : PEP
#
#------------------------------------------------------------------------------
~VERSION INFORMATION
VERS. 2.0 : CWLS Log ASCII Standard - version 2.0
WRAP.  NO : One line per depth step
~WELL INFORMATION
#MNEMONIC   .UNIT                                           VALUE :DESCRIPTION
#------------------------------------------------------------------------------
STRT        .M                                          2395.2905 :START DEPTH
STOP        .M                                          2859.1960 :STOP DEPTH
STEP        .M                                             0.1524 :STEP
NULL        .                                           -999.2500 :NULL VALUE
COMP        .                                             UNKNOWN :COMPANY
WELL        .                                               446-V :WELL
FLD         .                                             UNKNOWN :FIELD
LOC         .                                             UNKNOWN :LOCATION
CNTY        .                                             UNKNOWN :COUNTY
STAT        .                                             UNKNOWN :STATE
CTRY        .                                             UNKNOWN :COUNTRY
SRVC        .                                             UNKNOWN :SERVICE COMPANY
DATE        .                                             UNKNOWN :LOG DATE
UWI         .                                               446-V :UNIQUE WELL ID
XCOORD      .                                       596708.730000 :SURFACE X
YCOORD      .                                      2143311.960000 :SURFACE Y
LAT         .                                           19.382780 :LATITUDE
LON         .                                          -92.079070 :LONGITUDE
ELEV        .M                                             0.0000 :SURFACE ELEV
ELEV_TYPE   .                                                  NA :ELEV TYPE
~CURVE INFORMATION
#MNEMONIC.UNIT        API CODE       : CURVE DESCRIPTION
#------------------------------------------------------------------------------
DEPTH    .M                          : Measured Depth
CALI     .inches      UNKNOWN        : CALI:litodensidad:rC:NONE:v0 (auto-composite)
CGR      .API         UNKNOWN        : CGR:Espectrometria:rC:NONE:v0 (auto-composite)
DRHO     .g/cm3       UNKNOWN        : DRHO:litodensidad:rC:NONE:v0 (auto-composite)
DT       .us/ft       UNKNOWN        : DT:sonico:rC:NONE:v0 (auto-composite)
GR       .API         UNKNOWN        : GR:GR-Load:rC:NONE:v0 (auto-composite)
GR-LWD   .API         UNKNOWN        : GR-LWD:resistivos-LWD:rC:NONE:v0 (auto-composite)
ILD-LWD  .ohm.m       UNKNOWN        : ILD-LWD:resistivos-LWD:rC:NONE:v0 (auto-composite)
ILM-LWD  .UNKNOWN     UNKNOWN        : ILM-LWD:resistivos-LWD:rC:NONE:v0 (auto-composite)
LLD      .ohm.m       UNKNOWN        : LLD:resistivos:rC:NONE:v0 (auto-composite)
LLS      .ohm.m       UNKNOWN        : LLS:resistivos:rC:NONE:v0 (auto-composite)
MSFL     .ohm.m       UNKNOWN        : MSFL:resistivos:rC:NONE:v0 (auto-composite)
NPHI     .UNKNOWN     UNKNOWN        : NPHI:porosidad:rC:NONE:v0 (auto-composite)
PEF      .UNKNOWN     UNKNOWN        : PEF:litodensidad:rC:NONE:v0 (auto-composite)
POTA     .wtpercent   UNKNOWN        : POTA:Espectrometria:rC:NONE:v0 (auto-composite)
RHOB     .g/cm3       UNKNOWN        : RHOB:litodensidad:rC:NONE:v0 (auto-composite)
THOR     .ppm         UNKNOWN        : THOR:Espectrometria:rC:NONE:v0 (auto-composite)
URAN     .ppm         UNKNOWN        : URAN:Espectrometria:rC:NONE:v0 (auto-composite)
~A     DEPTH         CALI          CGR         DRHO           DT           GR       GR-LWD      ILD-LWD      ILM-LWD          LLD          LLS         MSFL         NPHI          PEF         POTA         RHOB         THOR         URAN
# ...
   2619.3186       9.9122       6.8481       0.0442      59.3757      21.0368    -999.2500    -999.2500    -999.2500     104.5072      84.1620       1.3245       0.0498       3.2955       0.0047       2.7811       0.0654       1.5797
   2619.4709       9.9169       5.6830       0.0368      59.6113      22.2222    -999.2500    -999.2500    -999.2500     104.7802      83.8277       0.9362       0.0579       3.3367       0.0039       2.7480       0.0595       1.8413
   2619.6233       9.9380       6.6460       0.0396      60.5698      23.4098    -999.2500    -999.2500    -999.2500      97.8218      82.4668       1.0376       0.0758       3.3659       0.0039       2.7465       0.3249       1.8664
   2619.7756      10.0167       9.7408       0.0529      60.1254      24.3204    -999.2500    -999.2500    -999.2500      75.2930      66.4498       1.2436       0.0798       3.4039       0.0045       2.7477       0.9590       1.6232
   2619.9282      10.1317      10.3820       0.0702      59.5310      23.9014    -999.2500    -999.2500    -999.2500      60.7902      53.4439       2.6629       0.0775       3.4674       0.0043       2.7353       1.2376       1.5052
   2620.0806      10.2139       9.4259       0.0907      56.8362      23.8791    -999.2500    -999.2500    -999.2500      48.3318      39.7430       4.8578       0.0897       3.5546       0.0039       2.7205       1.1274       1.6092
   2620.2329      10.1689       9.2817       0.0908      55.9371      26.3725    -999.2500    -999.2500    -999.2500      45.5841      36.7602       3.9362       0.0956       3.5120       0.0054       2.7206       0.4860       1.9028
   2620.3853      10.0529      11.3341       0.0788      56.5643      33.2734    -999.2500    -999.2500    -999.2500      47.3934      39.9835       1.2122       0.0918       3.3556       0.0078       2.7328       0.1133       2.4426
   2620.5378       9.9220      13.9534       0.0695      57.5311      35.3101    -999.2500    -999.2500    -999.2500      53.5486      46.4980       0.9605       0.0790       3.2524       0.0085       2.7612       0.5979       2.3777
   2620.6902       9.7787      17.7071       0.0613      58.6013      35.7843    -999.2500    -999.2500    -999.2500      59.4853      52.7294       0.9695       0.0722       3.2438       0.0085       2.7984       1.6556       2.0126
   2620.8425       9.7164      20.8019       0.0522      56.0006      34.0586    -999.2500    -999.2500    -999.2500      62.1347      56.5058       0.8901       0.0687       3.2890       0.0081       2.8125       2.6698       1.4759
   2620.9949       9.6684      24.3619       0.0385      55.4281      31.9429    -999.2500    -999.2500    -999.2500      59.0033      55.7646       0.9818       0.0641       3.3316       0.0095       2.8139       3.1450       0.8440
   2621.1472       9.5934      26.7614       0.0378      52.4651      31.8950    -999.2500    -999.2500    -999.2500      56.4216      54.3895       1.0540       0.0668       3.3470       0.0114       2.8124       3.0815       0.5715
   2621.2998       9.5015      27.2830       0.0452      50.8983      32.2772    -999.2500    -999.2500    -999.2500      52.7890      51.3810       1.2851       0.0725       3.3883       0.0140       2.8104       2.1745       0.5560
   2621.4521       9.5035      24.6947       0.0488      51.1150      34.1044    -999.2500    -999.2500    -999.2500      48.6772      49.2153       1.4509       0.0725       3.4149       0.0137       2.8019       1.5740       1.0476
   2621.6045       9.5109      15.7329       0.0516      54.7777      39.2088    -999.2500    -999.2500    -999.2500      31.5409      34.7433       2.5074       0.0867       3.4396       0.0101       2.7735       0.4438       2.6136
   2621.7568       9.5079      15.1263       0.0486      59.6277      40.5436    -999.2500    -999.2500    -999.2500      24.7061      27.0581       8.6962       0.0919       3.4303       0.0096       2.7315       0.4844       2.8298
   2621.9094       9.5128      17.0851       0.0313      63.2303      39.4356    -999.2500    -999.2500    -999.2500      16.7961      16.7561      10.3704       0.1048       3.3877       0.0092       2.6285       1.1770       2.4884
   2622.0618       9.5203      19.7300       0.0209      64.0149      37.0602    -999.2500    -999.2500    -999.2500      16.0401      14.6156       4.2852       0.1257       3.3590       0.0091       2.5996       1.9863       1.9294
   2622.2141       9.5427      21.1847       0.0179      63.4469      33.6536    -999.2500    -999.2500    -999.2500      17.3598      16.6762       1.8455       0.1130       3.3225       0.0084       2.6486       2.6730       1.3882
   2622.3665       9.5530      20.2074       0.0255      58.0724      33.6478    -999.2500    -999.2500    -999.2500      20.9358      20.8554       4.1446       0.0813       3.3072       0.0082       2.7113       2.4722       1.4964
   2622.5190       9.5535      19.5499       0.0304      56.2586      34.9077    -999.2500    -999.2500    -999.2500      25.9302      25.8691       5.2330       0.0723       3.2939       0.0086       2.7484       2.1230       1.7099
   2622.6714       9.5503      19.5671       0.0346      53.8567      36.5760    -999.2500    -999.2500    -999.2500      34.4506      33.4054       2.9848       0.0738       3.2845       0.0095       2.7649       1.7698       1.8937
   2622.8237       9.5507      19.1400       0.0387      52.8150      35.1790    -999.2500    -999.2500    -999.2500      38.4508      35.8547       0.9490       0.0684       3.2785       0.0097       2.7752       1.5628       1.7857
   2622.9761       9.5528      16.8165       0.0453      52.7211      31.2091    -999.2500    -999.2500    -999.2500      41.3905      40.0595       0.7393       0.0631       3.2859       0.0083       2.7953       1.4909       1.6024
   2623.1284       9.5117      12.9704       0.0506      52.5828      27.2189    -999.2500    -999.2500    -999.2500      51.0540      51.7253       1.0738       0.0574       3.3393       0.0062       2.8139       1.2314       1.5864
   2623.2810       9.4597       9.4302       0.0571      52.5165      23.0881    -999.2500    -999.2500    -999.2500      72.0264      73.9206       1.2298       0.0440       3.4316       0.0040       2.8371       1.1006       1.5206
   2623.4333       9.4452       7.3951       0.0571      52.6268      21.7029    -999.2500    -999.2500    -999.2500      87.4135     107.9247       0.9696       0.0426       3.4589       0.0029       2.8359       0.9338       1.5929
   2623.5857       9.4333       7.0722       0.0527      53.3129      22.0775    -999.2500    -999.2500    -999.2500      84.0141     133.4207       0.6717       0.0432       3.4380       0.0034       2.8149       0.6459       1.6705
   2623.7380       9.4157      10.3818       0.0504      54.2223      24.2967    -999.2500    -999.2500    -999.2500      65.3877     115.9594       0.6465       0.0492       3.4137       0.0049       2.7873       1.0150       1.5492
   2623.8906       9.3846      14.6454       0.0485      55.1154      27.3254    -999.2500    -999.2500    -999.2500      44.7957      73.1694       0.9044       0.0631       3.4271       0.0065       2.7561       1.5783       1.4117
   2624.0430       9.3751      17.0874       0.0428      55.1845      29.0253    -999.2500    -999.2500    -999.2500      38.4243      50.9266       1.3464       0.0749       3.4578       0.0070       2.7354       2.0572       1.3291
   2624.1953       9.3448      17.4580       0.0315      54.9250      30.4387    -999.2500    -999.2500    -999.2500      37.1597      38.0349       1.3985       0.0757       3.4563       0.0074       2.7367       2.0253       1.4452
   2624.3477       9.3103      16.1160       0.0291      53.4167      30.9077    -999.2500    -999.2500    -999.2500      41.0571      42.0136       0.9146       0.0616       3.4050       0.0074       2.7560       1.6400       1.6468
   2624.5002       9.2720      14.0110       0.0302      52.8042      31.4511    -999.2500    -999.2500    -999.2500      51.0409      52.8091       0.5645       0.0526       3.3188       0.0080       2.7740       0.8171       1.9417
