#------------------------------------------------------------------------------
#
#   Created by  : [OpenWorks] Log Export Utility (LEXP)
#   Created on  : 2016-05-23 11:52:25
#   Project     : CANT971
#   User        : R5K
#   Interpreter : PEP
#
#------------------------------------------------------------------------------
~VERSION INFORMATION
VERS. 2.0 : CWLS Log ASCII Standard - version 2.0
WRAP.  NO : One line per depth step
~WELL INFORMATION
#MNEMONIC   .UNIT                                           VALUE :DESCRIPTION
#------------------------------------------------------------------------------
STRT        .M                                           940.1293 :START DEPTH
STOP        .M                                          2672.0029 :STOP DEPTH
STEP        .M                                             0.1524 :STEP
NULL        .                                           -999.2500 :NULL VALUE
COMP        .                                   PEMEX EXPL & PROD :COMPANY
WELL        .                                               2071D :WELL
FLD         .                                           CANTARELL :FIELD
LOC         .                                             UNKNOWN :LOCATION
CNTY        .                                      CD. DEL CARMEN :COUNTY
STAT        .                                            CAMPECHE :STATE
CTRY        .                                              MEXICO :COUNTRY
SRVC        .                                             UNKNOWN :SERVICE COMPANY
DATE        .                                             UNKNOWN :LOG DATE
UWI         .                                          3060000679 :UNIQUE WELL ID
XCOORD      .                                       601713.940000 :SURFACE X
YCOORD      .                                      2142372.000000 :SURFACE Y
LAT         .                                           19.374038 :LATITUDE
LON         .                                          -92.031462 :LONGITUDE
ELEV        .M                                            30.0000 :SURFACE ELEV
ELEV_TYPEF  .b/elec                                            KB :ELEV TYPE
~CURVE INFORMATION
#MNEMONIC.UNIT        API CODE       : CURVE DESCRIPTION
#------------------------------------------------------------------------------
DEPTH    .M                          : Measured Depth
CALI     .in          UNKNOWN        : CALI:UNKNOWN:rC:NONE:v0 (auto-composite)
DRHO     .g/cm3       UNKNOWN        : DRHO:UNKNOWN:rC:NONE:v0 (auto-composite)
DT       .us/ft       UNKNOWN        : DT:DT:rC:NONE:v0 (auto-composite)
GR       .API         UNKNOWN        : GR:UNKNOWN:rC:NONE:v0 (auto-composite)
ILD      .ohmm        UNKNOWN        : ILD:UNKNOWN:rC:NONE:v0 (auto-composite)
ILM      .ohmm        UNKNOWN        : ILM:UNKNOWN:rC:NONE:v0 (auto-composite)
LLD      .ohmm        UNKNOWN        : LLD:UNKNOWN:rC:NONE:v0 (auto-composite)
LLS      .ohmm        UNKNOWN        : LLS:UNKNOWN:rC:NONE:v0 (auto-composite)
MSFL     .ohmm        UNKNOWN        : MSFL:UNKNOWN:rC:NONE:v0 (auto-composite)
NPHI     .v/v_decimal UNKNOWN        : NPHI:UNKNOWN:rC:NONE:v0 (auto-composite)
PEF      .b/elec      UNKNOWN        : PEF:UNKNOWN:rC:NONE:v0 (auto-composite)
RHOB     .g/cm3       UNKNOWN        : RHOB:UNKNOWN:rC:NONE:v0 (auto-composite)
~A     DEPTH         CALI         DRHO           DT           GR          ILD          ILM          LLD          LLS         MSFL         NPHI          PEF         RHOB
# ...
   2483.6365      10.3155       0.0520      47.7160    -999.2500    -999.2500    -999.2500    -999.2500    -999.2500       0.6830       0.0483       3.5225       2.7555
   2483.7888      10.2970       0.0370      47.7160    -999.2500    -999.2500    -999.2500    -999.2500    -999.2500       0.6190       0.0402       3.5310       2.7730
   2483.9414      10.2760       0.0405      47.7160    -999.2500    -999.2500    -999.2500    -999.2500    -999.2500       0.6694       0.0381       3.7093       2.7410
   2484.0938      10.2550       0.0440      47.7160    -999.2500    -999.2500    -999.2500    -999.2500    -999.2500       0.7200       0.0359       3.8880       2.7090
   2484.2461      10.3386       0.0465      47.7160    -999.2500    -999.2500    -999.2500    -999.2500    -999.2500       0.7776       0.0488       4.0312       2.6925
   2484.3984      10.4220       0.0490      47.7160    -999.2500    -999.2500    -999.2500    -999.2500    -999.2500       0.8350       0.0617       4.1740       2.6760
   2484.5510      10.4059       0.0480      47.7160    -999.2500    -999.2500    -999.2500    -999.2500    -999.2500       0.7512       0.0558       4.2663       2.6800
   2484.7034      10.3900       0.0470      47.7160    -999.2500    -999.2500    -999.2500    -999.2500    -999.2500       0.6680       0.0499       4.3580       2.6840
   2484.8557      10.3700       0.0440      47.7160    -999.2500    -999.2500    -999.2500    -999.2500    -999.2500       0.7471       0.0368       4.1226       2.6760
   2485.0081      10.3500       0.0410      47.7160    -999.2500    -999.2500    -999.2500    -999.2500    -999.2500       0.8260       0.0237       3.8880       2.6680
   2485.1606      10.3905       0.0445      47.7160    -999.2500    -999.2500    -999.2500    -999.2500    -999.2500       0.8425       0.0213       3.9465       2.6765
   2485.3130      10.4310       0.0480      47.7160    -999.2500    -999.2500    -999.2500    -999.2500    -999.2500       0.8590       0.0190       4.0050       2.6850
   2485.4653      10.4385       0.0510      47.7160    -999.2500    -999.2500    -999.2500    -999.2500    -999.2500       0.7851       0.0203       4.1404       2.7000
   2485.6177      10.4460       0.0540      47.7160    -999.2500    -999.2500    -999.2500    -999.2500    -999.2500       0.7110       0.0217       4.2760       2.7150
   2485.7700      10.4180       0.0510      47.7160    -999.2500    -999.2500    -999.2500    -999.2500    -999.2500       0.6845       0.0244       4.4882       2.7190
   2485.9226      10.3900       0.0480      47.7160    -999.2500    -999.2500    -999.2500    -999.2500    -999.2500       0.6580       0.0271       4.7000       2.7230
   2486.0750      10.4496       0.0460      47.7160    -999.2500    -999.2500    -999.2500    -999.2500    -999.2500       0.7046       0.0264       4.7531       2.7125
   2486.2273      10.5090       0.0440      47.7160    -999.2500    -999.2500    -999.2500    -999.2500    -999.2500       0.7510       0.0257       4.8060       2.7020
   2486.3796      10.3978       0.0540      47.7160    -999.2500    -999.2500    -999.2500    -999.2500    -999.2500       0.6844       0.0242       4.6403       2.6915
   2486.5322      10.2870       0.0640      47.7160    -999.2500    -999.2500    -999.2500    -999.2500    -999.2500       0.6180       0.0228       4.4750       2.6810
   2486.6846      10.3505       0.0735      47.7160    -999.2500    -999.2500    -999.2500    -999.2500    -999.2500       0.5915       0.0264       4.5155       2.6600
   2486.8369      10.4140       0.0830      47.7160    -999.2500    -999.2500    -999.2500    -999.2500    -999.2500       0.5650       0.0300       4.5560       2.6390
   2486.9893      10.3980       0.0810      47.7160    -999.2500    -999.2500    -999.2500    -999.2500    -999.2500       0.6075       0.0333       4.5295       2.6475
   2487.1418      10.3820       0.0790      47.7160    -999.2500    -999.2500    -999.2500    -999.2500    -999.2500       0.6500       0.0366       4.5030       2.6560
   2487.2942      10.4020       0.0925      47.7160    -999.2500    -999.2500    -999.2500    -999.2500    -999.2500       0.6100       0.0395       4.6636       2.6875
   2487.4465      10.4220       0.1060      47.7160    -999.2500    -999.2500    -999.2500    -999.2500    -999.2500       0.5700       0.0423       4.8240       2.7190
   2487.5989      10.4180       0.0859      47.7160    -999.2500    -999.2500    -999.2500    -999.2500    -999.2500       0.4943       0.0507       4.6495       2.6754
   2487.7512      10.4140       0.0660      47.7160    -999.2500    -999.2500    -999.2500    -999.2500    -999.2500       0.4190       0.0590       4.4760       2.6320
   2487.9038      10.4020       0.0805      47.7160    -999.2500    -999.2500    -999.2500    -999.2500    -999.2500       0.4696       0.0648       4.5501       2.6160
   2488.0562      10.3900       0.0950      47.7160    -999.2500    -999.2500    -999.2500    -999.2500    -999.2500       0.5200       0.0706       4.6240       2.6000
   2488.2085      10.3750       0.1045      47.7160    -999.2500    -999.2500    -999.2500    -999.2500    -999.2500       0.5755       0.0820       4.5525       2.6155
   2488.3608      10.3600       0.1140      47.7160    -999.2500    -999.2500    -999.2500    -999.2500    -999.2500       0.6310       0.0935       4.4810       2.6310
   2488.5134      10.3196       0.0955      47.7160    -999.2500    -999.2500    -999.2500    -999.2500    -999.2500       0.6025       0.1017       4.2418       2.6430
   2488.6658      10.2790       0.0770      47.7160    -999.2500    -999.2500    -999.2500    -999.2500    -999.2500       0.5740       0.1099       4.0020       2.6550
   2488.8181      10.3185       0.0875      47.7160    -999.2500    -999.2500    -999.2500    -999.2500    -999.2500       1.8602       0.1034       3.6617       2.6400
   2488.9705      10.3580       0.0980      47.7160    -999.2500    -999.2500    -999.2500    -999.2500    -999.2500       3.1440       0.0969       3.3220       2.6250
   2489.1230      10.2943       0.0885      47.7160    -999.2500    -999.2500    -999.2500    -999.2500    -999.2500       4.5741       0.1052       3.1946       2.6390
   2489.2754      10.2310       0.0790      47.7160    -999.2500    -999.2500    -999.2500    -999.2500    -999.2500       5.9950       0.1134       3.0680       2.6530
   2489.4277      10.3201       0.0935      47.7160    -999.2500    -999.2500    -999.2500    -999.2500    -999.2500       6.0927       0.1315       3.1907       2.6680
   2489.5801      10.4090       0.1080      47.7160    -999.2500    -999.2500    -999.2500    -999.2500    -999.2500       6.1900       0.1496       3.3130       2.6830
   2489.7324      10.4670       0.1005    -999.2500    -999.2500    -999.2500    -999.2500    -999.2500    -999.2500       6.1900       0.1701       3.4195       2.6880
   2489.8850      10.5250       0.0930    -999.2500    -999.2500    -999.2500    -999.2500    -999.2500    -999.2500       6.1900       0.1905       3.5260       2.6930
   2490.0374      10.5090       0.0975    -999.2500    -999.2500    -999.2500    -999.2500    -999.2500    -999.2500       6.1900       0.2332       3.3247       2.5441
   2490.1897      10.4930       0.1020    -999.2500    -999.2500    -999.2500    -999.2500    -999.2500    -999.2500    -999.2500       0.2759       3.1230       2.3950
   2490.3420      10.5926       0.0755    -999.2500    -999.2500    -999.2500    -999.2500    -999.2500    -999.2500    -999.2500       0.2291       3.0269       2.3429
   2490.4946      10.6920       0.0490    -999.2500    -999.2500    -999.2500    -999.2500    -999.2500    -999.2500    -999.2500       0.1825       2.9310       2.2910
   2490.6470      10.7356       0.0911    -999.2500    -999.2500    -999.2500    -999.2500    -999.2500    -999.2500    -999.2500       0.1493       3.0809       2.4349
   2490.7993      10.7790       0.1330    -999.2500    -999.2500    -999.2500    -999.2500    -999.2500    -999.2500    -999.2500       0.1163       3.2300       2.5780
