#------------------------------------------------------------------------------
#
#   Created by  : [OpenWorks] Log Export Utility (LEXP)
#   Created on  : 2016-05-23 11:50:56
#   Project     : CANT971
#   User        : R5K
#   Interpreter : PEP
#
#------------------------------------------------------------------------------
~VERSION INFORMATION
VERS. 2.0 : CWLS Log ASCII Standard - version 2.0
WRAP.  NO : One line per depth step
~WELL INFORMATION
#MNEMONIC   .UNIT                                           VALUE :DESCRIPTION
#------------------------------------------------------------------------------
STRT        .M                                           679.7040 :START DEPTH
STOP        .M                                          2836.1641 :STOP DEPTH
STEP        .M                                             0.1524 :STEP
NULL        .                                           -999.2500 :NULL VALUE
COMP        .                                   PEMEX EXPL & PROD :COMPANY
WELL        .                                                1044 :WELL
FLD         .                                           CANTARELL :FIELD
LOC         .                                             UNKNOWN :LOCATION
CNTY        .                                      CD. DEL CARMEN :COUNTY
STAT        .                                            CAMPECHE :STATE
CTRY        .                                              MEXICO :COUNTRY
SRVC        .                                             UNKNOWN :SERVICE COMPANY
DATE        .                                             UNKNOWN :LOG DATE
UWI         .                                          3060000497 :UNIQUE WELL ID
XCOORD      .                                       596164.320000 :SURFACE X
YCOORD      .                                      2150609.730000 :SURFACE Y
LAT         .                                           19.448753 :LATITUDE
LON         .                                          -92.083884 :LONGITUDE
ELEV        .M                                            30.0000 :SURFACE ELEV
ELEV_TYPE   .                                                  KB :ELEV TYPE
~CURVE INFORMATION
#MNEMONIC.UNIT        API CODE       : CURVE DESCRIPTION
#------------------------------------------------------------------------------
DEPTH    .M                          : Measured Depth
CALI     .inches      UNKNOWN        : CALI:litodensidad:rC:NONE:v0 (auto-composite)
DRHO     .g/cm3       UNKNOWN        : DRHO:litodensidad:rC:NONE:v0 (auto-composite)
DT       .us/ft       UNKNOWN        : DT:DT:rC:NONE:v0 (auto-composite)
GR       .API         UNKNOWN        : GR:UNKNOWN:rC:NONE:v0 (auto-composite)
ILD      .ohm.m       UNKNOWN        : ILD:UNKNOWN:rC:NONE:v0 (auto-composite)
ILM      .ohm.m       UNKNOWN        : ILM:UNKNOWN:rC:NONE:v0 (auto-composite)
LLD      .ohm.m       UNKNOWN        : LLD:UNKNOWN:rC:NONE:v0 (auto-composite)
LLS      .ohm.m       UNKNOWN        : LLS:UNKNOWN:rC:NONE:v0 (auto-composite)
MSFL     .ohm.m       UNKNOWN        : MSFL:UNKNOWN:rC:NONE:v0 (auto-composite)
NPHI     .v/v_decimal UNKNOWN        : NPHI:NPHI:rC:NONE:v0 (auto-composite)
PEF      .b/elec      UNKNOWN        : PEF:UNKNOWN:rC:NONE:v0 (auto-composite)
RHOB     .g/cm3       UNKNOWN        : RHOB:UNKNOWN:rC:NONE:v0 (auto-composite)
~A     DEPTH         CALI         DRHO           DT           GR          ILD          ILM          LLD          LLS         MSFL         NPHI          PEF         RHOB
# ...
   2801.1121      10.7440       0.1270      80.5110     125.1630    -999.2500    -999.2500       3.6708       3.8003       4.3564       0.3060       3.1830       2.4410
   2801.2644      10.6226       0.1425      80.5914     125.1700    -999.2500    -999.2500       3.6649       3.8230       4.3627       0.3130       3.1810       2.4355
   2801.4167      10.5010       0.1580      80.6720     125.1770    -999.2500    -999.2500       3.6590       3.8458       4.3691       0.3201       3.1790       2.4300
   2801.5691      10.5065       0.1850      81.0546     125.4263    -999.2500    -999.2500       3.7429       3.9226       4.3506       0.3190       3.1525       2.4395
   2801.7217      10.5120       0.2120      81.4380     125.6750    -999.2500    -999.2500       3.8269       3.9996       4.3320       0.3179       3.1260       2.4490
   2801.8740      10.5840       0.2105      83.3415     125.2544    -999.2500    -999.2500       4.0377       4.1679       4.1947       0.2955       3.1625       2.4450
   2802.0264      10.6560       0.2090      85.2460     124.8350    -999.2500    -999.2500       4.2490       4.3366       4.0570       0.2730       3.1990       2.4410
   2802.1787      10.8874       0.1855      85.0426     120.1612    -999.2500    -999.2500       4.4832       4.5948       3.9002       0.2730       3.1920       2.3946
   2802.3313      11.1190       0.1620      84.8390     115.4990    -999.2500    -999.2500       4.7180       4.8537       3.7431       0.2731       3.1850       2.3480
   2802.4836      11.6878       0.1635      79.9490     110.1682    -999.2500    -999.2500       4.9336       5.1033       3.7084       0.2742       3.1030       2.2076
   2802.6360      12.2570       0.1650      75.0550     104.8500    -999.2500    -999.2500       5.1493       5.3531       3.6737       0.2754       3.0210       2.0670
   2802.7883      12.2435       0.1820      75.0800     105.0697    -999.2500    -999.2500       5.1767       5.4876       3.8464       0.2993       2.8336       2.0720
   2802.9407      12.2300       0.1990      75.1050     105.2890    -999.2500    -999.2500       5.2042       5.6222       4.0193       0.3233       2.6460       2.0770
   2803.0933      11.9961       0.2435      77.5167     107.6370    -999.2500    -999.2500       5.1615       5.6326       4.1844       0.3217       2.6570       2.1320
   2803.2456      11.7620       0.2880      79.9310     109.9800    -999.2500    -999.2500       5.1188       5.6429       4.3496       0.3201       2.6680       2.1870
   2803.3979      11.7720       0.2880      79.6996     114.0120    -999.2500    -999.2500       5.1033       5.6171       4.3917       0.2681       2.7999       2.2540
   2803.5503      11.7820       0.2880      79.4680     118.0360    -999.2500    -999.2500       5.0878       5.5912       4.4338       0.2160       2.9320       2.3210
   2803.7029      12.1647       0.2850      75.9104     117.8563    -999.2500    -999.2500       5.0669       5.5501       4.2693       0.2190       2.9255       2.3745
   2803.8552      12.5480       0.2820      72.3480     117.6770    -999.2500    -999.2500       5.0460       5.5090       4.1045       0.2220       2.9190       2.4280
   2804.0076      12.5275       0.2575      72.3935     115.9815    -999.2500    -999.2500       4.9736       5.4110       3.8855       0.2502       2.9470       2.4250
   2804.1599      12.5070       0.2330      72.4390     114.2890    -999.2500    -999.2500       4.9012       5.3129       3.6662       0.2784       2.9750       2.4220
   2804.3125      12.2877       0.1890      73.0001     113.6885    -999.2500    -999.2500       4.7938       5.1863       3.5351       0.2885       2.9720       2.3940
   2804.4648      12.0680       0.1450      73.5620     113.0890    -999.2500    -999.2500       4.6861       5.0595       3.4038       0.2986       2.9690       2.3660
   2804.6172      11.5375       0.1515      75.1446     112.9418    -999.2500    -999.2500       4.5350       4.9041       3.3916       0.3058       2.9265       2.3555
   2804.7695      11.0060       0.1580      76.7300     112.7950    -999.2500    -999.2500       4.3836       4.7484       3.3794       0.3130       2.8840       2.3450
   2804.9219      11.0170       0.1575      76.6251     111.1891    -999.2500    -999.2500       4.2311       4.6044       3.4128       0.3232       2.6482       2.3175
   2805.0745      11.0280       0.1570      76.5200     109.5880    -999.2500    -999.2500       4.0783       4.4601       3.4463       0.3335       2.4120       2.2900
   2805.2268      11.1339       0.1345      75.0300     109.6195    -999.2500    -999.2500       3.9649       4.3279       3.5026       0.3327       2.4145       2.2570
   2805.3792      11.2400       0.1120      73.5370     109.6510    -999.2500    -999.2500       3.8512       4.1955       3.5589       0.3319       2.4170       2.2240
   2805.5315      11.3559       0.1125      73.5854     110.0125    -999.2500    -999.2500       3.7690       4.0910       3.6085       0.3107       2.4430       2.2095
   2805.6841      11.4720       0.1130      73.6340     110.3730    -999.2500    -999.2500       3.6866       3.9863       3.6582       0.2895       2.4690       2.1950
   2805.8364      11.4660       0.1205      74.3903     112.1047    -999.2500    -999.2500       3.6482       3.9046       3.6551       0.2897       2.5015       2.1620
   2805.9888      11.4600       0.1280      75.1470     113.8320    -999.2500    -999.2500       3.6096       3.8227       3.6521       0.2899       2.5340       2.1290
   2806.1411      11.5730       0.1780      80.5605     110.9349    -999.2500    -999.2500       3.5555       3.7465       3.6604       0.3023       2.6390       2.1305
   2806.2937      11.6860       0.2280      85.9780     108.0450    -999.2500    -999.2500       3.5014       3.6702       3.6688       0.3148       2.7440       2.1320
   2806.4460      11.6730       0.2005      85.5282     108.2242    -999.2500    -999.2500       3.4713       3.6412       3.7525       0.3145       2.8375       2.1435
   2806.5984      11.6600       0.1730      85.0780     108.4030    -999.2500    -999.2500       3.4413       3.6121       3.8362       0.3142       2.9310       2.1550
   2806.7507      11.1627       0.1735      80.0185     110.0038    -999.2500    -999.2500       3.5196       3.7059       4.1487       0.3103       2.9945       2.1640
   2806.9031      10.6650       0.1740      74.9540     111.6010    -999.2500    -999.2500       3.5980       3.7998       4.4615       0.3065       3.0580       2.1730
   2807.0557      10.6650       0.1840      75.4347     113.0570    -999.2500    -999.2500       3.8183       4.0510       4.9573       0.2936       3.3498       2.2709
   2807.2080      10.6650       0.1940      75.9160     114.5100    -999.2500    -999.2500       4.0388       4.3025       5.4536       0.2807       3.6420       2.3690
   2807.3604      10.7030       0.2270      75.8430     115.9619    -999.2500    -999.2500       4.2579       4.5571       5.8263       0.2818       3.6310       2.3665
   2807.5127      10.7410       0.2600      75.7700     117.4110    -999.2500    -999.2500       4.4773       4.8120       6.1994       0.2829       3.6200       2.3640
   2807.6653      11.0433       0.2585      74.5059     117.3014    -999.2500    -999.2500       4.5748       4.9472       6.3308       0.2926       3.3822       2.3355
   2807.8176      11.3460       0.2570      73.2400     117.1920    -999.2500    -999.2500       4.6725       5.0826       6.4625       0.3024       3.1440       2.3070
   2807.9700      11.5269       0.2445      73.3104     116.1131    -999.2500    -999.2500       4.6002       5.0238       6.4316       0.3194       3.1500       2.2361
   2808.1223      11.7080       0.2320      73.3810     115.0360    -999.2500    -999.2500       4.5278       4.9649       6.4007       0.3365       3.1560       2.1650
   2808.2747      11.7839       0.2030      73.9675     112.9413    -999.2500    -999.2500       4.3858       4.8217       6.2675       0.3203       3.3578       2.1745
