#------------------------------------------------------------------------------
#
#   Created by  : [OpenWorks] Log Export Utility (LEXP)
#   Created on  : 2016-05-23 11:51:27
#   Project     : CANT971
#   User        : R5K
#   Interpreter : PEP
#
#------------------------------------------------------------------------------
~VERSION INFORMATION
VERS. 2.0 : CWLS Log ASCII Standard - version 2.0
WRAP.  NO : One line per depth step
~WELL INFORMATION
#MNEMONIC   .UNIT                                           VALUE :DESCRIPTION
#------------------------------------------------------------------------------
STRT        .M                                           294.1315 :START DEPTH
STOP        .M                                          1758.8479 :STOP DEPTH
STEP        .M                                             0.1524 :STEP
NULL        .                                           -999.2500 :NULL VALUE
COMP        .                                   PEMEX EXPL & PROD :COMPANY
WELL        .                                                1084 :WELL
FLD         .                                           CANTARELL :FIELD
LOC         .                                             UNKNOWN :LOCATION
CNTY        .                                      CD. DEL CARMEN :COUNTY
STAT        .                                            CAMPECHE :STATE
CTRY        .                                              MEXICO :COUNTRY
SRVC        .                                             UNKNOWN :SERVICE COMPANY
DATE        .                                             UNKNOWN :LOG DATE
UWI         .                                          3060000213 :UNIQUE WELL ID
XCOORD      .                                       596992.320000 :SURFACE X
YCOORD      .                                      2148289.820000 :SURFACE Y
LAT         .                                           19.427749 :LATITUDE
LON         .                                          -92.076116 :LONGITUDE
ELEV        .M                                            27.5000 :SURFACE ELEV
ELEV_TYPE   .                                                  KB :ELEV TYPE
~CURVE INFORMATION
#MNEMONIC.UNIT        API CODE       : CURVE DESCRIPTION
#------------------------------------------------------------------------------
DEPTH    .M                          : Measured Depth
CALI     .in          UNKNOWN        : CALI:registros:rC:NONE:v0 (auto-composite)
DRHO     .g/cm3       UNKNOWN        : DRHO:registros:rC:NONE:v0 (auto-composite)
DT       .us/ft       UNKNOWN        : DT:registros:rC:NONE:v0 (auto-composite)
GR       .api         UNKNOWN        : GR:registros:rC:NONE:v0 (auto-composite)
ILD      .ohmm        UNKNOWN        : ILD:registros:rC:NONE:v0 (auto-composite)
NPHI     .v/v_decimal UNKNOWN        : NPHI:registros:rC:NONE:v0 (auto-composite)
RHOB     .g/cm3       UNKNOWN        : RHOB:registros:rC:NONE:v0 (auto-composite)
~A     DEPTH         CALI         DRHO           DT           GR          ILD         NPHI         RHOB
# ...
   1256.3851      18.5740       0.3000     133.4100      81.3920       1.3830    -999.2500       2.3600
   1256.5375      18.3371       0.2975     133.0020      80.7092       1.3905    -999.2500       2.3600
   1256.6899      18.1000       0.2950     132.5950      80.0260       1.3980    -999.2500       2.3600
   1256.8423      18.1055       0.2775     130.6665      78.7234       1.4115    -999.2500       2.3585
   1256.9948      18.1110       0.2600     128.7430      77.4200       1.4250    -999.2500       2.3570
   1257.1471      18.1470       0.2615     126.4673      76.1665       1.4380    -999.2500       2.3520
   1257.2996      18.1830       0.2630     124.1990      74.9120       1.4510    -999.2500       2.3470
   1257.4519      18.2690       0.2765     123.0974      73.3027       1.4790    -999.2500       2.3410
   1257.6042      18.3550       0.2900     122.0000      71.6920       1.5070    -999.2500       2.3350
   1257.7567      18.4624       0.2860     122.0396      69.3212       1.5575    -999.2500       2.3075
   1257.9091      18.5700       0.2820     122.0790      66.9480       1.6080    -999.2500       2.2800
   1258.0615      18.4551       0.2660     123.1129      63.7908       1.6890    -999.2500       2.2815
   1258.2139      18.3400       0.2500     124.1430      60.6300       1.7700    -999.2500       2.2830
   1258.3663      18.4649       0.2550     129.7213      61.4415       1.7645    -999.2500       2.2880
   1258.5187      18.5900       0.2600     135.2800      62.2540       1.7590    -999.2500       2.2930
   1258.6711      18.5845       0.2550     135.0932      65.4702       1.7335    -999.2500       2.2980
   1258.8235      18.5790       0.2500     134.9070      68.6910       1.7080    -999.2500       2.3030
   1258.9760      18.5295       0.2515     133.9780      71.8393       1.6615    -999.2500       2.3165
   1259.1283      18.4800       0.2530     133.0520      74.9900       1.6150    -999.2500       2.3300
   1259.2806      18.4815       0.2580     130.6758      74.9800       1.5226    -999.2500       2.3250
   1259.4331      18.4830       0.2630     128.3070      74.9700       1.4300    -999.2500       2.3200
   1259.5854      18.5165       0.2715     123.0356      75.0440       1.4340    -999.2500       2.3300
   1259.7379      18.5500       0.2800     117.7800      75.1180       1.4380    -999.2500       2.3400
   1259.8903      18.5445       0.2785     119.5320      75.4064       1.4570    -999.2500       2.3350
   1260.0427      18.5390       0.2770     121.2790      75.6950       1.4760    -999.2500       2.3300
   1260.1951      18.5155       0.2685     129.3206      75.9439       1.5055    -999.2500       2.3350
   1260.3475      18.4920       0.2600     137.3400      76.1930       1.5350    -999.2500       2.3400
   1260.4999      18.3760       0.2615     136.9345      76.4364       1.5630    -999.2500       2.3350
   1260.6523      18.2600       0.2630     136.5300      76.6800       1.5910    -999.2500       2.3300
   1260.8047      18.3100       0.2665     129.4561      76.6025       1.6095    -999.2500       2.3300
   1260.9572      18.3600       0.2700     122.4000      76.5250       1.6280    -999.2500       2.3300
   1261.1095      18.3360       0.2685     122.5698      76.1427       1.6415    -999.2500       2.3300
   1261.2618      18.3120       0.2670     122.7390      75.7600       1.6550    -999.2500       2.3300
   1261.4143      18.1661       0.2585     123.4879      76.1948       1.6665    -999.2500       2.3250
   1261.5667      18.0200       0.2500     124.2340      76.6300       1.6780    -999.2500       2.3200
   1261.7191      18.0225       0.2500     125.0886      76.4731       1.6905    -999.2500       2.3200
   1261.8715      18.0250       0.2500     125.9400      76.3160       1.7030    -999.2500       2.3200
   1262.0239      18.0325       0.2525     125.7006      75.1337       1.7090    -999.2500       2.3225
   1262.1763      18.0400       0.2550     125.4620      73.9500       1.7150    -999.2500       2.3250
   1262.3287      18.0400       0.2625     124.6646      74.2558       1.7250    -999.2500       2.3340
   1262.4811      18.0400       0.2700     123.8700      74.5620       1.7350    -999.2500       2.3430
   1262.6335      18.0400       0.2715     125.7932      75.6782       1.7440    -999.2500       2.3505
   1262.7859      18.0400       0.2730     127.7100      76.7960       1.7530    -999.2500       2.3580
   1262.9384      18.0375       0.2765     127.4786      78.5716       1.7605    -999.2500       2.3705
   1263.0907      18.0350       0.2800     127.2480      80.3500       1.7680    -999.2500       2.3830
   1263.2430      18.0250       0.2800     126.2565      80.0861       1.7830    -999.2500       2.3880
   1263.3955      18.0150       0.2800     125.2680      79.8220       1.7980    -999.2500       2.3930
   1263.5479      18.0050       0.2815     124.0091      78.7361       1.8190    -999.2500       2.3980
   1263.7003      17.9950       0.2830     122.7540      77.6500       1.8400    -999.2500       2.4030
   1263.8527      17.9820       0.2865     120.7041      78.2249       1.8345    -999.2500       2.4115
   1264.0051      17.9690       0.2900     118.6600      78.8000       1.8290    -999.2500       2.4200
   1264.1575      17.9410       0.2900     118.9369      78.6011       1.8095    -999.2500       2.4185
   1264.3099      17.9130       0.2900     119.2130      78.4020       1.7900    -999.2500       2.4170
   1264.4623      17.8465       0.2900     121.2992      77.7327       1.7970    -999.2500       2.4035
   1264.6147      17.7800       0.2900     123.3800      77.0630       1.8040    -999.2500       2.3900
   1264.7671      17.7855       0.2850     123.1707      76.3428       1.8325    -999.2500       2.3900
   1264.9196      17.7910       0.2800     122.9620      75.6220       1.8610    -999.2500       2.3900
   1265.0719      17.8080       0.2800     121.4987      72.6173       1.8975    -999.2500       2.3900
   1265.2242      17.8250       0.2800     120.0400      69.6100       1.9340    -999.2500       2.3900
   1265.3767      17.8325       0.2800     120.0901      69.7634       1.9650    -999.2500       2.3850
   1265.5291      17.8400       0.2800     120.1400      69.9170       1.9960    -999.2500       2.3800
   1265.6815      17.8645       0.2825     119.9792      70.6201       2.0580    -999.2500       2.3800
   1265.8339      17.8890       0.2850     119.8190      71.3240       2.1200    -999.2500       2.3800
   1265.9863      17.9924       0.2925     119.0892      72.3349       2.1175    -999.2500       2.3840
   1266.1387      18.0960       0.3000     118.3620      73.3470       2.1150    -999.2500       2.3880
   1266.2911      18.2429       0.3100     116.9836      74.6776       2.1050    -999.2500       2.4005
   1266.4435      18.3900       0.3200     115.6100      76.0100       2.0950    -999.2500       2.4130
   1266.5959      18.2251       0.3175     115.9325      76.0000       2.0795    -999.2500       2.4165
   1266.7483      18.0600       0.3150     116.2540      75.9900       2.0640    -999.2500       2.4200
   1266.9008      18.1950       0.2975     117.2135      76.0275       2.0170    -999.2500       2.4150
   1267.0531      18.3300       0.2800     118.1700      76.0650       1.9700    -999.2500       2.4100
   1267.2054      18.2870       0.2815     116.8880      76.6232       1.9740    -999.2500       2.4200
   1267.3579      18.2440       0.2830     115.6100      77.1820       1.9780    -999.2500       2.4300
   1267.5103      18.1115       0.2865     115.9530      78.9108       2.0090    -999.2500       2.4285
   1267.6627      17.9790       0.2900     116.2950      80.6400       2.0400    -999.2500       2.4270
   1267.8151      17.8595       0.2885     118.5156      80.4850       2.0375    -999.2500       2.4210
   1267.9675      17.7400       0.2870     120.7300      80.3300       2.0350    -999.2500       2.4150
