#------------------------------------------------------------------------------
#
#   Created by  : [OpenWorks] Log Export Utility (LEXP)
#   Created on  : 2016-05-12 17:18:19
#   Project     : CANT971
#   User        : R5K
#   Interpreter : PEP
#
#------------------------------------------------------------------------------
~VERSION INFORMATION
VERS. 2.0 : CWLS Log ASCII Standard - version 2.0
WRAP.  NO : One line per depth step
~WELL INFORMATION
#MNEMONIC   .UNIT                                           VALUE :DESCRIPTION
#------------------------------------------------------------------------------
STRT        .M                                           134.7982 :START DEPTH
STOP        .M                                          2692.2227 :STOP DEPTH
STEP        .M                                             0.1524 :STEP
NULL        .                                           -999.2500 :NULL VALUE
COMP        .                                   PEMEX EXPL & PROD :COMPANY
WELL        .                                                 57A :WELL
FLD         .                                           CANTARELL :FIELD
LOC         .                                             UNKNOWN :LOCATION
CNTY        .                                      CD. DEL CARMEN :COUNTY
STAT        .                                            CAMPECHE :STATE
CTRY        .                                              MEXICO :COUNTRY
SRVC        .                                             UNKNOWN :SERVICE COMPANY
DATE        .                                             UNKNOWN :LOG DATE
UWI         .                                          3060000169 :UNIQUE WELL ID
XCOORD      .                                       602151.210000 :SURFACE X
YCOORD      .                                      2147168.830000 :SURFACE Y
LAT         .                                           19.417362 :LATITUDE
LON         .                                          -92.027041 :LONGITUDE
ELEV        .M                                            28.1700 :SURFACE ELEV
ELEV_TYPE   .                                                  KB :ELEV TYPE
~CURVE INFORMATION
#MNEMONIC.UNIT        API CODE       : CURVE DESCRIPTION
#------------------------------------------------------------------------------
DEPTH    .M                          : Measured Depth
CALI     .inches      UNKNOWN        : CALI:UNKNOWN:r1:MAIN:v1 
DRHO     .UNKNOWN     UNKNOWN        : DRHO:UNKNOWN:r1:MAIN:v1 
DT       .us/ft       UNKNOWN        : DT:UNKNOWN:r1:MAIN:v1 
GR       .API         UNKNOWN        : GR:GR:r1:MAIN:v1 
ILD      .UNKNOWN     UNKNOWN        : ILD:UNKNOWN:r1:MAIN:v1 
LLD      .UNKNOWN     UNKNOWN        : LLD:UNKNOWN:r1:MAIN:v1 
LLS      .UNKNOWN     UNKNOWN        : LLS:UNKNOWN:r1:MAIN:v1 
MSFL     .UNKNOWN     UNKNOWN        : MSFL:UNKNOWN:r1:MAIN:v1 
NORM     .UNKNOWN     UNKNOWN        : NORM:NORM-Load:r1:MAIN:v1 
NPHI     .v/v_decimal UNKNOWN        : NPHI:UNKNOWN:r1:MAIN:v1 
RHOB     .UNKNOWN     UNKNOWN        : RHOB:UNKNOWN:r1:MAIN:v1 
SP       .mV          UNKNOWN        : SP:PETROWORKS:rC:NONE:v1 
~A     DEPTH         CALI         DRHO           DT           GR          ILD          LLD          LLS         MSFL         NORM         NPHI         RHOB           SP
# ...
   2014.8046       7.7863       0.0475      63.4112      35.8728       0.2000    3060.5652    1228.4968      71.3086    -999.2500       0.1607       2.3623     142.5558
   2014.9570       7.7767       0.0440      63.6097      35.7635       0.2000    3811.8652    1338.3799      57.7049    -999.2500       0.1711       2.3442     142.1280
   2015.1094       7.8293       0.0344      62.7230      36.0070       0.2000    3941.8899    1361.3933      58.7934    -999.2500       0.1759       2.3262     141.7048
   2015.2618       7.9070       0.0224      61.3964      36.3934       0.2000    3820.0679    1349.1924      65.8376    -999.2500       0.1784       2.3081     141.2818
   2015.4142       7.9674       0.0158      61.1974      36.0437       0.2000    3523.1726    1312.0668      93.7731    -999.2500       0.1801       2.2980     141.4316
   2015.5667       8.0211       0.0113      61.4451      35.4024       0.2000    3156.9368    1265.0696     129.9830    -999.2500       0.1815       2.2910     141.5976
   2015.7190       7.9690       0.0093      60.4134      34.1850       0.2000    2617.5918    1198.7781     238.7111    -999.2500       0.1820       2.2952     141.8053
   2015.8715       7.8763       0.0083      58.8887      32.7456       0.2000    2011.5409    1125.0518     375.3835    -999.2500       0.1822       2.3037     142.0139
   2016.0238       7.9006       0.0127      58.7249      31.9130       0.2000    1764.2086    1036.0787     531.7527    -999.2500       0.1777       2.3140     142.0552
   2016.1763       7.9687       0.0193      59.0712      31.3088       0.2000    1651.3179     941.3917     695.5041    -999.2500       0.1714       2.3250     142.0943
   2016.3286       7.9084       0.0225      57.9390      31.0960       0.2000    1626.6080     897.2690     982.7771    -999.2500       0.1676       2.3313     142.0331
   2016.4810       7.8011       0.0245      56.2659      31.0263       0.2000    1634.1615     871.6464    1315.2438    -999.2500       0.1647       2.3358     141.9707
   2016.6334       7.7223       0.0224      56.5187      30.1688       0.2000    1642.0317     876.6349    1594.3918    -999.2500       0.1665       2.3218     141.8120
   2016.7858       7.6537       0.0189      57.4565      29.0311       0.2000    1650.0148     892.5092    1854.5795    -999.2500       0.1700       2.3013     141.6523
   2016.9382       7.7953       0.0117      58.8330      27.6126       0.2000    1589.8420     887.7081    1794.0425    -999.2500       0.1725       2.2871     141.8497
   2017.0906       8.0099       0.0031      60.3617      26.0970       0.2000    1506.0226     875.7339    1622.2302    -999.2500       0.1747       2.2750     142.0463
   2017.2430       8.0272      -0.0024      62.0378      25.4904       0.2000    1397.0724     832.2040    1002.8708    -999.2500       0.1754       2.2622     142.4304
   2017.3954       7.9781      -0.0069      63.7636      25.1900       0.2000    1279.6539     778.0409     232.7034    -999.2500       0.1756       2.2492     142.8091
   2017.5479       7.8999      -0.0031      64.4870      25.1183       0.2000    1205.8524     731.8987     111.5057    -999.2500       0.1722       2.2362     143.2259
   2017.7002       7.8122       0.0034      64.8824      25.1213       0.2000    1146.3192     688.3806     202.6048    -999.2500       0.1677       2.2232     143.6401
   2017.8527       7.8058       0.0080      62.4776      24.8661       0.2000    1173.4513     680.1859     324.4926    -999.2500       0.1638       2.2261     144.1526
   2018.0050       7.8254       0.0121      59.1799      24.5287       0.2000    1228.2146     683.2535     456.1967    -999.2500       0.1601       2.2341     144.6657
   2018.1575       7.7331       0.0115      57.6875      24.2782       0.2000    1424.0597     756.3066     732.1880    -999.2500       0.1561       2.2467     145.2032
   2018.3098       7.6063       0.0095      56.7535      24.0546       0.2000    1663.5350     851.0031    1052.8008    -999.2500       0.1520       2.2608     145.7483
   2018.4622       7.6368       0.0055      57.5999      24.2405       0.2000    1743.3851     866.8127    1208.6870    -999.2500       0.1519       2.2698     146.5809
   2018.6146       7.7144       0.0010      58.9802      24.5493       0.2000    1775.3766     858.9706    1315.1851    -999.2500       0.1531       2.2773     147.4234
   2018.7670       7.8527      -0.0027      60.8945      24.7979       0.2000    1573.1458     785.6656    1056.0648    -999.2500       0.1581       2.2782     148.5827
   2018.9194       8.0086      -0.0062      62.9648      25.0291       0.2000    1302.5563     693.2550     690.2372    -999.2500       0.1641       2.2772     149.7133
   2019.0718       7.9668      -0.0086      65.3810      25.1406       0.2000    1175.3098     602.4626     389.0600    -999.2500       0.1667       2.2618     150.0765
   2019.2242       7.8690      -0.0106      67.8949      25.2183       0.2000    1088.5818     512.1277     106.1573    -999.2500       0.1683       2.2422     150.4197
   2019.3766       7.8866      -0.0098      68.0497      25.6558       0.2000     882.5781     436.9702     100.8682    -999.2500       0.1683       2.2349     150.3006
   2019.5291       7.9357      -0.0083      67.5591      26.1923       0.2000     643.9391     365.9653     171.5373    -999.2500       0.1679       2.2308     150.1821
   2019.6814       7.7377      -0.0060      65.3565      26.7292       0.2000     558.1124     349.7632     592.3556    -999.2500       0.1581       2.2375     150.0748
   2019.8339       7.4739      -0.0035      62.6987      27.2662       0.2000     512.9282     348.1367    1106.3008    -999.2500       0.1457       2.2471     149.9596
   2019.9862       7.3965      -0.0018      61.2955      28.1964       0.2000     524.7455     365.1587    1166.3138    -999.2500       0.1418       2.2566     149.6993
   2020.1387       7.3669      -0.0003      60.2149      29.2278       0.2000     551.2203     386.9759    1109.6029    -999.2500       0.1400       2.2661     149.4675
   2020.2910       7.4625      -0.0004      60.1575      30.1380       0.2000     532.1368     380.4020     919.3945    -999.2500       0.1452       2.2680     149.7048
   2020.4434       7.5894      -0.0009      60.3555      31.0180       0.2000     501.6778     366.7391     695.8533    -999.2500       0.1520       2.2680     149.9503
   2020.5958       7.7477      -0.0010      60.6740      31.2549       0.2000     458.3631     340.0948     516.0046    -999.2500       0.1560       2.2510     150.3193
   2020.7482       7.9137      -0.0010      61.0214      31.3366       0.2000     411.9489     310.3207     346.6898    -999.2500       0.1594       2.2300     150.6661
   2020.9006       7.9133      -0.0002      60.4490      32.5893       0.2000     416.4141     308.9470     375.8781    -999.2500       0.1625       2.2207     150.7058
   2021.0530       7.8742       0.0008      59.6627      34.1144       0.2000     432.7143     314.1794     451.2398    -999.2500       0.1657       2.2142     150.7749
   2021.2054       7.6837       0.0043      58.7963      35.8573       0.2000     593.0195     366.2407    1227.0411    -999.2500       0.1624       2.2322     151.2224
   2021.3578       7.4591       0.0083      57.9118      37.6493       0.2000     785.7899     428.8593    2160.7524    -999.2500       0.1577       2.2558     151.6607
   2021.5103       7.3708       0.0131      58.5643      38.5993       0.2000     871.9748     523.0613    1917.9640    -999.2500       0.1551       2.2769     151.9904
   2021.6626       7.3121       0.0181      59.5505      39.3664       0.2000     935.0120     624.1224    1419.6697    -999.2500       0.1530       2.2974     152.2642
   2021.8151       7.3584       0.0227      62.2468      40.0988       0.2000    1009.3682     664.1045     991.9745    -999.2500       0.1542       2.3002     151.9244
   2021.9674       7.4265       0.0272      65.3006      40.8241       0.2000    1086.0901     691.3200     579.0357    -999.2500       0.1562       2.2992     151.5887
