#------------------------------------------------------------------------------
#
#   Created by  : [OpenWorks] Log Export Utility (LEXP)
#   Created on  : 2016-05-12 17:01:14
#   Project     : CANT971
#   User        : R5K
#   Interpreter : PEP
#
#------------------------------------------------------------------------------
~VERSION INFORMATION
VERS. 2.0 : CWLS Log ASCII Standard - version 2.0
WRAP.  NO : One line per depth step
~WELL INFORMATION
#MNEMONIC   .UNIT                                           VALUE :DESCRIPTION
#------------------------------------------------------------------------------
STRT        .M                                          1708.0991 :START DEPTH
STOP        .M                                          2834.0303 :STOP DEPTH
STEP        .M                                             0.1524 :STEP
NULL        .                                           -999.2500 :NULL VALUE
COMP        .                                             UNKNOWN :COMPANY
WELL        .                                                3016 :WELL
FLD         .                                           CANTARELL :FIELD
LOC         .                                             UNKNOWN :LOCATION
CNTY        .                                             UNKNOWN :COUNTY
STAT        .                                            CAMPECHE :STATE
CTRY        .                                              MEXICO :COUNTRY
SRVC        .                                             UNKNOWN :SERVICE COMPANY
DATE        .                                             UNKNOWN :LOG DATE
UWI         .                                                3016 :UNIQUE WELL ID
XCOORD      .                                       192548.498000 :SURFACE X
YCOORD      .                                        92151.948000 :SURFACE Y
LAT         .                                            0.832805 :LATITUDE
LON         .                                          -95.762171 :LONGITUDE
ELEV        .M                                            46.0000 :SURFACE ELEV
ELEV_TYPE   .                                                  KB :ELEV TYPE
~CURVE INFORMATION
#MNEMONIC.UNIT        API CODE       : CURVE DESCRIPTION
#------------------------------------------------------------------------------
DEPTH    .M                          : Measured Depth
CALI     .inches      UNKNOWN        : CALI:litodensidad:rC:NONE:v0 (auto-composite)
CGR      .API         UNKNOWN        : CGR:Espectrometria:rC:NONE:v0 (auto-composite)
DRHO     .g/cm3       UNKNOWN        : DRHO:litodensidad:rC:NONE:v0 (auto-composite)
DT       .us/ft       UNKNOWN        : DT:DT-Load:rC:NONE:v0 (auto-composite)
GR       .API         UNKNOWN        : GR:PETROWORKS:rC:NONE:v1 
GR-LWD   .API         UNKNOWN        : GR-LWD:PETROWORKS:rC:NONE:v1 
ILD-LWD  .ohm.m       UNKNOWN        : ILD-LWD:PETROWORKS:rC:NONE:v1 
ILM-LWD  .ohm.m       UNKNOWN        : ILM-LWD:PETROWORKS:rC:NONE:v1 
LLD      .ohm.m       UNKNOWN        : LLD:Resistivos:rC:NONE:v0 (auto-composite)
LLS      .ohm.m       UNKNOWN        : LLS:Resistivos:rC:NONE:v0 (auto-composite)
MSFL     .ohm.m       UNKNOWN        : MSFL:Resistivos:rC:NONE:v0 (auto-composite)
NPHI     .v/v_decimal UNKNOWN        : NPHI:Porosidad:rC:NONE:v0 (auto-composite)
PEF      .UNKNOWN     UNKNOWN        : PEF:litodensidad:rC:NONE:v0 (auto-composite)
POTA     .wtpercent   UNKNOWN        : POTA:Espectrometria:rC:NONE:v0 (auto-composite)
RHOB     .g/cm3       UNKNOWN        : RHOB:litodensidad:rC:NONE:v0 (auto-composite)
SP       .mV          UNKNOWN        : SP:SP-Load:rC:NONE:v0 (auto-composite)
THOR     .ppm         UNKNOWN        : THOR:Espectrometria:rC:NONE:v0 (auto-composite)
URAN     .ppm         UNKNOWN        : URAN:Espectrometria:rC:NONE:v0 (auto-composite)
~A     DEPTH         CALI          CGR         DRHO           DT           GR       GR-LWD      ILD-LWD      ILM-LWD          LLD          LLS         MSFL         NPHI          PEF         POTA         RHOB           SP         THOR         URAN
# ...
   2729.0266       8.5917       3.8684       0.0029      59.4903      21.8723    -999.2500    -999.2500    -999.2500     438.7615     201.6790      52.7500       0.0590       2.7570       0.0013       2.6989     -46.0000       0.4854       2.0714
   2729.1792       8.5730       4.4194       0.0008      60.3454      27.3618    -999.2500    -999.2500    -999.2500     391.0114     176.8606      49.7088       0.0638       3.1370       0.0014       2.6765     -46.0000       0.6144       2.7307
   2729.3315       8.6449       4.8498      -0.0031      60.8771      34.9621    -999.2500    -999.2500    -999.2500     334.5711     175.6694      40.0679       0.0665       3.1324       0.0014       2.6514     -46.1250       0.7392       3.6189
   2729.4839       8.6521       5.9193      -0.0022      61.1852      38.4666    -999.2500    -999.2500    -999.2500     295.8435     183.1894     106.8413       0.0820       3.0136       0.0017       2.6596     -47.0000       0.8962       3.8494
   2729.6362       8.6664       6.0148      -0.0002      60.1885      35.3800    -999.2500    -999.2500    -999.2500     294.8704     184.7194     183.1155       0.0943       3.0344       0.0015       2.6618     -47.3750       1.0580       3.4992
   2729.7888       8.6434       4.9598      -0.0038      62.3886      30.3404    -999.2500    -999.2500    -999.2500     272.4725     172.0584     120.3612       0.1023       2.9153       0.0011       2.6561     -48.2500       0.9188       3.0466
   2729.9412       8.5802       4.7622      -0.0018      61.3731      27.0143    -999.2500    -999.2500    -999.2500     203.7377     119.3794      86.3761       0.0993       3.0053       0.0012       2.6506     -48.2500       0.8268       2.6882
   2730.0935       8.5802       3.2167      -0.0016      61.8844      22.8104    -999.2500    -999.2500    -999.2500     163.1506      90.0534      63.1672       0.0989       2.9912       0.0010       2.6379     -48.3125       0.4726       2.3722
   2730.2458       8.6089       2.2748      -0.0011      64.4849      18.9697    -999.2500    -999.2500    -999.2500     148.6699      82.3211      39.2803       0.1015       3.0898       0.0005       2.6307     -49.0625       0.4502       2.0909
   2730.3984       8.6089       2.1915      -0.0002      64.7259      17.5579    -999.2500    -999.2500    -999.2500     147.8930      82.2373      35.4464       0.1077       3.1218       0.0005       2.6304     -50.0000       0.4007       1.9342
   2730.5508       8.6017       1.9162      -0.0001      65.3588      17.3262    -999.2500    -999.2500    -999.2500     156.7626      91.4868      63.0650       0.1140       3.0951       0.0005       2.6254     -52.1250       0.3165       1.9351
   2730.7031       8.6089       1.7839      -0.0009      64.7772      16.9679    -999.2500    -999.2500    -999.2500     178.5699     113.4792      63.7819       0.1124       3.1521       0.0004       2.6250     -51.9375       0.3232       1.9245
   2730.8555       8.5945       1.5262      -0.0005      65.2538      15.9173    -999.2500    -999.2500    -999.2500     202.1645     129.4852     121.4735       0.1118       3.1869       0.0002       2.6304     -55.8125       0.3433       1.7562
   2731.0078       8.6089       2.0042       0.0035      64.9804      15.9917    -999.2500    -999.2500    -999.2500     221.3953     135.4201     140.3389       0.1100       3.0965       0.0005       2.6330     -57.8125       0.3313       1.7095
   2731.1604       8.6262       1.5600       0.0024      63.6102      15.7764    -999.2500    -999.2500    -999.2500     230.9742     130.2017     153.9087       0.1079       3.0813       0.0004       2.6306     -58.0625       0.2449       1.7459
   2731.3127       8.6377       1.0840       0.0063      62.2761      15.1438    -999.2500    -999.2500    -999.2500     262.8885     128.1111      71.9827       0.1023       3.0005       0.0004       2.6253     -58.0000       0.0947       1.7271
   2731.4651       8.6161       1.4034       0.0056      63.4531      13.4321    -999.2500    -999.2500    -999.2500     282.9352     132.2567      76.7361       0.0975       3.0440       0.0007       2.6284     -58.0000       0.0629       1.4574
   2731.6174       8.6089       1.2547       0.0077      63.8546      14.9252    -999.2500    -999.2500    -999.2500     290.9169     136.0298      67.6675       0.0988       3.1047       0.0006       2.6363     -58.0000       0.0727       1.6664
   2731.7700       8.5083       1.1548       0.0060      65.2834      18.4048    -999.2500    -999.2500    -999.2500     316.0131     140.2005     101.8373       0.0964       3.1623       0.0005       2.6397     -56.6250       0.0749       2.1102
   2731.9224       8.5859       1.8080       0.0062      65.9118      23.0195    -999.2500    -999.2500    -999.2500     348.7086     145.5362      30.5813       0.1004       3.2388       0.0009       2.6421     -57.2500       0.0699       2.5716
   2732.0747       8.6089       2.6636       0.0004      65.9143      25.0718    -999.2500    -999.2500    -999.2500     383.4202     156.8274      74.3092       0.1027       3.1940       0.0013       2.6378     -57.9375       0.1154       2.7170
   2732.2271       8.6161       2.8702       0.0011      64.7226      25.5931    -999.2500    -999.2500    -999.2500     432.0732     185.8022     139.2574       0.1061       3.2033       0.0014       2.6368     -56.5000       0.0775       2.7697
   2732.3796       8.6161       3.0705       0.0026      63.8346      25.0361    -999.2500    -999.2500    -999.2500     529.4653     256.8003      80.9528       0.1036       3.3087       0.0015       2.6311     -55.2500       0.0886       2.6881
   2732.5320       8.5083       2.9482       0.0032      63.0763      22.3649    -999.2500    -999.2500    -999.2500     609.4945     391.2481     247.4725       0.1014       3.2787       0.0016       2.6374     -53.8750       0.0309       2.3626
   2732.6843       8.5169       2.6812       0.0091      62.4559      19.5972    -999.2500    -999.2500    -999.2500     581.3332     390.5981     163.6960       0.1030       3.2861       0.0012       2.6589     -53.2500       0.1631       2.0635
   2732.8367       8.5442       2.6932       0.0219      63.2205      17.1294    -999.2500    -999.2500    -999.2500     496.6436     286.7973     130.5007       0.0975       3.1921       0.0012       2.6923     -49.8750       0.1401       1.7745
   2732.9890       8.5370       2.5670       0.0350      63.6673      16.8206    -999.2500    -999.2500    -999.2500     410.9843     203.7516     219.6512       0.0899       3.1668       0.0012       2.7099     -49.3750       0.1248       1.7554
   2733.1416       8.5442       2.0574       0.0517      64.5020      17.8917    -999.2500    -999.2500    -999.2500     343.4969     167.3126      24.0680       0.0853       3.0844       0.0009       2.6884     -48.9375       0.1371       1.9218
   2733.2939       8.5730       2.3338       0.0488      63.8359      18.1582    -999.2500    -999.2500    -999.2500     331.3041     158.5677      17.0882       0.0871       2.9123       0.0008       2.6806     -48.7500       0.2760       1.9119
   2733.4463       8.5442       2.8119       0.0444      63.1260      18.7571    -999.2500    -999.2500    -999.2500     341.7282     173.7482      32.4579       0.0923       2.9508       0.0010       2.6973     -48.2500       0.3054       1.9638
   2733.5986       8.5859       2.6278       0.0456      61.0296      18.7235    -999.2500    -999.2500    -999.2500     372.9905     204.0604      60.9996       0.0871       2.8997       0.0009       2.7481     -48.2500       0.3279       2.0299
   2733.7512       8.5658       2.5555       0.0479      59.7863      17.8464    -999.2500    -999.2500    -999.2500     416.5965     247.7532      94.0328       0.0794       3.0627       0.0010       2.7770     -47.1250       0.2594       1.9307
   2733.9036       8.5730       2.1037       0.0134      58.8151      17.1240    -999.2500    -999.2500    -999.2500     463.9499     246.2258      98.5404       0.0846       2.8354       0.0007       2.7261     -46.1250       0.2573       1.9173
