#------------------------------------------------------------------------------
#
#   Created by  : [OpenWorks] Log Export Utility (LEXP)
#   Created on  : 2016-05-23 11:55:46
#   Project     : CANT971
#   User        : R5K
#   Interpreter : PEP
#
#------------------------------------------------------------------------------
~VERSION INFORMATION
VERS. 2.0 : CWLS Log ASCII Standard - version 2.0
WRAP.  NO : One line per depth step
~WELL INFORMATION
#MNEMONIC   .UNIT                                           VALUE :DESCRIPTION
#------------------------------------------------------------------------------
STRT        .M                                           325.5260 :START DEPTH
STOP        .M                                          2414.9299 :STOP DEPTH
STEP        .M                                             0.1524 :STEP
NULL        .                                           -999.2500 :NULL VALUE
COMP        .                                   PEMEX EXPL & PROD :COMPANY
WELL        .                                                   4 :WELL
FLD         .                                           CANTARELL :FIELD
LOC         .                                             UNKNOWN :LOCATION
CNTY        .                                      CD. DEL CARMEN :COUNTY
STAT        .                                            CAMPECHE :STATE
CTRY        .                                              MEXICO :COUNTRY
SRVC        .                                             UNKNOWN :SERVICE COMPANY
DATE        .                                             UNKNOWN :LOG DATE
UWI         .                                          3060000140 :UNIQUE WELL ID
XCOORD      .                                       598455.270000 :SURFACE X
YCOORD      .                                      2145027.190000 :SURFACE Y
LAT         .                                           19.398194 :LATITUDE
LON         .                                          -92.062351 :LONGITUDE
ELEV        .M                                            26.5400 :SURFACE ELEV
ELEV_TYPE   .                                                  KB :ELEV TYPE
~CURVE INFORMATION
#MNEMONIC.UNIT        API CODE       : CURVE DESCRIPTION
#------------------------------------------------------------------------------
DEPTH    .M                          : Measured Depth
CALI     .inches      UNKNOWN        : CALI:Import:rC:NONE:v0 (auto-composite)
CGR      .API         UNKNOWN        : CGR:Import:rC:NONE:v0 (auto-composite)
DRHO     .g/cm3       UNKNOWN        : DRHO:Import:rC:NONE:v0 (auto-composite)
DT       .us/ft       UNKNOWN        : DT:Import:rC:NONE:v0 (auto-composite)
GR       .API         UNKNOWN        : GR:Import:rC:NONE:v0 (auto-composite)
ILD      .ohm.m       UNKNOWN        : ILD:Import:rC:NONE:v0 (auto-composite)
LLD      .ohm.m       UNKNOWN        : LLD:Import:rC:NONE:v0 (auto-composite)
LLS      .ohm.m       UNKNOWN        : LLS:Import:rC:NONE:v0 (auto-composite)
MSFL     .ohm.m       UNKNOWN        : MSFL:Import:rC:NONE:v0 (auto-composite)
NPHI     .v/v_decimal UNKNOWN        : NPHI:Import:rC:NONE:v0 (auto-composite)
POTA     .wtpercent   UNKNOWN        : POTA:Import:rC:NONE:v0 (auto-composite)
RHOB     .g/cm3       UNKNOWN        : RHOB:Import:rC:NONE:v0 (auto-composite)
THOR     .ppm         UNKNOWN        : THOR:Import:rC:NONE:v0 (auto-composite)
URAN     .ppm         UNKNOWN        : URAN:Import:rC:NONE:v0 (auto-composite)
~A     DEPTH         CALI          CGR         DRHO           DT           GR          ILD          LLD          LLS         MSFL         NPHI         POTA         RHOB         THOR         URAN
# ...
   2092.1467      10.5510    -999.2500       0.0120      71.4270      61.6250    -999.2500      15.6320      15.5190      13.1430       0.1738    -999.2500       2.5600    -999.2500    -999.2500
   2092.2993      10.5305    -999.2500       0.0015      69.6296      61.3498    -999.2500      14.2127      14.2529      13.4603       0.1777    -999.2500       2.5440    -999.2500    -999.2500
   2092.4517      10.5100    -999.2500      -0.0090      67.8410      61.0750    -999.2500      12.7980      12.9890      13.7770       0.1782    -999.2500       2.5280    -999.2500    -999.2500
   2092.6040      10.3738    -999.2500      -0.0090      68.0600      57.6293    -999.2500      14.7461      14.5522      18.1399       0.1741    -999.2500       2.5450    -999.2500    -999.2500
   2092.7563      10.2380    -999.2500      -0.0090      68.2780      54.1890    -999.2500      16.6880      16.1130      22.4960       0.1682    -999.2500       2.5620    -999.2500    -999.2500
   2092.9087      10.1749    -999.2500      -0.0045      68.4404      49.5677    -999.2500      20.2689      19.0301      17.9557       0.1598    -999.2500       2.5430    -999.2500    -999.2500
   2093.0613      10.1120    -999.2500       0.0000      68.6020      44.9530    -999.2500      23.8390      21.9430      13.4220       0.1465    -999.2500       2.5240    -999.2500    -999.2500
   2093.2136      10.1040    -999.2500      -0.0095      65.8007      45.4083    -999.2500      27.2675      24.1773      16.5591       0.1262    -999.2500       2.5310    -999.2500    -999.2500
   2093.3660      10.0960    -999.2500      -0.0190      63.0120      45.8630    -999.2500      30.6860      26.4050      19.6870       0.1023    -999.2500       2.5380    -999.2500    -999.2500
   2093.5183      10.0935    -999.2500      -0.0145      59.8846      43.4175    -999.2500      38.1554      31.4470      30.1626       0.0733    -999.2500       2.5725    -999.2500    -999.2500
   2093.6709      10.0910    -999.2500      -0.0100      56.7710      40.9750    -999.2500      45.6040      36.4750      40.6090       0.0497    -999.2500       2.6070    -999.2500    -999.2500
   2093.8232      10.0364    -999.2500      -0.0055      55.6712      39.5277    -999.2500      62.2607      46.4337      50.8872       0.0339    -999.2500       2.6215    -999.2500    -999.2500
   2093.9756       9.9820    -999.2500      -0.0010      54.5760      38.0820    -999.2500      78.8730      56.3660      61.1380       0.0240    -999.2500       2.6360    -999.2500    -999.2500
   2094.1279       9.8999    -999.2500       0.0015      55.4553      36.4012    -999.2500      78.0465      59.8684      84.0435       0.0228    -999.2500       2.6355    -999.2500    -999.2500
   2094.2805       9.8180    -999.2500       0.0040      56.3310      34.7220    -999.2500      77.2220      63.3620     106.8910       0.0243    -999.2500       2.6350    -999.2500    -999.2500
   2094.4329       9.8530    -999.2500       0.0005      57.8205      32.5271    -999.2500      72.1434      59.4037      66.5299       0.0298    -999.2500       2.6220    -999.2500    -999.2500
   2094.5852       9.8880    -999.2500      -0.0030      59.3040      30.3340    -999.2500      67.0770      55.4550      26.2660       0.0355    -999.2500       2.6090    -999.2500    -999.2500
   2094.7375       9.8690    -999.2500      -0.0060      58.8757      28.6194    -999.2500      60.5200      50.5339      26.6960       0.0416    -999.2500       2.5850    -999.2500    -999.2500
   2094.8899       9.8500    -999.2500      -0.0090      58.4490      26.9060    -999.2500      53.9780      45.6240      27.1250       0.0467    -999.2500       2.5610    -999.2500    -999.2500
   2095.0425       9.8094    -999.2500      -0.0055      58.0658      23.8227    -999.2500      51.9243      43.5077      16.1597       0.0503    -999.2500       2.5535    -999.2500    -999.2500
   2095.1948       9.7690    -999.2500      -0.0020      57.6840      20.7460    -999.2500      49.8750      41.3960       5.2180       0.0532    -999.2500       2.5460    -999.2500    -999.2500
   2095.3472       9.7244    -999.2500      -0.0050      58.6132      23.4993    -999.2500      53.1294      43.9020      13.1946       0.0549    -999.2500       2.5600    -999.2500    -999.2500
   2095.4995       9.6800    -999.2500      -0.0080      59.5390      26.2470    -999.2500      56.3720      46.4030      21.1550       0.0545    -999.2500       2.5740    -999.2500    -999.2500
   2095.6521       9.7852    -999.2500      -0.0040      59.0217      29.2944    -999.2500      58.5498      48.0210      32.3207       0.0511    -999.2500       2.5910    -999.2500    -999.2500
   2095.8044       9.8900    -999.2500       0.0000      58.5070      32.3360    -999.2500      60.7200      49.6360      43.4650       0.0453    -999.2500       2.6080    -999.2500    -999.2500
   2095.9568       9.9882    -999.2500      -0.0045      57.4449      30.2191    -999.2500      59.7609      48.8673      47.4470       0.0362    -999.2500       2.6190    -999.2500    -999.2500
   2096.1091      10.0860    -999.2500      -0.0090      56.3880      28.1060    -999.2500      58.8050      48.1000      51.4220       0.0283    -999.2500       2.6300    -999.2500    -999.2500
   2096.2617      10.0054    -999.2500      -0.0020      56.0793      25.7721    -999.2500      63.8537      52.3215      49.0846       0.0225    -999.2500       2.6590    -999.2500    -999.2500
   2096.4141       9.9250    -999.2500       0.0050      55.7720      23.4420    -999.2500      68.8860      56.5360      46.7510       0.0194    -999.2500       2.6880    -999.2500    -999.2500
   2096.5664       9.8098    -999.2500       0.0135      56.3875      22.4713    -999.2500      72.9288      60.6186      45.9424       0.0205    -999.2500       2.6770    -999.2500    -999.2500
   2096.7188       9.6950    -999.2500       0.0220      57.0000      21.5020    -999.2500      76.9590      64.6950      45.1350       0.0231    -999.2500       2.6660    -999.2500    -999.2500
   2096.8711       9.7481    -999.2500       0.0065      57.8610      22.8089    -999.2500      74.8413      62.9833      39.9073       0.0278    -999.2500       2.6390    -999.2500    -999.2500
   2097.0237       9.8010    -999.2500      -0.0090      58.7180      24.1140    -999.2500      72.7300      61.2740      34.6870       0.0318    -999.2500       2.6120    -999.2500    -999.2500
   2097.1760       9.8536    -999.2500      -0.0090      59.4481      23.9049    -999.2500      71.0311      59.6752      36.5141       0.0348    -999.2500       2.6165    -999.2500    -999.2500
   2097.3284       9.9060    -999.2500      -0.0090      60.1750      23.6960    -999.2500      69.3370      58.0810      38.3360       0.0368    -999.2500       2.6210    -999.2500    -999.2500
   2097.4807       9.8845    -999.2500      -0.0025      61.0379      22.6364    -999.2500      74.9187      62.1206      58.6490       0.0372    -999.2500       2.6145    -999.2500    -999.2500
   2097.6333       9.8630    -999.2500       0.0040      61.8970      21.5780    -999.2500      80.4850      66.1490      78.9060       0.0365    -999.2500       2.6080    -999.2500    -999.2500
   2097.7856       9.8159    -999.2500       0.0020      62.1906      21.1843    -999.2500      88.1876      72.0798      60.9739       0.0339    -999.2500       2.5980    -999.2500    -999.2500
   2097.9380       9.7690    -999.2500       0.0000      62.4830      20.7910    -999.2500      95.8700      77.9950      43.0890       0.0309    -999.2500       2.5880    -999.2500    -999.2500
   2098.0903       9.7264    -999.2500      -0.0010      61.3827      21.0551    -999.2500     107.0440      87.1630      53.8885       0.0272    -999.2500       2.5930    -999.2500    -999.2500
   2098.2429       9.6840    -999.2500      -0.0020      60.2870      21.3190    -999.2500     118.1900      96.3080      64.6610       0.0247    -999.2500       2.5980    -999.2500    -999.2500
   2098.3953       9.6409    -999.2500      -0.0030      58.9393      22.0763    -999.2500     114.7414      94.5870      63.3925       0.0242    -999.2500       2.6045    -999.2500    -999.2500
