#------------------------------------------------------------------------------
#
#   Created by  : [OpenWorks] Log Export Utility (LEXP)
#   Created on  : 2016-05-23 11:55:58
#   Project     : CANT971
#   User        : R5K
#   Interpreter : PEP
#
#------------------------------------------------------------------------------
~VERSION INFORMATION
VERS. 2.0 : CWLS Log ASCII Standard - version 2.0
WRAP.  NO : One line per depth step
~WELL INFORMATION
#MNEMONIC   .UNIT                                           VALUE :DESCRIPTION
#------------------------------------------------------------------------------
STRT        .M                                           646.6334 :START DEPTH
STOP        .M                                          2755.8494 :STOP DEPTH
STEP        .M                                             0.1524 :STEP
NULL        .                                           -999.2500 :NULL VALUE
COMP        .                                   PEMEX EXPL & PROD :COMPANY
WELL        .                                                  42 :WELL
FLD         .                                           CANTARELL :FIELD
LOC         .                                             UNKNOWN :LOCATION
CNTY        .                                      CD. DEL CARMEN :COUNTY
STAT        .                                            CAMPECHE :STATE
CTRY        .                                              MEXICO :COUNTRY
SRVC        .                                             UNKNOWN :SERVICE COMPANY
DATE        .                                             UNKNOWN :LOG DATE
UWI         .                                          3060000464 :UNIQUE WELL ID
XCOORD      .                                       599690.710000 :SURFACE X
YCOORD      .                                      2143036.470000 :SURFACE Y
LAT         .                                           19.380144 :LATITUDE
LON         .                                          -92.050691 :LONGITUDE
ELEV        .M                                            26.7400 :SURFACE ELEV
ELEV_TYPE   .                                                  KB :ELEV TYPE
~CURVE INFORMATION
#MNEMONIC.UNIT        API CODE       : CURVE DESCRIPTION
#------------------------------------------------------------------------------
DEPTH    .M                          : Measured Depth
CALI     .inches      UNKNOWN        : CALI:Import:rC:NONE:v0 (auto-composite)
DRHO     .g/cm3       UNKNOWN        : DRHO:Import:rC:NONE:v0 (auto-composite)
DT       .us/ft       UNKNOWN        : DT:Import:rC:NONE:v0 (auto-composite)
GR       .API         UNKNOWN        : GR:Import:rC:NONE:v0 (auto-composite)
ILD      .ohm.m       UNKNOWN        : ILD:Import:rC:NONE:v0 (auto-composite)
ILM      .ohm.m       UNKNOWN        : ILM:Import:rC:NONE:v0 (auto-composite)
LLD      .ohm.m       UNKNOWN        : LLD:Import:rC:NONE:v0 (auto-composite)
LLS      .ohm.m       UNKNOWN        : LLS:Import:rC:NONE:v0 (auto-composite)
MSFL     .ohm.m       UNKNOWN        : MSFL:Import:rC:NONE:v0 (auto-composite)
NPHI     .v/v_decimal UNKNOWN        : NPHI:Import:rC:NONE:v0 (auto-composite)
PEF      .b/elec      UNKNOWN        : PEF:Import:rC:NONE:v0 (auto-composite)
RHOB     .g/cm3       UNKNOWN        : RHOB:Import:rC:NONE:v0 (auto-composite)
~A     DEPTH         CALI         DRHO           DT           GR          ILD          ILM          LLD          LLS         MSFL         NPHI          PEF         RHOB
# ...
   1992.6301      17.0075      -0.0025    -999.2500      45.5550    -999.2500    -999.2500      70.6971      40.9179      62.0333       0.0734       3.2520       2.6735
   1992.7826      16.9990      -0.0040    -999.2500      44.8510    -999.2500    -999.2500      75.6380      42.4330      68.9250       0.0764       3.2680       2.6640
   1992.9349      16.9935      -0.0045    -999.2500      43.9558    -999.2500    -999.2500      79.9584      43.6647      73.0436       0.0785       3.2615       2.6540
   1993.0874      16.9880      -0.0050    -999.2500      43.0580    -999.2500    -999.2500      84.2880      44.8990      77.1710       0.0803       3.2550       2.6440
   1993.2397      16.9860      -0.0050    -999.2500      42.4749    -999.2500    -999.2500      83.4861      44.6207      73.0070       0.0815       3.3051       2.6445
   1993.3922      16.9840      -0.0050    -999.2500      41.8900    -999.2500    -999.2500      82.6830      44.3420      68.8370       0.0826       3.3550       2.6450
   1993.5446      16.9815      -0.0055    -999.2500      42.1131    -999.2500    -999.2500      79.2362      43.2953      64.5969       0.0828       3.4006       2.6495
   1993.6970      16.9790      -0.0060    -999.2500      42.3370    -999.2500    -999.2500      75.7840      42.2470      60.3500       0.0833       3.4460       2.6540
   1993.8494      16.9740      -0.0080    -999.2500      43.8705    -999.2500    -999.2500      73.4010      41.3962      57.7312       0.0855       3.3052       2.6570
   1994.0017      16.9690      -0.0100    -999.2500      45.4090    -999.2500    -999.2500      71.0140      40.5440      55.1080       0.0877       3.1650       2.6600
   1994.1542      16.9690      -0.0100    -999.2500      45.4050    -999.2500    -999.2500      71.7004      40.8252      57.9404       0.0881       3.2216       2.6520
   1994.3065      16.9690      -0.0100    -999.2500      45.4010    -999.2500    -999.2500      72.3880      41.1070      60.7780       0.0880       3.2780       2.6440
   1994.4590      16.9720      -0.0075    -999.2500      43.7315    -999.2500    -999.2500      77.4361      42.9327      67.2931       0.0875       3.2780       2.6440
   1994.6113      16.9750      -0.0050    -999.2500      42.0560    -999.2500    -999.2500      82.4940      44.7620      73.8210       0.0865       3.2780       2.6440
   1994.7638      16.9820      -0.0050    -999.2500      41.5699    -999.2500    -999.2500      91.8407      47.6735     107.9014       0.0831       3.1908       2.6530
   1994.9161      16.9890      -0.0050    -999.2500      41.0820    -999.2500    -999.2500     101.2070      50.5910     142.0530       0.0797       3.1040       2.6620
   1995.0686      16.9890      -0.0055    -999.2500      40.7780    -999.2500    -999.2500     106.3333      51.7887     142.0085       0.0776       2.9842       2.6775
   1995.2209      16.9890      -0.0060    -999.2500      40.4730    -999.2500    -999.2500     111.4710      52.9890     141.9640       0.0752       2.8650       2.6930
   1995.3734      16.9885      -0.0070    -999.2500      39.3009    -999.2500    -999.2500     115.4823      53.6312     123.6469       0.0698       2.8660       2.6930
   1995.5258      16.9880      -0.0080    -999.2500      38.1260    -999.2500    -999.2500     119.5030      54.2750     105.2870       0.0648       2.8670       2.6930
   1995.6782      16.9915      -0.0085    -999.2500      37.3549    -999.2500    -999.2500     125.3483      55.4795     105.4089       0.0638       2.9612       2.6875
   1995.8306      16.9950      -0.0090    -999.2500      36.5820    -999.2500    -999.2500     131.2080      56.6870     105.5310       0.0644       3.0550       2.6820
   1995.9829      16.9950      -0.0090    -999.2500      36.4537    -999.2500    -999.2500     139.5067      58.5281     133.7649       0.0670       3.1758       2.6489
   1996.1354      16.9950      -0.0090    -999.2500      36.3250    -999.2500    -999.2500     147.8270      60.3740     162.0720       0.0701       3.2960       2.6160
   1996.2877      16.9935      -0.0075    -999.2500      35.7598    -999.2500    -999.2500     164.6202      63.0728     161.9467       0.0733       3.3281       2.6180
   1996.4402      16.9920      -0.0060    -999.2500      35.1930    -999.2500    -999.2500     181.4590      65.7790     161.8210       0.0768       3.3600       2.6200
   1996.5925      16.9745      -0.0020    -999.2500      32.5088    -999.2500    -999.2500     181.4121      65.7690     128.1833       0.0817       3.3204       2.6200
   1996.7450      16.9570       0.0020    -999.2500      29.8170    -999.2500    -999.2500     181.3650      65.7590      94.4500       0.0862       3.2810       2.6200
   1996.8973      16.9690       0.0075    -999.2500      29.8210    -999.2500    -999.2500     177.6765      64.9938      95.2986       0.0869       3.3251       2.6200
   1997.0498      16.9810       0.0130    -999.2500      29.8250    -999.2500    -999.2500     173.9800      64.2270      96.1490       0.0859       3.3690       2.6200
   1997.2021      16.9765       0.0130    -999.2500      30.1450    -999.2500    -999.2500     163.1476      62.6352      96.0236       0.0805       3.3645       2.6285
   1997.3546      16.9720       0.0130    -999.2500      30.4660    -999.2500    -999.2500     152.2990      61.0410      95.8980       0.0752       3.3600       2.6370
   1997.5070      16.9720       0.0115    -999.2500      31.5597    -999.2500    -999.2500     141.2070      58.7573      84.3863       0.0742       3.3765       2.6370
   1997.6593      16.9720       0.0100    -999.2500      32.6570    -999.2500    -999.2500     130.0970      56.4700      72.8560       0.0746       3.3930       2.6370
   1997.8118      16.9790       0.0050    -999.2500      32.9705    -999.2500    -999.2500     130.2404      56.4925      72.9794       0.0768       3.3930       2.6370
   1997.9641      16.9860       0.0000    -999.2500      33.2850    -999.2500    -999.2500     130.3840      56.5150      73.1030       0.0787       3.3930       2.6370
   1998.1166      17.0787       0.0005    -999.2500      33.8146    -999.2500    -999.2500     138.7097      57.7738      80.6280       0.0780       3.3444       2.6460
   1998.2689      17.1710       0.0010    -999.2500      34.3460    -999.2500    -999.2500     147.0510      59.0350      88.1670       0.0769       3.2960       2.6550
   1998.4214      17.1209       0.0015    -999.2500      41.5011    -999.2500    -999.2500     160.6385      61.0240     106.2360       0.0767       3.2965       2.6655
   1998.5737      17.0710       0.0020    -999.2500      48.6820    -999.2500    -999.2500     174.2530      63.0170     124.3410       0.0768       3.2970       2.6760
   1998.7262      17.0720       0.0035    -999.2500      76.6341    -999.2500    -999.2500     174.2370      63.0115     163.6713       0.0776       3.3135       2.6810
   1998.8785      17.0730       0.0050    -999.2500     104.6680    -999.2500    -999.2500     174.2210      63.0060     203.0850       0.0780       3.3300       2.6860
   1999.0310      17.3030       0.0065    -999.2500     104.0072    -999.2500    -999.2500     173.3310      62.7448     194.6729       0.0759       3.8125       2.6835
   1999.1833      17.5320       0.0080    -999.2500     103.3450    -999.2500    -999.2500     172.4390      62.4830     186.2420       0.0763       4.2930       2.6810
   1999.3358      17.3121       0.0140    -999.2500      66.4008    -999.2500    -999.2500     163.3992      61.3044     188.5363       0.0907       4.2895       2.6815
   1999.4882      17.0930       0.0200    -999.2500      29.3690    -999.2500    -999.2500     154.3380      60.1230     190.8360       0.1055       4.2860       2.6820
   1999.6405      17.0935       0.0200    -999.2500      29.7021    -999.2500    -999.2500     117.4925      51.7305     189.8527       0.1080       4.1417       2.7065
   1999.7930      17.0940       0.0200    -999.2500      30.0360    -999.2500    -999.2500      80.5550      43.3170     188.8670       0.1073       3.9980       2.7310
