#------------------------------------------------------------------------------
#
#   Created by  : [OpenWorks] Log Export Utility (LEXP)
#   Created on  : 2016-05-23 11:57:24
#   Project     : CANT971
#   User        : R5K
#   Interpreter : PEP
#
#------------------------------------------------------------------------------
~VERSION INFORMATION
VERS. 2.0 : CWLS Log ASCII Standard - version 2.0
WRAP.  NO : One line per depth step
~WELL INFORMATION
#MNEMONIC   .UNIT                                           VALUE :DESCRIPTION
#------------------------------------------------------------------------------
STRT        .M                                           648.1292 :START DEPTH
STOP        .M                                          2685.5647 :STOP DEPTH
STEP        .M                                             0.1524 :STEP
NULL        .                                           -999.2500 :NULL VALUE
COMP        .                                   PEMEX EXPL & PROD :COMPANY
WELL        .                                                 81D :WELL
FLD         .                                           CANTARELL :FIELD
LOC         .                                             UNKNOWN :LOCATION
CNTY        .                                      CD. DEL CARMEN :COUNTY
STAT        .                                            CAMPECHE :STATE
CTRY        .                                              MEXICO :COUNTRY
SRVC        .                                             UNKNOWN :SERVICE COMPANY
DATE        .                                             UNKNOWN :LOG DATE
UWI         .                                          3060000666 :UNIQUE WELL ID
XCOORD      .                                       601717.100000 :SURFACE X
YCOORD      .                                      2142375.260000 :SURFACE Y
LAT         .                                           19.374067 :LATITUDE
LON         .                                          -92.031430 :LONGITUDE
ELEV        .M                                            30.0000 :SURFACE ELEV
ELEV_TYPEF  .b/elec                                            KB :ELEV TYPE
~CURVE INFORMATION
#MNEMONIC.UNIT        API CODE       : CURVE DESCRIPTION
#------------------------------------------------------------------------------
DEPTH    .M                          : Measured Depth
CALI     .in          UNKNOWN        : CALI:UNKNOWN:rC:NONE:v0 (auto-composite)
CGR      .API         UNKNOWN        : CGR:UNKNOWN:rC:NONE:v0 (auto-composite)
DRHO     .g/cm3       UNKNOWN        : DRHO:UNKNOWN:rC:NONE:v0 (auto-composite)
DT       .us/ft       UNKNOWN        : DT:DT:rC:NONE:v0 (auto-composite)
GR       .API         UNKNOWN        : GR:UNKNOWN:rC:NONE:v0 (auto-composite)
ILD      .ohmm        UNKNOWN        : ILD:UNKNOWN:rC:NONE:v0 (auto-composite)
ILM      .ohmm        UNKNOWN        : ILM:UNKNOWN:rC:NONE:v0 (auto-composite)
LLD      .ohmm        UNKNOWN        : LLD:UNKNOWN:rC:NONE:v0 (auto-composite)
LLS      .ohmm        UNKNOWN        : LLS:UNKNOWN:rC:NONE:v0 (auto-composite)
NPHI     .v/v_decimal UNKNOWN        : NPHI:NPHI:rC:NONE:v0 (auto-composite)
PEF      .b/elec      UNKNOWN        : PEF:UNKNOWN:rC:NONE:v0 (auto-composite)
POTA     .%           UNKNOWN        : POTA:UNKNOWN:rC:NONE:v0 (auto-composite)
RHOB     .g/cm3       UNKNOWN        : RHOB:UNKNOWN:rC:NONE:v0 (auto-composite)
THOR     .ppm         UNKNOWN        : THOR:UNKNOWN:rC:NONE:v0 (auto-composite)
URAN     .ppm         UNKNOWN        : URAN:UNKNOWN:rC:NONE:v0 (auto-composite)
~A     DEPTH         CALI          CGR         DRHO           DT           GR          ILD          ILM          LLD          LLS         NPHI          PEF         POTA         RHOB         THOR         URAN
# ...
   1854.6801    -999.2500      23.2590    -999.2500      92.8272      25.3370       2.2371       2.4493    -999.2500    -999.2500      17.4998    -999.2500       0.7980    -999.2500       3.2902       0.2337
   1854.8324    -999.2500      23.5801    -999.2500      92.5285      25.2320       2.2521       2.4732    -999.2500    -999.2500      17.2525    -999.2500       0.7941    -999.2500       3.4148       0.1867
   1854.9849    -999.2500      23.9121    -999.2500      92.2168      25.1271       2.2596       2.4906    -999.2500    -999.2500      16.6370    -999.2500       0.7881    -999.2500       3.5453       0.1432
   1855.1372    -999.2500      23.2325    -999.2500      92.7705      25.1690       2.2428       2.4798    -999.2500    -999.2500      16.0927    -999.2500       0.7643    -999.2500       3.4549       0.2201
   1855.2896    -999.2500      22.3165    -999.2500      93.3475      25.2457       2.2202       2.4623    -999.2500    -999.2500      15.7283    -999.2500       0.7363    -999.2500       3.3129       0.3251
   1855.4420    -999.2500      21.2956    -999.2500      93.0388      25.1986       2.2221       2.4793    -999.2500    -999.2500      16.1573    -999.2500       0.7124    -999.2500       3.0992       0.4338
   1855.5944    -999.2500      20.2501    -999.2500      92.2553      25.1232       2.2296       2.5043    -999.2500    -999.2500      16.9950    -999.2500       0.6894    -999.2500       2.8687       0.5433
   1855.7468    -999.2500      19.9167    -999.2500      90.9235      25.2312       2.2866       2.5886    -999.2500    -999.2500      16.9629    -999.2500       0.6826    -999.2500       2.7792       0.5835
   1855.8992    -999.2500      19.7497    -999.2500      89.5434      25.3816       2.3551       2.6865    -999.2500    -999.2500      16.6804    -999.2500       0.6796    -999.2500       2.7227       0.6075
   1856.0516    -999.2500      18.9530    -999.2500      88.7695      25.1093       2.5390       2.9287    -999.2500    -999.2500      16.1677    -999.2500       0.6377    -999.2500       2.7971       0.6712
   1856.2040    -999.2500      18.0090    -999.2500      88.5212      24.7386       2.7499       3.2045    -999.2500    -999.2500      15.5155    -999.2500       0.5867    -999.2500       2.9021       0.7442
   1856.3564    -999.2500      15.6481    -999.2500      90.6997      23.9668       2.8381       3.3007    -999.2500    -999.2500      14.5141    -999.2500       0.4956    -999.2500       2.5541       0.9221
   1856.5088    -999.2500      12.9557    -999.2500      93.6746      23.1007       2.8976       3.3547    -999.2500    -999.2500      13.4104    -999.2500       0.3951    -999.2500       2.1001       1.1246
   1856.6613    -999.2500      12.0403    -999.2500      93.9425      23.2568       2.7890       3.1700    -999.2500    -999.2500      12.9170    -999.2500       0.3926    -999.2500       1.8580       1.2311
   1856.8136    -999.2500      11.5408    -999.2500      93.3058      23.6548       2.6407       2.9290    -999.2500    -999.2500      12.8651    -999.2500       0.4131    -999.2500       1.6655       1.3151
   1856.9661    -999.2500      12.2769    -999.2500      92.4328      24.2600       2.4203       2.6401    -999.2500    -999.2500      14.1463    -999.2500       0.4721    -999.2500       1.5755       1.2970
   1857.1184    -999.2500      13.3024    -999.2500      91.4417      24.9127       2.1834       2.3402    -999.2500    -999.2500      16.0940    -999.2500       0.5401    -999.2500       1.5095       1.2550
   1857.2708    -999.2500      13.2433    -999.2500      91.5678      25.3480       2.0968       2.2324    -999.2500    -999.2500      17.1089    -999.2500       0.5485    -999.2500       1.4147       1.3252
   1857.4232    -999.2500      12.9302    -999.2500      92.0089      25.7332       2.0448       2.1690    -999.2500    -999.2500      17.7658    -999.2500       0.5430    -999.2500       1.3132       1.4217
   1857.5756    -999.2500      13.2124    -999.2500      92.7187      25.8992       2.1687       2.2077    -999.2500    -999.2500      17.7540    -999.2500       0.5542    -999.2500       1.3548       1.4092
   1857.7280    -999.2500      13.6334    -999.2500      93.5753      26.0142       2.3337       2.2701    -999.2500    -999.2500      17.3766    -999.2500       0.5692    -999.2500       1.4298       1.3712
   1857.8804    -999.2500      14.0819    -999.2500      95.2900      25.8806       2.5325       2.3488    -999.2500    -999.2500      16.5491    -999.2500       0.5744    -999.2500       1.5498       1.3024
   1858.0328    -999.2500      14.5369    -999.2500      97.0444      25.6888       2.7394       2.4312    -999.2500    -999.2500      15.7027    -999.2500       0.5774    -999.2500       1.6803       1.2264
   1858.1852    -999.2500      14.5135    -999.2500      97.9183      25.5961       2.8126       2.5147    -999.2500    -999.2500      15.3300    -999.2500       0.5557    -999.2500       1.7723       1.2229
   1858.3376    -999.2500      14.3785    -999.2500      98.1998      25.5269       2.8543       2.5984    -999.2500    -999.2500      15.1981    -999.2500       0.5282    -999.2500       1.8553       1.2364
   1858.4900    -999.2500      14.2334    -999.2500      95.9189      25.6083       2.5757       2.6534    -999.2500    -999.2500      15.0742    -999.2500       0.5117    -999.2500       1.9383       1.2512
   1858.6425    -999.2500      14.0859    -999.2500      92.9239      25.7242       2.2240       2.7019    -999.2500    -999.2500      15.0332    -999.2500       0.4977    -999.2500       2.0213       1.2662
   1858.7948    -999.2500      15.1548    -999.2500      90.7043      25.9770       2.0796       2.7577    -999.2500    -999.2500      15.7358    -999.2500       0.5246    -999.2500       2.1894       1.1798
   1858.9473    -999.2500      16.5078    -999.2500      89.3712      26.2614       1.9832       2.8152    -999.2500    -999.2500      16.4648    -999.2500       0.5611    -999.2500       2.3774       1.0698
   1859.0996    -999.2500      17.3095    -999.2500      92.0725      26.2197       1.8292       2.4150    -999.2500    -999.2500      15.3786    -999.2500       0.5842    -999.2500       2.4535       1.0048
   1859.2520    -999.2500      17.9825    -999.2500      96.5084      26.1023       1.6618       1.9084    -999.2500    -999.2500      13.5102    -999.2500       0.6042    -999.2500       2.5035       0.9503
   1859.4044    -999.2500      17.5203    -999.2500      99.2717      25.6099       1.4852       1.6380    -999.2500    -999.2500      11.9183    -999.2500       0.5829    -999.2500       2.5628       0.8950
   1859.5568    -999.2500      16.7929    -999.2500     101.3702      25.0294       1.3063       1.4232    -999.2500    -999.2500      11.1437    -999.2500       0.5519    -999.2500       2.6243       0.8395
   1859.7092    -999.2500      16.5099    -999.2500     102.5532      26.4317       1.1525       1.3028    -999.2500    -999.2500      13.9178    -999.2500       0.5630    -999.2500       2.4966       0.9830
   1859.8616    -999.2500      16.3309    -999.2500     103.2464      28.3049       1.0045       1.2049    -999.2500    -999.2500      18.5902    -999.2500       0.5840    -999.2500       2.3246       1.1730
   1860.0140    -999.2500      17.8566    -999.2500     104.6084      32.1779       0.9537       1.1419    -999.2500    -999.2500      21.5479    -999.2500       0.5714    -999.2500       2.7965       1.4955
   1860.1664    -999.2500      19.7810    -999.2500     105.8919      36.5284       0.9262       1.0872    -999.2500    -999.2500      23.6127    -999.2500       0.5509    -999.2500       3.4190       1.8490
   1860.3188    -999.2500      20.4742    -999.2500     106.0341      37.4847       0.9356       1.0632    -999.2500    -999.2500      23.3626    -999.2500       0.5612    -999.2500       3.6221       1.8666
   1860.4712    -999.2500      20.8792    -999.2500     105.5655      37.6591       0.9536       1.0462    -999.2500    -999.2500      21.8733    -999.2500       0.5787    -999.2500       3.7271       1.8056
