#------------------------------------------------------------------------------
#
#   Created by  : [OpenWorks] Log Export Utility (LEXP)
#   Created on  : 2016-05-23 11:55:56
#   Project     : CANT971
#   User        : R5K
#   Interpreter : PEP
#
#------------------------------------------------------------------------------
~VERSION INFORMATION
VERS. 2.0 : CWLS Log ASCII Standard - version 2.0
WRAP.  NO : One line per depth step
~WELL INFORMATION
#MNEMONIC   .UNIT                                           VALUE :DESCRIPTION
#------------------------------------------------------------------------------
STRT        .M                                          3767.4790 :START DEPTH
STOP        .M                                          5548.2729 :STOP DEPTH
STEP        .M                                             0.1524 :STEP
NULL        .                                           -999.2500 :NULL VALUE
COMP        .                                             UNKNOWN :COMPANY
WELL        .                                            418D-ST2 :WELL
FLD         .                                             UNKNOWN :FIELD
LOC         .                                             UNKNOWN :LOCATION
CNTY        .                                             UNKNOWN :COUNTY
STAT        .                                             UNKNOWN :STATE
CTRY        .                                             UNKNOWN :COUNTRY
SRVC        .                                             UNKNOWN :SERVICE COMPANY
DATE        .                                             UNKNOWN :LOG DATE
UWI         .                                            418D-ST2 :UNIQUE WELL ID
XCOORD      .                                       597130.010000 :SURFACE X
YCOORD      .                                      2144879.410000 :SURFACE Y
LAT         .                                           19.396924 :LATITUDE
LON         .                                          -92.074978 :LONGITUDE
ELEV        .M                                             0.0000 :SURFACE ELEV
ELEV_TYPE   .                                                  NA :ELEV TYPE
~CURVE INFORMATION
#MNEMONIC.UNIT        API CODE       : CURVE DESCRIPTION
#------------------------------------------------------------------------------
DEPTH    .M                          : Measured Depth
CALI     .inches      UNKNOWN        : CALI:PETROWORKS:rC:NONE:v1 
CGR      .API         UNKNOWN        : CGR:PETROWORKS:rC:NONE:v2 
DRHO     .g/cm3       UNKNOWN        : DRHO:PETROWORKS:rC:NONE:v1 
DT       .us/ft       UNKNOWN        : DT:PETROWORKS:rC:NONE:v2 
GR       .API         UNKNOWN        : GR:PETROWORKS:rC:NONE:v2 
ILD      .ohm.m       UNKNOWN        : ILD:PETROWORKS:rC:NONE:v2 
ILM      .ohm.m       UNKNOWN        : ILM:PETROWORKS:rC:NONE:v2 
NPHI     .v/v_decimal UNKNOWN        : NPHI:PETROWORKS:rC:NONE:v3 
PEF      .b/elec      UNKNOWN        : PEF:PETROWORKS:rC:NONE:v1 
POTA     .wtpercent   UNKNOWN        : POTA:PETROWORKS:rC:NONE:v2 
RHOB     .UNKNOWN     UNKNOWN        : RHOB:PETROWORKS:rC:NONE:v1 
THOR     .ppm         UNKNOWN        : THOR:PETROWORKS:rC:NONE:v2 
URAN     .ppm         UNKNOWN        : URAN:PETROWORKS:rC:NONE:v2 
~A     DEPTH         CALI          CGR         DRHO           DT           GR          ILD          ILM         NPHI          PEF         POTA         RHOB         THOR         URAN
# ...
   5323.1782       6.2334      26.1329       0.0134      50.0917      46.9731     128.9333     128.0928       0.0372       5.0896       0.0119       2.7807       2.1521       2.8393
   5323.3306       6.2464      30.2261       0.0174      49.5610      53.1402     167.9787     173.9765       0.0359       5.1039       0.0137       2.7782       2.5221       3.1218
   5323.4829       6.2558      33.6173       0.0232      49.0213      56.7892     258.9006     206.1292       0.0335       5.1942       0.0149       2.7865       2.9748       3.2207
   5323.6353       6.2560      34.8969       0.0247      48.2998      56.6862     419.8698     240.8174       0.0322       5.2654       0.0153       2.7951       3.1979       3.1290
   5323.7876       6.2419      32.7741       0.0224      47.8516      50.9446     590.9754     269.1866       0.0313       5.2477       0.0137       2.8004       3.3592       2.6858
   5323.9404       6.2304      27.9760       0.0197      47.7681      43.7449     952.2490     298.0693       0.0301       5.2030       0.0110       2.8034       3.2028       2.2442
   5324.0928       6.2285      25.2112       0.0183      47.8588      40.8382    1397.5148     317.3097       0.0290       5.1768       0.0097       2.8002       3.0397       2.1521
   5324.2451       6.2272      24.8111       0.0181      48.1046      40.0715    3435.4102     350.7368       0.0278       5.1752       0.0093       2.7967       3.0829       2.1354
   5324.3975       6.2469      25.1249       0.0194      48.3865      39.6527    7620.8794     397.2058       0.0256       5.1790       0.0095       2.7996       3.1063       2.0605
   5324.5498       6.2632      25.5771       0.0210      48.6302      39.4362   16389.9590     587.5518       0.0235       5.1680       0.0098       2.8064       3.1019       1.9638
   5324.7021       6.2610      25.4566       0.0223      48.4926      38.8795   19944.6543    1397.9028       0.0219       5.1397       0.0097       2.8134       3.1198       1.8510
   5324.8545       6.2467      23.9556       0.0217      48.2285      37.3289   20000.0000    2943.9810       0.0211       5.1155       0.0089       2.8147       3.0222       1.7984
   5325.0068       6.2348      19.3794       0.0153      47.8764      32.7232   20000.0000   14505.2090       0.0223       5.1050       0.0076       2.8054       2.2514       1.8170
   5325.1592       6.2324      16.4343       0.0080      47.6835      29.5410   20000.0000   19920.9590       0.0249       5.1064       0.0069       2.7946       1.6817       1.8143
   5325.3120       6.2293      16.0432       0.0025      47.7775      29.4728   20000.0000   20000.0000       0.0287       5.1461       0.0069       2.7836       1.5430       1.7938
   5325.4644       6.2297      15.7275       0.0000      47.9816      29.9106   20000.0000   14982.6475       0.0312       5.1983       0.0069       2.7743       1.4153       1.8365
   5325.6167       6.2449      16.9588       0.0072      48.2693      32.9149   20000.0000    6529.6807       0.0327       5.2350       0.0074       2.7763       1.5680       1.9740
   5325.7690       6.2558      18.2251       0.0199      48.3625      35.6255   20000.0000    2705.7153       0.0329       5.2444       0.0079       2.7868       1.7143       2.2082
   5325.9214       6.2560      18.1724       0.0335      48.2620      35.9055   20000.0000    1573.3007       0.0315       5.2231       0.0082       2.8045       1.6557       2.3812
   5326.0737       6.2568      17.9708       0.0378      48.0832      35.3040   20000.0000    1114.4772       0.0294       5.2011       0.0084       2.8141       1.5063       2.4240
   5326.2261       6.2541      17.7774       0.0268      47.5141      33.7253   20000.0000    1030.0725       0.0267       5.1927       0.0084       2.8083       1.3477       2.2775
   5326.3784       6.2473      17.6547       0.0163      46.9612      32.7567   20000.0000    1140.6420       0.0247       5.1919       0.0074       2.8020       1.3088       2.1003
   5326.5308       6.2489      15.1952       0.0142      46.4036      28.2944   20000.0000    2094.0942       0.0235       5.1736       0.0060       2.8023       1.2873       1.7853
   5326.6836       6.2545      12.6250       0.0173      46.2196      24.1057   20000.0000    3981.1704       0.0229       5.1256       0.0056       2.8052       1.1137       1.5642
   5326.8359       6.2543      12.1352       0.0189      46.7442      23.6711   20000.0000   14920.5176       0.0232       5.0947       0.0057       2.8060       0.9652       1.5717
   5326.9883       6.2514      12.1837       0.0180      47.3336      24.1091   20000.0000   19917.5469       0.0242       5.1161       0.0059       2.8030       0.8802       1.6247
   5327.1406       6.2499      12.3458       0.0176      47.8481      24.9556   20000.0000   20000.0000       0.0249       5.1495       0.0062       2.7995       0.8280       1.7179
   5327.2930       6.2499      12.9459       0.0203      48.0111      26.9620   20000.0000   20000.0000       0.0256       5.1641       0.0070       2.7964       0.9020       1.9095
   5327.4453       6.2491      14.9878       0.0232      47.9832      30.6608   20000.0000   20000.0000       0.0261       5.1639       0.0086       2.7950       1.1502       2.1353
   5327.5977       6.2525      19.5569       0.0238      48.0584      35.9047   20000.0000   20000.0000       0.0270       5.1428       0.0101       2.8007       1.5930       2.2272
   5327.7500       6.2584      22.7387       0.0237      48.3966      39.1306   20000.0000    8949.7100       0.0277       5.1184       0.0106       2.8087       1.8700       2.2332
   5327.9028       6.2563      23.4035       0.0256      48.6785      39.8958   20000.0000    1924.4484       0.0275       5.0654       0.0107       2.8161       1.9537       2.2470
   5328.0552       6.2447      23.6368       0.0286      48.7772      40.0739   20000.0000     836.3527       0.0275       5.0285       0.0106       2.8185       2.0025       2.2393
   5328.2075       6.2321      22.9650       0.0290      48.9842      39.1199   20000.0000     517.6357       0.0284       4.9736       0.0100       2.8098       1.9109       2.2010
   5328.3599       6.2273      21.7230       0.0269      49.2312      37.8012   20000.0000     382.0941       0.0296       4.9215       0.0095       2.7987       1.7872       2.1905
   5328.5122       6.2289      20.6736       0.0218      49.6261      37.0003   20000.0000     320.9531       0.0315       4.9590       0.0094       2.7918       1.6979       2.2244
   5328.6646       6.2443      20.4059       0.0185      49.9649      36.9537   14585.6553     290.6190       0.0334       5.0279       0.0099       2.7915       1.6659       2.2545
   5328.8169       6.2607      23.4651       0.0163      50.5821      41.4863    5584.7783     270.5161       0.0356       5.0960       0.0134       2.7897       1.7755       2.4552
   5328.9692       6.2625      30.4580       0.0139      51.0816      49.2243    1643.1967     255.0143       0.0373       5.1590       0.0162       2.7802       2.3046       2.5567
   5329.1216       6.2564      34.7709       0.0117      51.2640      53.5700     700.0803     230.3714       0.0397       5.2963       0.0167       2.7597       2.6089       2.5612
   5329.2744       6.2637      35.2052       0.0108      51.1201      54.5879     315.0533     205.3266       0.0421       5.4583       0.0169       2.7472       2.5008       2.6407
   5329.4268       6.2643      35.9208       0.0093      50.5521      55.3315     229.6841     180.2465       0.0413       5.6105       0.0175       2.7536       2.5266       2.6445
   5329.5791       6.2567      37.1264       0.0074      50.0341      55.9142     306.6320     168.2688       0.0391       5.6910       0.0180       2.7626       2.6338       2.5597
   5329.7314       6.2568      38.2058       0.0077      49.2358      55.4381     560.0632     168.9725       0.0375       5.5653       0.0175       2.7727       2.8047       2.3478
