#------------------------------------------------------------------------------
#
#   Created by  : [OpenWorks] Log Export Utility (LEXP)
#   Created on  : 2016-05-23 11:56:14
#   Project     : CANT971
#   User        : R5K
#   Interpreter : PEP
#
#------------------------------------------------------------------------------
~VERSION INFORMATION
VERS. 2.0 : CWLS Log ASCII Standard - version 2.0
WRAP.  NO : One line per depth step
~WELL INFORMATION
#MNEMONIC   .UNIT                                           VALUE :DESCRIPTION
#------------------------------------------------------------------------------
STRT        .M                                          2395.2905 :START DEPTH
STOP        .M                                          2859.1960 :STOP DEPTH
STEP        .M                                             0.1524 :STEP
NULL        .                                           -999.2500 :NULL VALUE
COMP        .                                             UNKNOWN :COMPANY
WELL        .                                               446-V :WELL
FLD         .                                             UNKNOWN :FIELD
LOC         .                                             UNKNOWN :LOCATION
CNTY        .                                             UNKNOWN :COUNTY
STAT        .                                             UNKNOWN :STATE
CTRY        .                                             UNKNOWN :COUNTRY
SRVC        .                                             UNKNOWN :SERVICE COMPANY
DATE        .                                             UNKNOWN :LOG DATE
UWI         .                                               446-V :UNIQUE WELL ID
XCOORD      .                                       596708.730000 :SURFACE X
YCOORD      .                                      2143311.960000 :SURFACE Y
LAT         .                                           19.382780 :LATITUDE
LON         .                                          -92.079070 :LONGITUDE
ELEV        .M                                             0.0000 :SURFACE ELEV
ELEV_TYPE   .                                                  NA :ELEV TYPE
~CURVE INFORMATION
#MNEMONIC.UNIT        API CODE       : CURVE DESCRIPTION
#------------------------------------------------------------------------------
DEPTH    .M                          : Measured Depth
CALI     .inches      UNKNOWN        : CALI:litodensidad:rC:NONE:v0 (auto-composite)
CGR      .API         UNKNOWN        : CGR:Espectrometria:rC:NONE:v0 (auto-composite)
DRHO     .g/cm3       UNKNOWN        : DRHO:litodensidad:rC:NONE:v0 (auto-composite)
DT       .us/ft       UNKNOWN        : DT:sonico:rC:NONE:v0 (auto-composite)
GR       .API         UNKNOWN        : GR:GR-Load:rC:NONE:v0 (auto-composite)
GR-LWD   .API         UNKNOWN        : GR-LWD:resistivos-LWD:rC:NONE:v0 (auto-composite)
ILD-LWD  .ohm.m       UNKNOWN        : ILD-LWD:resistivos-LWD:rC:NONE:v0 (auto-composite)
ILM-LWD  .UNKNOWN     UNKNOWN        : ILM-LWD:resistivos-LWD:rC:NONE:v0 (auto-composite)
LLD      .ohm.m       UNKNOWN        : LLD:resistivos:rC:NONE:v0 (auto-composite)
LLS      .ohm.m       UNKNOWN        : LLS:resistivos:rC:NONE:v0 (auto-composite)
MSFL     .ohm.m       UNKNOWN        : MSFL:resistivos:rC:NONE:v0 (auto-composite)
NPHI     .UNKNOWN     UNKNOWN        : NPHI:porosidad:rC:NONE:v0 (auto-composite)
PEF      .UNKNOWN     UNKNOWN        : PEF:litodensidad:rC:NONE:v0 (auto-composite)
POTA     .wtpercent   UNKNOWN        : POTA:Espectrometria:rC:NONE:v0 (auto-composite)
RHOB     .g/cm3       UNKNOWN        : RHOB:litodensidad:rC:NONE:v0 (auto-composite)
THOR     .ppm         UNKNOWN        : THOR:Espectrometria:rC:NONE:v0 (auto-composite)
URAN     .ppm         UNKNOWN        : URAN:Espectrometria:rC:NONE:v0 (auto-composite)
~A     DEPTH         CALI          CGR         DRHO           DT           GR       GR-LWD      ILD-LWD      ILM-LWD          LLD          LLS         MSFL         NPHI          PEF         POTA         RHOB         THOR         URAN
# ...
   2448.6306      10.1702       3.9637       0.1417      75.3860      30.6762    -999.2500    -999.2500    -999.2500      39.5489      27.5431      16.0763       0.1091       3.5286       0.0026       2.4317       0.0810       2.9740
   2448.7830      10.2236       2.6315       0.1424      73.0473      29.2714    -999.2500    -999.2500    -999.2500      38.3231      25.1802       4.8326       0.1324       3.5785       0.0018       2.4398       0.0375       2.9659
   2448.9353      10.2446       2.7505       0.1125      70.9245      30.9604    -999.2500    -999.2500    -999.2500      42.0335      28.2421       5.6398       0.1340       3.6019       0.0019       2.5421       0.0452       3.1407
   2449.0876      10.2720       3.3590       0.0738      66.3429      34.1560    -999.2500    -999.2500    -999.2500      49.8888      34.2977       8.9538       0.1078       3.6019       0.0023       2.6459       0.0506       3.4288
   2449.2402      10.2784       3.6011       0.0581      63.1531      36.5616    -999.2500    -999.2500    -999.2500      55.1260      38.0096      16.4372       0.0981       3.5849       0.0023       2.6746       0.0983       3.6696
   2449.3926      10.2759       5.1552       0.0514      58.5777      39.1907    -999.2500    -999.2500    -999.2500      54.2553      37.9644      25.6948       0.0924       3.5561       0.0029       2.6820       0.3132       3.7893
   2449.5449      10.3155       7.2060       0.0496      56.7488      39.7515    -999.2500    -999.2500    -999.2500      48.3425      34.1189      30.1711       0.0913       3.5144       0.0036       2.6833       0.5992       3.6234
   2449.6973      10.4250      12.3939       0.0505      56.1897      39.6962    -999.2500    -999.2500    -999.2500      40.5064      28.1070      23.1842       0.0949       3.4327       0.0059       2.6799       1.1718       3.0397
   2449.8496      10.4613      11.2963       0.0610      56.0355      38.2236    -999.2500    -999.2500    -999.2500      36.3967      24.2752      24.9277       0.0970       3.4209       0.0056       2.6859       0.9648       2.9979
   2450.0022      10.3831       7.2501       0.0800      55.9688      36.2521    -999.2500    -999.2500    -999.2500      34.7491      23.0209       7.6475       0.0923       3.4576       0.0040       2.7006       0.4743       3.2289
   2450.1545      10.3477       4.1166       0.0790      56.0845      36.5570    -999.2500    -999.2500    -999.2500      36.1163      24.1107       6.4947       0.0935       3.4767       0.0026       2.7032       0.1505       3.6117
   2450.3069      10.2933       4.6804       0.0625      56.2949      39.5522    -999.2500    -999.2500    -999.2500      40.5588      27.8730      15.9094       0.0946       3.4626       0.0029       2.6747       0.1945       3.8824
   2450.4592      10.3195       6.1745       0.0651      56.7249      40.9583    -999.2500    -999.2500    -999.2500      42.6136      29.7203      38.0221       0.0950       3.4592       0.0033       2.6516       0.4251       3.8726
   2450.6118      10.4591       5.9857       0.0936      57.3039      39.9036    -999.2500    -999.2500    -999.2500      44.9776      30.5824      18.0753       0.1006       3.5102       0.0025       2.6315       0.6967       3.7762
   2450.7642      10.5646       3.3353       0.1064      58.0026      37.3227    -999.2500    -999.2500    -999.2500      44.2828      29.4048       6.8028       0.1091       3.5495       0.0008       2.6345       0.6334       3.7840
   2450.9165      10.6190       2.7567       0.1058      58.3111      35.4733    -999.2500    -999.2500    -999.2500      43.4261      28.1292       3.2451       0.1093       3.5826       0.0003       2.6409       0.6503       3.6424
   2451.0688      10.5721       2.1710       0.1027      58.4306      34.0301    -999.2500    -999.2500    -999.2500      43.7829      28.7771       3.9038       0.1107       3.5950       0.0003       2.6498       0.4857       3.5470
   2451.2214      10.5067       1.6458       0.0926      58.5197      34.7186    -999.2500    -999.2500    -999.2500      43.5099      30.1114       7.3870       0.1091       3.5951       0.0008       2.6609       0.1358       3.6821
   2451.3738      10.4534       4.4737       0.0760      60.8203      37.8412    -999.2500    -999.2500    -999.2500      41.7963      30.2043      15.3123       0.1054       3.5832       0.0029       2.6799       0.1236       3.7149
   2451.5261      10.4337       4.8332       0.0842      62.6834      37.1140    -999.2500    -999.2500    -999.2500      40.5487      29.9396      31.4979       0.1028       3.5856       0.0030       2.7169       0.1853       3.5939
   2451.6785      10.4263       5.0233       0.1115      65.3554      36.7405    -999.2500    -999.2500    -999.2500      39.1354      29.0682      73.5876       0.0961       3.5884       0.0028       2.7693       0.3091       3.5312
   2451.8308      10.4487       6.4466       0.1139      67.0146      35.5621    -999.2500    -999.2500    -999.2500      40.4140      30.1268     156.1506       0.0899       3.5179       0.0031       2.7833       0.6042       3.2415
   2451.9834      10.4996       9.6407       0.0943      70.8780      33.4130    -999.2500    -999.2500    -999.2500      45.3322      34.6233      29.8682       0.0826       3.3843       0.0037       2.7717       1.2541       2.6466
   2452.1357      10.5293      10.7688       0.0844      73.9195      31.7978    -999.2500    -999.2500    -999.2500      48.4527      37.9607      12.7139       0.0836       3.3606       0.0034       2.7626       1.7174       2.3412
   2452.2881      10.5743      10.1124       0.0845      73.3890      30.6890    -999.2500    -999.2500    -999.2500      49.9612      39.9110       7.9020       0.0804       3.4460       0.0028       2.7586       1.7423       2.2909
   2452.4404      10.6105      10.0098       0.0894      71.6111      30.0071    -999.2500    -999.2500    -999.2500      47.1609      37.7339      22.0354       0.0823       3.5540       0.0033       2.7436       1.5272       2.2264
   2452.5930      10.6026       9.7029       0.0972      66.9112      28.8897    -999.2500    -999.2500    -999.2500      41.8711      32.4195      69.8267       0.0933       3.6329       0.0040       2.7112       1.1638       2.1361
   2452.7454      10.5662       8.4251       0.1038      64.3764      27.6242    -999.2500    -999.2500    -999.2500      40.4518      30.7088      22.5083       0.1069       3.6369       0.0043       2.6822       0.6642       2.1375
   2452.8977      10.5601       6.1061       0.1014      63.9895      27.8802    -999.2500    -999.2500    -999.2500      44.6805      36.2370       5.3689       0.1080       3.5717       0.0041       2.6683       0.1109       2.4242
   2453.0500      10.5500       4.5177       0.0871      63.5443      29.8648    -999.2500    -999.2500    -999.2500      49.1653      41.8129       5.7703       0.1040       3.5109       0.0030       2.6886       0.0781       2.8220
   2453.2026      10.5320       3.6091       0.0577      62.9527      28.6912    -999.2500    -999.2500    -999.2500      58.1617      51.2356      10.4293       0.0872       3.4354       0.0023       2.7186       0.1172       2.7925
   2453.3550      10.5344       3.8726       0.0482      61.6092      27.5664    -999.2500    -999.2500    -999.2500      62.1902      54.8247       6.4228       0.0868       3.4146       0.0025       2.7214       0.1256       2.6380
   2453.5073      10.6078       4.4994       0.0525      60.4068      23.7494    -999.2500    -999.2500    -999.2500      57.3882      50.1628       2.0694       0.0791       3.4065       0.0028       2.7262       0.1571       2.1432
   2453.6597      10.6437       5.4110       0.0639      58.4399      22.7597    -999.2500    -999.2500    -999.2500      52.4540      45.9608       1.6734       0.0794       3.4095       0.0025       2.7426       0.5463       1.9315
   2453.8120      10.6162       4.5341       0.0744      57.3028      22.8133    -999.2500    -999.2500    -999.2500      46.9747      41.4358       2.9846       0.0808       3.4148       0.0020       2.7582       0.4819       2.0351
