#------------------------------------------------------------------------------
#
#   Created by  : [OpenWorks] Log Export Utility (LEXP)
#   Created on  : 2016-05-23 11:52:02
#   Project     : CANT971
#   User        : R5K
#   Interpreter : PEP
#
#------------------------------------------------------------------------------
~VERSION INFORMATION
VERS. 2.0 : CWLS Log ASCII Standard - version 2.0
WRAP.  NO : One line per depth step
~WELL INFORMATION
#MNEMONIC   .UNIT                                           VALUE :DESCRIPTION
#------------------------------------------------------------------------------
STRT        .M                                           300.3808 :START DEPTH
STOP        .M                                          2575.7129 :STOP DEPTH
STEP        .M                                             0.1524 :STEP
NULL        .                                           -999.2500 :NULL VALUE
COMP        .                                   PEMEX EXPL & PROD :COMPANY
WELL        .                                                  19 :WELL
FLD         .                                           CANTARELL :FIELD
LOC         .                                             UNKNOWN :LOCATION
CNTY        .                                      CD. DEL CARMEN :COUNTY
STAT        .                                            CAMPECHE :STATE
CTRY        .                                              MEXICO :COUNTRY
SRVC        .                                             UNKNOWN :SERVICE COMPANY
DATE        .                                             UNKNOWN :LOG DATE
UWI         .                                          3060000151 :UNIQUE WELL ID
XCOORD      .                                       603362.598000 :SURFACE X
YCOORD      .                                      2145096.350000 :SURFACE Y
LAT         .                                           19.398572 :LATITUDE
LON         .                                          -92.015617 :LONGITUDE
ELEV        .M                                            27.1400 :SURFACE ELEV
ELEV_TYPE   .                                                  KB :ELEV TYPE
~CURVE INFORMATION
#MNEMONIC.UNIT        API CODE       : CURVE DESCRIPTION
#------------------------------------------------------------------------------
DEPTH    .M                          : Measured Depth
CALI     .inches      UNKNOWN        : CALI:Import:rC:NONE:v0 (auto-composite)
DRHO     .g/cm3       UNKNOWN        : DRHO:Import:rC:NONE:v0 (auto-composite)
DT       .us/ft       UNKNOWN        : DT:Import:rC:NONE:v0 (auto-composite)
GR       .API         UNKNOWN        : GR:Import:rC:NONE:v0 (auto-composite)
ILD      .ohm.m       UNKNOWN        : ILD:Import:rC:NONE:v0 (auto-composite)
LLD      .ohm.m       UNKNOWN        : LLD:Import:rC:NONE:v0 (auto-composite)
LLS      .ohm.m       UNKNOWN        : LLS:Import:rC:NONE:v0 (auto-composite)
NPHI     .v/v_decimal UNKNOWN        : NPHI:Import:rC:NONE:v0 (auto-composite)
RHOB     .g/cm3       UNKNOWN        : RHOB:RHOB-Load:rC:NONE:v0 (auto-composite)
~A     DEPTH         CALI         DRHO           DT           GR          ILD          LLD          LLS         NPHI         RHOB
# ...
   2331.8728       5.7780      -0.0185      50.0072      47.1540       0.0010    1107.0922     981.3050       0.0590       2.7830
   2332.0251       5.7780      -0.0180      50.9770      49.1620       0.0010    1143.8160     984.1670       0.0578       2.7830
   2332.1775       5.7780      -0.0110      50.4020      47.1481       0.0010    1038.0137    1022.0124       0.0596       2.7830
   2332.3301       5.7780      -0.0040      49.8290      45.1410       0.0010     932.5660    1059.7310       0.0619       2.7830
   2332.4824       5.7780      -0.0035      48.2865      42.1392       0.0010     997.5704    1067.2656       0.0628       2.7815
   2332.6348       5.7780      -0.0030      46.7490      39.1470       0.0010    1062.3650    1074.7760       0.0631       2.7800
   2332.7871       5.7780       0.0005      46.8507      37.1028       0.0010     960.0018    1052.3438       0.0627       2.7730
   2332.9397       5.7780       0.0040      46.9520      35.0650       0.0010     857.9560    1030.0170       0.0619       2.7660
   2333.0920       5.7780       0.0050      48.5859      37.8226       0.0010     659.4178    1104.6285       0.0602       2.7540
   2333.2444       5.7780       0.0060      50.2150      40.5720       0.0010     461.4710    1178.8990       0.0585       2.7420
   2333.3967       5.7780       0.0040      50.5279      38.9389       0.0010     368.4034     989.8209       0.0575       2.7520
   2333.5493       5.7780       0.0020      50.8400      37.3130       0.0010     275.6010     801.5840       0.0577       2.7620
   2333.7017       5.7780      -0.0040      49.2714      35.0441       0.0010     324.2649     599.7389       0.0614       2.7390
   2333.8540       5.7780      -0.0100      47.7070      32.7850       0.0010     372.7960     398.7660       0.0657       2.7160
   2334.0063       5.7780      -0.0090      48.0870      31.7884       0.0010     961.1495     408.2775       0.0688       2.7275
   2334.1587       5.7780      -0.0080      48.4660      30.7960       0.0010    1547.9730     417.7490       0.0716       2.7390
   2334.3113       5.7780      -0.0090      49.4277      31.8647       0.0010    2319.9861     609.3059       0.0754       2.7590
   2334.4636       5.7780      -0.0100      50.3870      32.9290       0.0010    3090.0869     800.0830       0.0782       2.7790
   2334.6160       5.7780      -0.0190      49.3413      33.9465       0.0010    3546.9382     939.1697       0.0770       2.7780
   2334.7683       5.7780      -0.0280      48.2980      34.9600       0.0010    4002.7161    1077.7070       0.0735       2.7770
   2334.9209       5.7780      -0.0260      48.0417      37.7854       0.0010    3657.4937    1137.1697       0.0666       2.7710
   2335.0732       5.7780      -0.0240      47.7860      40.6000       0.0010    3313.0400    1196.4050       0.0599       2.7650
   2335.2256       5.7780      -0.0135      49.1735      40.2118       0.0010    3475.7322    1181.5360       0.0577       2.7545
   2335.3779       5.7780      -0.0030      50.5580      39.8250       0.0010    3638.0830    1166.7220       0.0569       2.7440
   2335.5305       5.7780      -0.0080      49.3984      38.4355       0.0010    3668.3679    1175.4296       0.0567       2.7500
   2335.6829       5.7780      -0.0130      48.2410      37.0510       0.0010    3698.5930    1184.1060       0.0569       2.7560
   2335.8352       5.7780      -0.0095      47.4602      35.8129       0.0010    3104.8086    1222.2728       0.0576       2.7670
   2335.9875       5.7780      -0.0060      46.6820      34.5790       0.0010    2513.0720    1260.3080       0.0587       2.7780
   2336.1399       5.7780       0.0000      48.7740      34.2920       0.0010    2017.6790    1213.7146       0.0605       2.7710
   2336.2925       5.7780       0.0060      50.8590      34.0060       0.0010    1523.9310    1167.2760       0.0622       2.7640
   2336.4448       5.7780       0.0035      51.4655      32.9072       0.0010    1174.6736    1088.8666       0.0629       2.7605
   2336.5972       5.7780       0.0010      52.0700      31.8120       0.0010     826.5330    1010.7080       0.0626       2.7570
   2336.7495       5.7780      -0.0040      51.0825      30.4228       0.0010     726.9591     950.8497       0.0600       2.7665
   2336.9021       5.7780      -0.0090      50.0980      29.0400       0.0010     627.6910     891.2710       0.0573       2.7760
   2337.0544       5.7780      -0.0100      49.7740      27.4790       0.0010     755.2820     884.3648       0.0567       2.7845
   2337.2068       5.7780      -0.0110      49.4510      25.9250       0.0010     882.4970     877.4900       0.0567       2.7930
   2337.3591       5.7780      -0.0020      49.6733      24.6782       0.0010     982.3393     953.4107       0.0567       2.8100
   2337.5117       5.7780       0.0070      49.8950      23.4370       0.0010    1081.9000    1028.9960       0.0567       2.8270
   2337.6641       5.7780       0.0180      49.1535      24.0984       0.0010    1048.0979    1055.7249       0.0567       2.8165
   2337.8164       5.7780       0.0290      48.4140      24.7570       0.0010    1014.3870    1082.3390       0.0574       2.8060
   2337.9688       5.7780       0.0370      47.9779      25.1278       0.0010    1159.3412    1081.8716       0.0603       2.7820
   2338.1211       5.7780       0.0450      47.5430      25.4970       0.0010    1303.9230    1081.4060       0.0638       2.7580
   2338.2737       5.7780       0.0170      48.2909      24.2901       0.0010    1772.8947    1061.6245       0.0670       2.7410
   2338.4260       5.7780      -0.0110      49.0370      23.0880       0.0010    2240.7190    1041.9230       0.0691       2.7240
   2338.5784       5.7780      -0.0270      50.2704      21.6241       0.0010    2025.1095    1004.4736       0.0682       2.7205
   2338.7307       5.7780      -0.0430      51.5010      20.1660       0.0010    1810.0000     967.1710       0.0668       2.7170
   2338.8833       5.7785      -0.0430      50.8193      21.0857       0.0010    1339.5836     801.8517       0.0663       2.7170
   2339.0356       5.7790      -0.0430      50.1390      22.0020       0.0010     870.2000     637.1590       0.0670       2.7170
   2339.1880       5.8010      -0.0275      49.4843      24.2075       0.0010     995.6563     645.8544       0.0712       2.7120
   2339.3403       5.8230      -0.0120      48.8310      26.4050       0.0010    1120.8530     654.5180       0.0756       2.7070
   2339.4929       5.8495      -0.0055      49.6773      27.0837       0.0010    1440.9883     865.9323       0.0774       2.7015
   2339.6453       5.8760       0.0010      50.5220      27.7600       0.0010    1760.5010    1076.5980       0.0778       2.6960
   2339.7976       5.7468       0.0035      51.4751      27.7690       0.0010    1515.5288     976.6853       0.0752       2.7135
   2339.9500       5.6180       0.0060      52.4250      27.7780       0.0010    1271.3940     877.1140       0.0719       2.7310
   2340.1023       5.5869       0.0055      51.9662      27.7750       0.0010    1810.8024     731.9447       0.0690       2.7305
   2340.2549       5.5560       0.0050      51.5090      27.7720       0.0010    2348.4360     587.2530       0.0669       2.7300
   2340.4072       5.5585       0.0015      51.1735      27.4330       0.0010    1805.0409     761.6647       0.0678       2.7365
   2340.5596       5.5610      -0.0020      50.8390      27.0950       0.0010    1263.3669     935.5240       0.0701       2.7430
   2340.7119       5.6151       0.0055      51.4765      26.3713       0.0010     960.6404     938.8282       0.0749       2.7390
   2340.8645       5.6690       0.0130      52.1120      25.6510       0.0010     658.8340     942.1170       0.0797       2.7350
   2341.0168       5.7231       0.0245      51.0840      26.4658       0.0010     573.7214     740.7384       0.0819       2.7450
   2341.1692       5.7770       0.0360      50.0590      27.2770       0.0010     488.8570     540.2680       0.0835       2.7550
