#------------------------------------------------------------------------------
#
#   Created by  : [OpenWorks] Log Export Utility (LEXP)
#   Created on  : 2016-05-23 11:56:24
#   Project     : CANT971
#   User        : R5K
#   Interpreter : PEP
#
#------------------------------------------------------------------------------
~VERSION INFORMATION
VERS. 2.0 : CWLS Log ASCII Standard - version 2.0
WRAP.  NO : One line per depth step
~WELL INFORMATION
#MNEMONIC   .UNIT                                           VALUE :DESCRIPTION
#------------------------------------------------------------------------------
STRT        .M                                           741.4294 :START DEPTH
STOP        .M                                          2768.5020 :STOP DEPTH
STEP        .M                                             0.1524 :STEP
NULL        .                                           -999.2500 :NULL VALUE
COMP        .                                             UNKNOWN :COMPANY
WELL        .                                                 470 :WELL
FLD         .                                             UNKNOWN :FIELD
LOC         .                                             UNKNOWN :LOCATION
CNTY        .                                             UNKNOWN :COUNTY
STAT        .                                             UNKNOWN :STATE
CTRY        .                                             UNKNOWN :COUNTRY
SRVC        .                                             UNKNOWN :SERVICE COMPANY
DATE        .                                             UNKNOWN :LOG DATE
UWI         .                                                 470 :UNIQUE WELL ID
XCOORD      .                                       598706.890000 :SURFACE X
YCOORD      .                                      2143306.000000 :SURFACE Y
LAT         .                                           19.382628 :LATITUDE
LON         .                                          -92.060044 :LONGITUDE
ELEV        .M                                             0.0000 :SURFACE ELEV
ELEV_TYPE   .                                                  NA :ELEV TYPE
~CURVE INFORMATION
#MNEMONIC.UNIT        API CODE       : CURVE DESCRIPTION
#------------------------------------------------------------------------------
DEPTH    .M                          : Measured Depth
CALI     .inches      UNKNOWN        : CALI:litodensidad:rC:NONE:v0 (auto-composite)
CGR      .API         UNKNOWN        : CGR:PETROWORKS:rC:NONE:v1 
DRHO     .g/cm3       UNKNOWN        : DRHO:litodensidad:rC:NONE:v0 (auto-composite)
DT       .us/ft       UNKNOWN        : DT:PETROWORKS:rC:NONE:v1 
GR       .API         UNKNOWN        : GR:PETROWORKS:rC:NONE:v8 
ILD      .ohm.m       UNKNOWN        : ILD:PETROWORKS:rC:NONE:v1 
ILM      .ohm.m       UNKNOWN        : ILM:PETROWORKS:rC:NONE:v1 
LLD      .ohm.m       UNKNOWN        : LLD:resistivos:rC:NONE:v0 (auto-composite)
LLS      .ohm.m       UNKNOWN        : LLS:resistivos:rC:NONE:v0 (auto-composite)
MSFL     .ohm.m       UNKNOWN        : MSFL:resistivos:rC:NONE:v0 (auto-composite)
NPHI     .v/v_decimal UNKNOWN        : NPHI:PETROWORKS:rC:NONE:v1 
PEF      .UNKNOWN     UNKNOWN        : PEF:litodensidad:rC:NONE:v0 (auto-composite)
POTA     .wtpercent   UNKNOWN        : POTA:PETROWORKS:rC:NONE:v1 
RHOB     .g/cm3       UNKNOWN        : RHOB:litodensidad:rC:NONE:v0 (auto-composite)
THOR     .ppm         UNKNOWN        : THOR:PETROWORKS:rC:NONE:v1 
URAN     .ppm         UNKNOWN        : URAN:PETROWORKS:rC:NONE:v1 
~A     DEPTH         CALI          CGR         DRHO           DT           GR          ILD          ILM          LLD          LLS         MSFL         NPHI          PEF         POTA         RHOB         THOR         URAN
# ...
   2698.0930       8.8926       8.7582       0.0122      47.0319      18.3640    -999.2500    -999.2500    2909.0513     667.6835    2000.0000       0.0150       4.4770       0.0017       2.7685       1.1046       0.9475
   2698.2454       8.8926       9.5185       0.0129      47.8481      19.3931    -999.2500    -999.2500    2153.2202     495.5581     538.6618       0.0150       4.6046       0.0021       2.7748       1.1075       0.9740
   2698.3979       8.8734      10.5679       0.0062      47.8644      20.2228    -999.2500    -999.2500    2025.0016     463.4113    2000.0000       0.0177       4.7544       0.0026       2.7648       1.1175       0.9524
   2698.5503       8.8350      10.0234       0.0094      47.7228      18.9835    -999.2500    -999.2500    1933.1927     463.2066    2000.0000       0.0190       4.6977       0.0028       2.7756       0.8980       0.8838
   2698.7026       8.8638      13.7666       0.0048      47.3802      22.6268    -999.2500    -999.2500    2675.2478     677.1971    2000.0000       0.0193       4.9148       0.0042       2.7705       1.1303       0.8740
   2698.8550       8.8542      12.0474       0.0025      47.9513      19.4717    -999.2500    -999.2500    4033.5034    1001.5879    1703.2908       0.0184       5.1242       0.0036       2.7654       0.9968       0.7323
   2699.0073       8.8542      12.4544       0.0005      47.8746      19.6582    -999.2500    -999.2500    3840.5706     929.2040    2000.0000       0.0185       4.7985       0.0034       2.7540       1.1563       0.7106
   2699.1599       8.8446      14.2026       0.0022      47.4936      22.2383    -999.2500    -999.2500    2708.2646     707.2806    2000.0000       0.0189       4.6630       0.0039       2.7483       1.3338       0.7927
   2699.3123       8.8446      15.0979       0.0039      47.5594      22.4110    -999.2500    -999.2500    2008.7853     494.2349    2000.0000       0.0197       4.7669       0.0043       2.7557       1.3638       0.7214
   2699.4646       8.8446      14.5118       0.0089      47.8949      21.0406    -999.2500    -999.2500    1707.3733     421.5503    2000.0000       0.0189       4.8692       0.0042       2.7651       1.2571       0.6440
   2699.6169       8.8254      14.8219       0.0098      50.0234      21.5665    -999.2500    -999.2500    1547.4939     391.4271    2000.0000       0.0186       4.9705       0.0043       2.7820       1.2895       0.6653
   2699.7695       8.8446      14.5472       0.0094      50.2272      21.3424    -999.2500    -999.2500    1821.6328     424.0065     267.0473       0.0187       4.4432       0.0041       2.7712       1.3115       0.6703
   2699.9219       8.8446      15.8668       0.0074      49.8923      23.2111    -999.2500    -999.2500    2090.1306     459.9978    2000.0000       0.0205       4.5660       0.0046       2.7551       1.3686       0.7245
   2700.0742       8.9022      14.7492       0.0084      49.5782      22.6020    -999.2500    -999.2500    2232.8994     490.5839    2000.0000       0.0208       4.5046       0.0040       2.7481       1.3918       0.7746
   2700.2266       8.8446      11.6067       0.0131      47.5078      18.7086    -999.2500    -999.2500    2470.6965     526.7665    2000.0000       0.0209       4.6163       0.0029       2.7540       1.2033       0.7005
   2700.3792       8.8446      11.2440       0.0225      49.1580      18.0883    -999.2500    -999.2500    2866.2410     574.3328     918.8651       0.0188       4.4925       0.0029       2.7805       1.1165       0.6751
   2700.5315       8.8446      10.9032       0.0232      48.8703      17.1429    -999.2500    -999.2500    3400.3083     673.6885    1890.0364       0.0180       4.3062       0.0030       2.7711       1.0113       0.6155
   2700.6838       8.8254      11.8284       0.0263      48.5892      18.2557    -999.2500    -999.2500    5176.1099     989.7613    1795.3064       0.0173       4.2998       0.0030       2.7641       1.1987       0.6340
   2700.8362       8.8542      12.3653       0.0185      47.9948      19.2873    -999.2500    -999.2500    7172.7710    1274.0265     334.0885       0.0167       4.2450       0.0030       2.7439       1.3343       0.6828
   2700.9885       8.8447      11.2980       0.0116      47.9645      18.4300    -999.2500    -999.2500    8247.9902    1496.5408    2000.0000       0.0174       4.4671       0.0025       2.7423       1.3213       0.7035
   2701.1411       8.8446      11.4997       0.0135      48.4200      19.1664    -999.2500    -999.2500    9239.8574    1568.9642    2000.0000       0.0185       4.5984       0.0023       2.7582       1.4200       0.7563
   2701.2935       8.8446      13.2988       0.0085      48.2956      21.7072    -999.2500    -999.2500   10444.5889    1672.7769    2000.0000       0.0197       4.5883       0.0028       2.7542       1.6055       0.8294
   2701.4458       8.8830      10.9722       0.0046      48.5053      17.5961    -999.2500    -999.2500   11170.8965    1758.4390    2000.0000       0.0192       4.8681       0.0022       2.7565       1.3711       0.6534
   2701.5981       8.8638      13.6121       0.0025      48.6078      21.3182    -999.2500    -999.2500   11787.6602    1913.5634    2000.0000       0.0189       4.9135       0.0043       2.7580       1.0404       0.7602
   2701.7507       8.8638      13.2591       0.0025      48.4280      20.7488    -999.2500    -999.2500   12181.7500    1962.8215    2000.0000       0.0196       5.5206       0.0046       2.7584       0.8620       0.7388
   2701.9031       8.8350      15.7232      -0.0012      48.3529      24.2085    -999.2500    -999.2500   10736.0215    1826.9417    2000.0000       0.0201       5.2224       0.0055       2.7440       0.9720       0.8370
   2702.0554       8.8254      16.3132       0.0007      48.1765      25.1816    -999.2500    -999.2500   10056.4932    1690.9271    2000.0000       0.0202       5.4659       0.0056       2.7346       1.0770       0.8748
   2702.2078       8.8542      18.6588       0.0044      49.1731      30.6103    -999.2500    -999.2500    8561.7607    1504.6573    2000.0000       0.0215       4.8800       0.0041       2.7186       2.1796       1.1789
   2702.3604       8.8446      19.8407       0.0092      49.6905      32.2834    -999.2500    -999.2500    7811.6177    1370.7841    2000.0000       0.0233       5.0410       0.0044       2.7110       2.3026       1.2274
   2702.5127       8.8446      22.1752       0.0116      50.4656      35.2195    -999.2500    -999.2500    6794.2300    1309.1979    2000.0000       0.0258       5.1871       0.0053       2.7118       2.4153       1.2867
   2702.6650       8.8350      21.3067       0.0266      49.4881      33.5226    -999.2500    -999.2500    5268.1045    1141.8035    2000.0000       0.0265       5.6554       0.0050       2.7501       2.3385       1.2050
   2702.8174       8.8638      21.8448       0.0255      50.1206      33.9420    -999.2500    -999.2500    4976.8828    1048.7104    1908.7318       0.0253       5.0773       0.0050       2.7444       2.4596       1.1933
   2702.9697       8.8827      19.2262       0.0161      49.6420      29.2441    -999.2500    -999.2500    4100.7690     961.6072    1869.3639       0.0252       4.3901       0.0045       2.7184       2.1332       0.9882
   2703.1223       8.8350      18.7153       0.0117      49.5261      27.9325    -999.2500    -999.2500    4010.2959     942.0759    2000.0000       0.0259       4.3857       0.0043       2.7046       2.0886       0.9092
   2703.2747       8.8350      19.1110       0.0127      49.1744      28.4143    -999.2500    -999.2500    3694.9805     945.3087    1644.2974       0.0322       4.3438       0.0044       2.7111       2.1412       0.9177
   2703.4270       8.8446      23.1091       0.0104      49.6415      33.7274    -999.2500    -999.2500    3640.4456     977.8474     682.0786       0.0383       4.8319       0.0065       2.7188       2.1013       1.0474
   2703.5793       8.8734      29.3982       0.0095      49.4654      39.3716    -999.2500    -999.2500    3448.2725    1018.6434     836.0331       0.0449       4.8931       0.0097       2.7215       2.0887       0.9838
