#------------------------------------------------------------------------------
#
#   Created by  : [OpenWorks] Log Export Utility (LEXP)
#   Created on  : 2015-10-01 09:50:16
#   Project     : CANT971
#   User        : R5K
#   Interpreter : PEP
#
#------------------------------------------------------------------------------
~VERSION INFORMATION
VERS. 2.0 : CWLS Log ASCII Standard - version 2.0
WRAP.  NO : One line per depth step
~WELL INFORMATION
#MNEMONIC   .UNIT                                           VALUE :DESCRIPTION
#------------------------------------------------------------------------------
STRT        .M                                           352.7300 :START DEPTH
STOP        .M                                          2346.8840 :STOP DEPTH
STEP        .M                                             0.1524 :STEP
NULL        .                                           -999.2500 :NULL VALUE
COMP        .                                   PEMEX EXPL & PROD :COMPANY
WELL        .                                        CANTARELL-64 :WELL
FLD         .                                           CANTARELL :FIELD
LOC         .                                             UNKNOWN :LOCATION
CNTY        .                                      CD. DEL CARMEN :COUNTY
STAT        .                                            CAMPECHE :STATE
CTRY        .                                              MEXICO :COUNTRY
SRVC        .                                             UNKNOWN :SERVICE COMPANY
DATE        .                                             UNKNOWN :LOG DATE
UWI         .                                          3060000172 :UNIQUE WELL ID
XCOORD      .                                       599695.280000 :SURFACE X
YCOORD      .                                      2143036.290000 :SURFACE Y
LAT         .                                           19.380142 :LATITUDE
LON         .                                          -92.050647 :LONGITUDE
ELEV        .M                                            26.7400 :SURFACE ELEV
ELEV_TYPE   .                                                  KB :ELEV TYPE
~CURVE INFORMATION
#MNEMONIC.UNIT        API CODE       : CURVE DESCRIPTION
#------------------------------------------------------------------------------
DEPTH    .M                          : Measured Depth
CALI     .inches      UNKNOWN        : CALI:UNKNOWN:rC:NONE:v0 (auto-composite)
DRHO     .g/cm3       UNKNOWN        : DRHO:UNKNOWN:rC:NONE:v0 (auto-composite)
DT       .us/ft       UNKNOWN        : DT:DT:rC:NONE:v0 (auto-composite)
GR       .API         UNKNOWN        : GR:GR-Load:rC:NONE:v0 (auto-composite)
ILD      .ohm.m       UNKNOWN        : ILD:ILD-Load:rC:NONE:v0 (auto-composite)
LLD      .ohm.m       UNKNOWN        : LLD:UNKNOWN:rC:NONE:v0 (auto-composite)
LLS      .ohm.m       UNKNOWN        : LLS:UNKNOWN:rC:NONE:v0 (auto-composite)
MSFL     .ohm.m       UNKNOWN        : MSFL:UNKNOWN:rC:NONE:v0 (auto-composite)
NPHI     .v/v_decimal UNKNOWN        : NPHI:NPHI:rC:NONE:v0 (auto-composite)
PEF      .b/elec      UNKNOWN        : PEF:UNKNOWN:rC:NONE:v0 (auto-composite)
RHOB     .g/cm3       UNKNOWN        : RHOB:RHOB-Load:rC:NONE:v0 (auto-composite)
~A     DEPTH        CALI         DRHO           DT           GR          ILD          LLD          LLS         MSFL         NPHI          PEF         RHOB
# ...
   2254.6821      5.4982       0.0923      74.3834      97.1223       0.0000      25.4920      23.9831      27.7779      11.5500       3.8342       2.4773 
   2254.8345      5.4861       0.0888      74.3484     105.6930       0.0000      37.1134      35.1791      59.3651      13.8580       3.9579       2.4778 
   2254.9868      5.4800       0.0730      71.7595     108.3350       0.0000      63.6961      57.3273     102.0578      13.8817       4.0353       2.5001 
   2255.1392      5.4800       0.0444      66.6491     105.1234       0.0000     105.8279      90.8577     156.2921      11.6644       4.0643       2.5441 
   2255.2917      5.4800       0.0312      62.3596      97.7482       0.0000     131.2107     111.3999     174.3252       9.2322       4.0788       2.5791 
   2255.4441      5.4800       0.0338      58.8781      86.2479       0.0000     139.5683     118.7398     155.5602       6.5899       4.0782       2.6050 
   2255.5964      5.4800       0.0342      57.3697      76.3561       0.0000     136.2274     121.5474     136.8859       4.8640       4.1223       2.6097 
   2255.7488      5.4800       0.0327      57.8103      68.0532       0.0000     121.2559     119.8492     118.3019       4.0377       4.2105       2.5932 
   2255.9011      5.4800       0.0328      57.9859      63.1496       0.0000     103.0715     116.5155     109.6693       3.7513       4.3122       2.5802 
   2256.0537      5.4800       0.0343      57.9005      61.6155       0.0000      81.7630     111.5913     110.7132       3.9931       4.4270       2.5707 
   2256.2061      5.4800       0.0450      58.1279      60.6019       0.0000      67.8479     107.6917     103.2020       4.3040       4.4316       2.5622 
   2256.3584      5.4800       0.0646      58.6646      60.1026       0.0000      60.9643     104.7664      87.5547       4.6827       4.3314       2.5547 
   2256.5107      5.4873       0.0810      59.1467      59.4620       0.0000      53.5768      89.7915     109.2982       5.0001       4.0691       2.5515 
   2256.6633      5.5013       0.0945      59.5750      58.6812       0.0000      45.7175      63.5362     166.0455       5.2574       3.6549       2.5525 
   2256.8157      5.5030       0.1075      59.8717      57.1127       0.0000      39.5174      46.2008     155.8895       5.2006       3.4473       2.5580 
   2256.9680      5.4935       0.1201      60.0383      54.7654       0.0000      34.8364      37.0324      84.4770       4.8349       3.4288       2.5680 
   2257.1204      5.4869       0.1350      61.7294      51.4498       0.0000      31.8825      31.9540      94.2947       5.2397       3.4819       2.5572 
   2257.2729      5.4829       0.1520      64.9235      47.1796       0.0000      30.4751      30.5381     176.8510       6.3992       3.5992       2.5257 
   2257.4253      5.4869       0.1525      65.9284      45.3017       0.0000      32.3715      32.3530     182.8274       7.2335       3.7315       2.5213 
   2257.5776      5.4979       0.1385      64.7675      45.7903       0.0000      37.1613      36.9974     121.7385       7.7482       3.8769       2.5438 
   2257.7300      5.4998       0.1258      63.2875      45.7950       0.0000      43.5327      42.4147      90.7709       7.5981       3.9751       2.5711 
   2257.8823      5.4937       0.1143      61.4929      45.3222       0.0000      51.2586      48.4941      85.6006       6.7963       4.0327       2.6030 
   2258.0349      5.4880       0.1136      59.8612      47.2066       0.0000      54.4580      50.4182      85.6176       5.9855       4.1220       2.6258 
   2258.1873      5.4825       0.1222      58.3898      51.4241       0.0000      53.8663      48.8621      89.9792       5.1658       4.2377       2.6393 
   2258.3396      5.4827       0.1219      57.5014      57.3507       0.0000      50.8336      45.6945      81.1495       4.5681       4.3194       2.6407 
   2258.4919      5.4878       0.1144      57.1883      64.9639       0.0000      45.7886      41.1986      61.4459       4.1879       4.3731       2.6302 
   2258.6445      5.4881       0.1052      57.1748      71.6579       0.0000      45.1858      41.2850      50.8128       4.0740       4.4325       2.6278 
   2258.7969      5.4845       0.0946      57.4562      77.4415       0.0000      48.1635      45.0649      47.4911       4.2205       4.4967       2.6333 
   2258.9492      5.4822       0.1021      57.6395      80.3009       0.0000      51.7166      48.9105      48.3734       4.3528       4.5617       2.6350 
   2259.1016      5.4807       0.1236      57.7261      80.2729       0.0000      55.7233      52.8078      52.5690       4.4714       4.6274       2.6330 
   2259.2542      5.4990       0.1242      57.6632      78.3428       0.0000      55.4009      53.0051      52.0217       4.5876       4.6161       2.6207 
   2259.4065      5.5326       0.1087      57.4533      74.5278       0.0000      51.7428      50.3513      47.8196       4.7016       4.5454       2.5982 
   2259.5588      5.5321       0.1071      57.7070      71.4848       0.0000      49.7161      48.8076      47.9161       4.7411       4.4299       2.5983 
   2259.7112      5.5061       0.1162      58.4188      69.2043       0.0000      48.9186      48.1002      51.2512       4.7076       4.2806       2.6208 
   2259.8635      5.4944       0.1237      59.0170      67.6659       0.0000      49.4010      48.4673      54.4832       4.6953       3.9573       2.6280 
   2260.0161      5.4934       0.1303      59.5033      66.8631       0.0000      50.8325      49.6310      57.6390       4.7038       3.5050       2.6200 
   2260.1685      5.4910       0.1278      59.7397      66.2591       0.0000      57.9381      56.7692      55.4308       4.7999       3.3452       2.6142 
   2260.3208      5.4875       0.1187      59.7292      65.8518       0.0000      69.1557      68.2370      49.3354       4.9819       3.3974       2.6107 
   2260.4731      5.4842       0.1185      59.5647      64.1887       0.0000      90.5595      89.6879     196.2898       4.8776       3.5954       2.6130 
   2260.6257      5.4812       0.1245      59.2483      61.2802       0.0000     119.1788     118.2104     451.6587       4.4927       3.8967       2.6210 
   2260.7781      5.4800       0.1279      58.3594      56.5312       0.0000     128.6119     130.4745     530.2866       3.8875       4.0286       2.6258 
   2260.9304      5.4800       0.1294      56.9044      49.9623       0.0000     124.7618     131.4823     486.5508       3.0657       4.0431       2.6273 
   2261.0828      5.4800       0.1237      55.9409      43.1720       0.0000     107.8712     121.7198     359.5903       2.6911       4.0352       2.6298 
   2261.2354      5.4800       0.1132      55.4621      36.1636       0.0000      82.1574     104.6700     176.3198       2.7545       4.0122       2.6333 
   2261.3877      5.4800       0.1072      55.8244      33.6676       0.0000      60.3429      88.8391      78.8707       3.3036       4.0437       2.6320 
   2261.5400      5.4800       0.1042      57.0188      35.6363       0.0000      41.1065      73.8139      38.1635       4.3299       4.1113       2.6260 
   2261.6924      5.4928       0.1076      58.4255      39.3788       0.0000      31.0570      64.1082      21.9102       5.4771       4.1216       2.6137 
   2261.8447      5.5138       0.1151      60.0416      44.8709       0.0000      26.9822      57.8619      21.5608       6.7425       4.0945       2.5952 
   2261.9973      5.5232       0.1070      61.3122      51.2646       0.0000      25.9306      56.8392      53.3484       7.6632       4.0803       2.5790 
   2262.1497      5.5252       0.0889      62.2428      58.5508       0.0000      26.8000      59.1355     105.5556       8.2470       4.0743       2.5650 
   2262.3020      5.5142       0.0845      62.6841      67.1176       0.0000      27.1847      57.5428     109.9028       8.3044       4.0770       2.5688 
   2262.4543      5.4952       0.0885      62.6426      76.9484       0.0000      27.2684      53.5362      84.5435       7.8458       4.0850       2.5903 
