#------------------------------------------------------------------------------
#
#   Created by  : [OpenWorks] Log Export Utility (LEXP)
#   Created on  : 2016-05-23 11:57:24
#   Project     : CANT971
#   User        : R5K
#   Interpreter : PEP
#
#------------------------------------------------------------------------------
~VERSION INFORMATION
VERS. 2.0 : CWLS Log ASCII Standard - version 2.0
WRAP.  NO : One line per depth step
~WELL INFORMATION
#MNEMONIC   .UNIT                                           VALUE :DESCRIPTION
#------------------------------------------------------------------------------
STRT        .M                                           648.1292 :START DEPTH
STOP        .M                                          2685.5647 :STOP DEPTH
STEP        .M                                             0.1524 :STEP
NULL        .                                           -999.2500 :NULL VALUE
COMP        .                                   PEMEX EXPL & PROD :COMPANY
WELL        .                                                 81D :WELL
FLD         .                                           CANTARELL :FIELD
LOC         .                                             UNKNOWN :LOCATION
CNTY        .                                      CD. DEL CARMEN :COUNTY
STAT        .                                            CAMPECHE :STATE
CTRY        .                                              MEXICO :COUNTRY
SRVC        .                                             UNKNOWN :SERVICE COMPANY
DATE        .                                             UNKNOWN :LOG DATE
UWI         .                                          3060000666 :UNIQUE WELL ID
XCOORD      .                                       601717.100000 :SURFACE X
YCOORD      .                                      2142375.260000 :SURFACE Y
LAT         .                                           19.374067 :LATITUDE
LON         .                                          -92.031430 :LONGITUDE
ELEV        .M                                            30.0000 :SURFACE ELEV
ELEV_TYPEF  .b/elec                                            KB :ELEV TYPE
~CURVE INFORMATION
#MNEMONIC.UNIT        API CODE       : CURVE DESCRIPTION
#------------------------------------------------------------------------------
DEPTH    .M                          : Measured Depth
CALI     .in          UNKNOWN        : CALI:UNKNOWN:rC:NONE:v0 (auto-composite)
CGR      .API         UNKNOWN        : CGR:UNKNOWN:rC:NONE:v0 (auto-composite)
DRHO     .g/cm3       UNKNOWN        : DRHO:UNKNOWN:rC:NONE:v0 (auto-composite)
DT       .us/ft       UNKNOWN        : DT:DT:rC:NONE:v0 (auto-composite)
GR       .API         UNKNOWN        : GR:UNKNOWN:rC:NONE:v0 (auto-composite)
ILD      .ohmm        UNKNOWN        : ILD:UNKNOWN:rC:NONE:v0 (auto-composite)
ILM      .ohmm        UNKNOWN        : ILM:UNKNOWN:rC:NONE:v0 (auto-composite)
LLD      .ohmm        UNKNOWN        : LLD:UNKNOWN:rC:NONE:v0 (auto-composite)
LLS      .ohmm        UNKNOWN        : LLS:UNKNOWN:rC:NONE:v0 (auto-composite)
NPHI     .v/v_decimal UNKNOWN        : NPHI:NPHI:rC:NONE:v0 (auto-composite)
PEF      .b/elec      UNKNOWN        : PEF:UNKNOWN:rC:NONE:v0 (auto-composite)
POTA     .%           UNKNOWN        : POTA:UNKNOWN:rC:NONE:v0 (auto-composite)
RHOB     .g/cm3       UNKNOWN        : RHOB:UNKNOWN:rC:NONE:v0 (auto-composite)
THOR     .ppm         UNKNOWN        : THOR:UNKNOWN:rC:NONE:v0 (auto-composite)
URAN     .ppm         UNKNOWN        : URAN:UNKNOWN:rC:NONE:v0 (auto-composite)
~A     DEPTH         CALI          CGR         DRHO           DT           GR          ILD          ILM          LLD          LLS         NPHI          PEF         POTA         RHOB         THOR         URAN
# ...
   1729.8644      16.3736    -999.2500       0.0236     102.0011      49.2309       1.3249       1.3788    -999.2500    -999.2500      31.3990       4.9962    -999.2500       2.4402    -999.2500    -999.2500
   1730.0168      16.3620    -999.2500       0.0312     101.6099      50.7260       1.2162       1.2547    -999.2500    -999.2500      32.4743       4.9613    -999.2500       2.4626    -999.2500    -999.2500
   1730.1692      16.2808    -999.2500       0.0433     100.2383      51.3603       1.1314       1.1324    -999.2500    -999.2500      33.5871       4.8690    -999.2500       2.5062    -999.2500    -999.2500
   1730.3217      16.1935    -999.2500       0.0469      98.2467      52.4595       1.0769       1.0583    -999.2500    -999.2500      33.2090       4.7422    -999.2500       2.5220    -999.2500    -999.2500
   1730.4740      16.1008    -999.2500       0.0429      95.6214      53.9831       1.0498       1.0282    -999.2500    -999.2500      31.3075       4.5838    -999.2500       2.5125    -999.2500    -999.2500
   1730.6265      16.0778    -999.2500       0.0397      94.8485      54.3980       1.0344       1.0338    -999.2500    -999.2500      29.7125       4.5841    -999.2500       2.5030    -999.2500    -999.2500
   1730.7788      16.1173    -999.2500       0.0372      95.7444      53.8197       1.0294       1.0713    -999.2500    -999.2500      28.4362       4.7266    -999.2500       2.4935    -999.2500    -999.2500
   1730.9312      16.2036    -999.2500       0.0365      96.4502      53.2258       1.0579       1.1236    -999.2500    -999.2500      28.1719       4.8080    -999.2500       2.4864    -999.2500    -999.2500
   1731.0836      16.3319    -999.2500       0.0375      96.9519      52.6179       1.1165       1.1892    -999.2500    -999.2500      29.0299       4.8346    -999.2500       2.4813    -999.2500    -999.2500
   1731.2360      16.4180    -999.2500       0.0361      97.4819      52.6809       1.1729       1.2566    -999.2500    -999.2500      29.8695       4.8226    -999.2500       2.4753    -999.2500    -999.2500
   1731.3884      16.4670    -999.2500       0.0326      98.0602      53.3356       1.2274       1.3256    -999.2500    -999.2500      30.7004       4.7766    -999.2500       2.4683    -999.2500    -999.2500
   1731.5408      16.4304    -999.2500       0.0355      99.0891      53.4441       1.2769       1.3923    -999.2500    -999.2500      31.6231       4.6899    -999.2500       2.4714    -999.2500    -999.2500
   1731.6932      16.3182    -999.2500       0.0440     100.5896      53.0692       1.3220       1.4570    -999.2500    -999.2500      32.6430       4.5671    -999.2500       2.4834    -999.2500    -999.2500
   1731.8456      16.1952    -999.2500       0.0491     100.9856      53.8931       1.3894       1.5163    -999.2500    -999.2500      32.4448       4.6233    -999.2500       2.4925    -999.2500    -999.2500
   1731.9980      16.0628    -999.2500       0.0511     100.5394      55.7577       1.4762       1.5709    -999.2500    -999.2500      31.3098       4.8348    -999.2500       2.4990    -999.2500    -999.2500
   1732.1504      16.0282    -999.2500       0.0488     100.1165      57.1033       1.5479       1.6381    -999.2500    -999.2500      30.2243       5.0263    -999.2500       2.4920    -999.2500    -999.2500
   1732.3029      16.0767    -999.2500       0.0428      99.7361      58.0080       1.6068       1.7161    -999.2500    -999.2500      29.1831       5.2006    -999.2500       2.4735    -999.2500    -999.2500
   1732.4552      16.1304    -999.2500       0.0359      99.6793      56.1841       1.6681       1.8023    -999.2500    -999.2500      28.4293       5.4967    -999.2500       2.4531    -999.2500    -999.2500
   1732.6077      16.1885    -999.2500       0.0284      99.9079      52.0275       1.7312       1.8955    -999.2500    -999.2500      27.9288       5.8968    -999.2500       2.4310    -999.2500    -999.2500
   1732.7600      16.1636    -999.2500       0.0245      98.4539      49.7715       1.8063       1.9538    -999.2500    -999.2500      28.9280       5.9182    -999.2500       2.4300    -999.2500    -999.2500
   1732.9124      16.0691    -999.2500       0.0235      95.6304      49.1040       1.8912       1.9828    -999.2500    -999.2500      31.1160       5.6229    -999.2500       2.4465    -999.2500    -999.2500
   1733.0648      16.0385    -999.2500       0.0317      93.3042      50.0590       1.8698       1.9342    -999.2500    -999.2500      32.4389       5.7624    -999.2500       2.4698    -999.2500    -999.2500
   1733.2172      16.0616    -999.2500       0.0478      91.4962      52.3795       1.7590       1.8204    -999.2500    -999.2500      32.8607       6.2678    -999.2500       2.4989    -999.2500    -999.2500
   1733.3696      16.1100    -999.2500       0.0520      91.6887      53.8638       1.7610       1.8081    -999.2500    -999.2500      30.6828       6.8544    -999.2500       2.4853    -999.2500    -999.2500
   1733.5220      16.1791    -999.2500       0.0465      93.3684      54.6600       1.8557       1.8793    -999.2500    -999.2500      26.6245       7.5077    -999.2500       2.4367    -999.2500    -999.2500
   1733.6744      16.2825    -999.2500       0.0426      94.4259      53.7037       2.0721       2.0098    -999.2500    -999.2500      23.9807       7.9000    -999.2500       2.4078    -999.2500    -999.2500
   1733.8268      16.4134    -999.2500       0.0401      94.8066      51.3372       2.3864       2.1882    -999.2500    -999.2500      22.8397       8.0824    -999.2500       2.3948    -999.2500    -999.2500
   1733.9792      16.6052    -999.2500       0.0434      95.2877      49.6321       2.4132       2.2018    -999.2500    -999.2500      24.4778       7.5563    -999.2500       2.3984    -999.2500    -999.2500
   1734.1316      16.8464    -999.2500       0.0515      95.8550      48.4628       2.2071       2.0820    -999.2500    -999.2500      28.0319       6.4562    -999.2500       2.4155    -999.2500    -999.2500
   1734.2841      17.0238    -999.2500       0.0480      96.8876      48.9955       1.9329       1.8757    -999.2500    -999.2500      30.5586       5.5226    -999.2500       2.4205    -999.2500    -999.2500
   1734.4364      17.1507    -999.2500       0.0355      98.3259      50.8765       1.6046       1.6009    -999.2500    -999.2500      32.0883       4.7208    -999.2500       2.4160    -999.2500    -999.2500
   1734.5889      17.1841    -999.2500       0.0333     100.0742      52.5916       1.3848       1.4034    -999.2500    -999.2500      33.2462       4.3907    -999.2500       2.4260    -999.2500    -999.2500
   1734.7412      17.1430    -999.2500       0.0394     102.0580      54.1745       1.2514       1.2675    -999.2500    -999.2500      34.1216       4.4368    -999.2500       2.4476    -999.2500    -999.2500
   1734.8936      17.0416    -999.2500       0.0437     103.4075      55.2023       1.1581       1.1779    -999.2500    -999.2500      33.8621       4.4167    -999.2500       2.4660    -999.2500    -999.2500
   1735.0460      16.8933    -999.2500       0.0467     104.1698      55.7972       1.0959       1.1242    -999.2500    -999.2500      32.7267       4.3451    -999.2500       2.4820    -999.2500    -999.2500
   1735.1984      16.8267    -999.2500       0.0469     103.4936      54.5691       1.0752       1.1078    -999.2500    -999.2500      31.6779       4.3375    -999.2500       2.4924    -999.2500    -999.2500
   1735.3508      16.8227    -999.2500       0.0449     101.4915      51.9468       1.0862       1.1198    -999.2500    -999.2500      30.7088       4.3790    -999.2500       2.4984    -999.2500    -999.2500
   1735.5032      16.8165    -999.2500       0.0403     100.1168      50.2676       1.1106       1.1443    -999.2500    -999.2500      30.1663       4.4248    -999.2500       2.4939    -999.2500    -999.2500
   1735.6556      16.8084    -999.2500       0.0338      99.1642      49.3125       1.1452       1.1784    -999.2500    -999.2500      29.9136       4.4739    -999.2500       2.4814    -999.2500    -999.2500
