#------------------------------------------------------------------------------
#
#   Created by  : [OpenWorks] Log Export Utility (LEXP)
#   Created on  : 2016-05-11 12:45:47
#   Project     : CANT971
#   User        : R5K
#   Interpreter : PEP
#
#------------------------------------------------------------------------------
~VERSION INFORMATION
VERS. 2.0 : CWLS Log ASCII Standard - version 2.0
WRAP.  NO : One line per depth step
~WELL INFORMATION
#MNEMONIC   .UNIT                                           VALUE :DESCRIPTION
#------------------------------------------------------------------------------
STRT        .M                                           801.4664 :START DEPTH
STOP        .M                                          3402.1724 :STOP DEPTH
STEP        .M                                             0.1524 :STEP
NULL        .                                           -999.2500 :NULL VALUE
COMP        .                                   PEMEX EXPL & PROD :COMPANY
WELL        .                                        CANTARELL-85 :WELL
FLD         .                                           CANTARELL :FIELD
LOC         .                                             UNKNOWN :LOCATION
CNTY        .                                      CD. DEL CARMEN :COUNTY
STAT        .                                            CAMPECHE :STATE
CTRY        .                                              MEXICO :COUNTRY
SRVC        .                                             UNKNOWN :SERVICE COMPANY
DATE        .                                             UNKNOWN :LOG DATE
UWI         .                                          3060000185 :UNIQUE WELL ID
XCOORD      .                                       604541.690000 :SURFACE X
YCOORD      .                                      2141649.620000 :SURFACE Y
LAT         .                                           19.367365 :LATITUDE
LON         .                                          -92.004578 :LONGITUDE
ELEV        .M                                            30.0000 :SURFACE ELEV
ELEV_TYPE   .                                                  KB :ELEV TYPE
~CURVE INFORMATION
#MNEMONIC.UNIT        API CODE       : CURVE DESCRIPTION
#------------------------------------------------------------------------------
DEPTH    .M                          : Measured Depth
CALI     .inches      UNKNOWN        : CALI:Import:rC:NONE:v0 (auto-composite)
DRHO     .g/cm3       UNKNOWN        : DRHO:Import:rC:NONE:v0 (auto-composite)
DT       .us/ft       UNKNOWN        : DT:Import:rC:NONE:v0 (auto-composite)
GR       .API         UNKNOWN        : GR:Import:rC:NONE:v0 (auto-composite)
ILD      .ohm.m       UNKNOWN        : ILD:Import:rC:NONE:v0 (auto-composite)
ILM      .ohm.m       UNKNOWN        : ILM:Import:rC:NONE:v0 (auto-composite)
NPHI     .v/v_decimal UNKNOWN        : NPHI:Import:rC:NONE:v0 (auto-composite)
RHOB     .g/cm3       UNKNOWN        : RHOB:Import:rC:NONE:v0 (auto-composite)
SN       .ohm.m       UNKNOWN        : SN:Import:rC:NONE:v0 (auto-composite)
SP       .mV          UNKNOWN        : SP:Import:rC:NONE:v0 (auto-composite)
~A     DEPTH         CALI         DRHO           DT           GR          ILD          ILM         NPHI         RHOB           SN           SP
# ...
   2781.4473       8.5843       0.0264      72.6896      39.4925       3.4946    -999.2500      13.9116       2.5653    -999.2500    -999.2500
   2781.5996       8.6063       0.0299      72.5507      40.2105       3.5232    -999.2500      13.1073       2.5708    -999.2500    -999.2500
   2781.7520       8.6220       0.0431      72.7110      40.1053       3.6371    -999.2500      13.1526       2.5943    -999.2500    -999.2500
   2781.9043       8.6375       0.0566      72.8811      39.9758       3.7536    -999.2500      13.2274       2.6183    -999.2500    -999.2500
   2782.0569       8.7082       0.0715      74.3613      38.1587       3.7405    -999.2500      13.7265       2.6171    -999.2500    -999.2500
   2782.2092       8.7807       0.0865      75.8851      36.2905       3.7235    -999.2500      14.2395       2.6151    -999.2500    -999.2500
   2782.3616       8.9596       0.0865      74.4432      36.3258       3.7230    -999.2500      16.6000       2.5985    -999.2500    -999.2500
   2782.5139       9.1421       0.0860      72.9027      36.4238       3.7230    -999.2500      19.0157       2.5815    -999.2500    -999.2500
   2782.6663       9.2482       0.0850      72.8857      38.5763       3.7027    -999.2500      18.9424       2.5897    -999.2500    -999.2500
   2782.8188       9.3517       0.0840      72.9237      40.7983       3.6817    -999.2500      18.7796       2.5987    -999.2500    -999.2500
   2782.9712       9.3429       0.0825      73.1456      40.7712       3.5734    -999.2500      18.2738       2.5975    -999.2500    -999.2500
   2783.1235       9.3304       0.0810      73.3730      40.6660       3.4621    -999.2500      17.7581       2.5960    -999.2500    -999.2500
   2783.2759       9.3726       0.0771      73.1239      40.3397       3.4745    -999.2500      17.6061       2.5887    -999.2500    -999.2500
   2783.4285       9.4166       0.0731      72.8581      40.0072       3.4905    -999.2500      17.4677       2.5812    -999.2500    -999.2500
   2783.5808       9.6551       0.0754      73.0956      38.8666       3.4721    -999.2500      17.2018       2.5810    -999.2500    -999.2500
   2783.7332       9.9001       0.0779      73.3505      37.7006       3.4526    -999.2500      16.9320       2.5810    -999.2500    -999.2500
   2783.8855       9.8959       0.0741      74.7390      37.9985       3.3508    -999.2500      16.4329       2.5834    -999.2500    -999.2500
   2784.0381       9.8834       0.0701      76.1659      38.3439       3.2464    -999.2500      15.9264       2.5859    -999.2500    -999.2500
   2784.1904       9.9803       0.0860      76.1178      38.1001       3.2865    -999.2500      14.2411       2.6015    -999.2500    -999.2500
   2784.3428      10.0808       0.1025      76.0174      37.8367       3.3315    -999.2500      12.5180       2.6175    -999.2500    -999.2500
   2784.4951      10.0598       0.0827      74.0693      36.7342       3.5054    -999.2500      12.5030       2.6170    -999.2500    -999.2500
   2784.6475      10.0348       0.0617      72.0584      35.6030       3.6838    -999.2500      12.5475       2.6160    -999.2500    -999.2500
   2784.8000       9.8758       0.0649      72.1297      34.5011       3.5192    -999.2500      12.7317       2.6131    -999.2500    -999.2500
   2784.9524       9.7123       0.0689      72.2751      33.4001       3.3443    -999.2500      12.9206       2.6101    -999.2500    -999.2500
   2785.1047       9.7220       0.0685      72.8235      33.6293       3.4292    -999.2500      13.3454       2.6061    -999.2500    -999.2500
   2785.2571       9.7375       0.0680      73.3855      33.8996       3.5221    -999.2500      13.7780       2.6021    -999.2500    -999.2500
   2785.4097       9.8295       0.0535      73.8454      35.5359       3.2848    -999.2500      14.8698       2.5661    -999.2500    -999.2500
   2785.5620       9.9240       0.0385      74.3006      37.2157       3.0369    -999.2500      15.9823       2.5291    -999.2500    -999.2500
   2785.7144      10.0668       0.0399      75.1616      37.0379       3.6136    -999.2500      15.5845       2.5285    -999.2500    -999.2500
   2785.8667      10.2113       0.0419      76.0337      36.7992       4.2173    -999.2500      15.1356       2.5290    -999.2500    -999.2500
   2786.0193      10.2431       0.0483      74.1678      34.7570       3.9050    -999.2500      15.2205       2.5261    -999.2500    -999.2500
   2786.1716      10.2711       0.0548      72.2077      32.6509       3.5601    -999.2500      15.3245       2.5231    -999.2500    -999.2500
   2786.3240      10.3726       0.0313      72.5812      32.6965       3.6007    -999.2500      15.9477       2.4803    -999.2500    -999.2500
   2786.4763      10.4766       0.0068      73.0352      32.8203       3.6554    -999.2500      16.5867       2.4363    -999.2500    -999.2500
   2786.6287      10.6261       0.0075      74.4487      33.3750       3.6488    -999.2500      17.6728       2.4413    -999.2500    -999.2500
   2786.7812      10.7771       0.0090      75.8936      33.9427       3.6403    -999.2500      18.7724       2.4478    -999.2500    -999.2500
   2786.9336      10.8091       0.0332      76.6990      34.7003       3.5422    -999.2500      18.6890       2.5042    -999.2500    -999.2500
   2787.0859      10.8371       0.0582      77.4787      35.4639       3.4413    -999.2500      18.5644       2.5622    -999.2500    -999.2500
   2787.2383      10.7528       0.0450      77.4572      36.3808       3.2065    -999.2500      18.7011       2.5596    -999.2500    -999.2500
   2787.3909      10.6648       0.0305      77.4067      37.3029       2.9671    -999.2500      18.8470       2.5551    -999.2500    -999.2500
   2787.5432      10.6741       0.0397      78.5197      39.3121       2.9590    -999.2500      19.7342       2.5405    -999.2500    -999.2500
   2787.6956      10.6866       0.0497      79.6714      41.3593       2.9590    -999.2500      20.6454       2.5255    -999.2500    -999.2500
   2787.8479      10.8210       0.0490      90.9598      44.3788       2.9527    -999.2500      22.6337       2.5221    -999.2500    -999.2500
   2788.0005      10.9595       0.0480     102.5916      47.4264       2.9462    -999.2500      24.6573       2.5191    -999.2500    -999.2500
   2788.1528      10.9398       0.0335     101.3398      49.5263       2.8980    -999.2500      26.7437       2.5103    -999.2500    -999.2500
   2788.3052      10.9148       0.0185      99.6325      51.5977       2.8486    -999.2500      28.8268       2.5013    -999.2500    -999.2500
   2788.4575      10.6024       0.0224      99.5871      52.7680       2.6824    -999.2500      29.9915       2.4622    -999.2500    -999.2500
   2788.6099      10.2804       0.0269      99.5996      53.9090       2.5125    -999.2500      31.1229       2.4222    -999.2500    -999.2500
   2788.7625       9.1097       0.0405      99.8355      54.8842       2.5099    -999.2500      32.5440       2.4249    -999.2500    -999.2500
   2788.9148       7.9107       0.0545     100.0788      55.8538       2.5129    -999.2500      33.9717       2.4289    -999.2500    -999.2500
   2789.0671       7.8749       0.0569     100.7724      55.4966       2.5212    -999.2500      33.8963       2.4411    -999.2500    -999.2500
   2789.2195       7.8779       0.0589     101.4814      55.0938       2.5298    -999.2500      33.7684       2.4536    -999.2500    -999.2500
   2789.3721       7.8872       0.0663     101.9918      52.8125       2.5300    -999.2500      32.9865       2.4598    -999.2500    -999.2500
   2789.5244       7.8967       0.0738     102.4940      50.4745       2.5300    -999.2500      32.1833       2.4658    -999.2500    -999.2500
   2789.6768       8.0426       0.0735     101.7185      50.6541       2.5300    -999.2500      30.3871       2.4500    -999.2500    -999.2500
   2789.8291       8.1931       0.0730     100.9014      50.9120       2.5300    -999.2500      28.5634       2.4335    -999.2500    -999.2500
