#------------------------------------------------------------------------------
#
#   Created by  : [OpenWorks] Log Export Utility (LEXP)
#   Created on  : 2016-05-23 11:55:37
#   Project     : CANT971
#   User        : R5K
#   Interpreter : PEP
#
#------------------------------------------------------------------------------
~VERSION INFORMATION
VERS. 2.0 : CWLS Log ASCII Standard - version 2.0
WRAP.  NO : One line per depth step
~WELL INFORMATION
#MNEMONIC   .UNIT                                           VALUE :DESCRIPTION
#------------------------------------------------------------------------------
STRT        .M                                           299.0628 :START DEPTH
STOP        .M                                          2570.8896 :STOP DEPTH
STEP        .M                                             0.1524 :STEP
NULL        .                                           -999.2500 :NULL VALUE
COMP        .                                   PEMEX EXPL & PROD :COMPANY
WELL        .                                                  31 :WELL
FLD         .                                           CANTARELL :FIELD
LOC         .                                             UNKNOWN :LOCATION
CNTY        .                                      CD. DEL CARMEN :COUNTY
STAT        .                                            CAMPECHE :STATE
CTRY        .                                              MEXICO :COUNTRY
SRVC        .                                             UNKNOWN :SERVICE COMPANY
DATE        .                                             UNKNOWN :LOG DATE
UWI         .                                          3060000157 :UNIQUE WELL ID
XCOORD      .                                       599727.810000 :SURFACE X
YCOORD      .                                      2147216.930000 :SURFACE Y
LAT         .                                           19.417919 :LATITUDE
LON         .                                          -92.050118 :LONGITUDE
ELEV        .M                                            27.8000 :SURFACE ELEV
ELEV_TYPE   .                                                  KB :ELEV TYPE
~CURVE INFORMATION
#MNEMONIC.UNIT        API CODE       : CURVE DESCRIPTION
#------------------------------------------------------------------------------
DEPTH    .M                          : Measured Depth
CALI     .inches      UNKNOWN        : CALI:Import:rC:NONE:v0 (auto-composite)
DRHO     .g/cm3       UNKNOWN        : DRHO:Import:rC:NONE:v0 (auto-composite)
DT       .us/ft       UNKNOWN        : DT:Import:rC:NONE:v0 (auto-composite)
GR       .API         UNKNOWN        : GR:Import:rC:NONE:v0 (auto-composite)
ILD      .ohm.m       UNKNOWN        : ILD:Import:rC:NONE:v0 (auto-composite)
LLD      .ohm.m       UNKNOWN        : LLD:Import:rC:NONE:v0 (auto-composite)
LLS      .ohm.m       UNKNOWN        : LLS:Import:rC:NONE:v0 (auto-composite)
MSFL     .ohm.m       UNKNOWN        : MSFL:Import:rC:NONE:v0 (auto-composite)
NPHI     .v/v_decimal UNKNOWN        : NPHI:Import:rC:NONE:v0 (auto-composite)
RHOB     .g/cm3       UNKNOWN        : RHOB:Import:rC:NONE:v0 (auto-composite)
~A     DEPTH         CALI         DRHO           DT           GR          ILD          LLD          LLS         MSFL         NPHI         RHOB
# ...
   2244.9060       7.0000       0.0385    -999.2500      14.5931    -999.2500     172.6051      49.1858       6.0406       0.1635       2.5982
   2245.0583       7.0000       0.0426    -999.2500      14.6884    -999.2500     182.6152      50.2079       7.6109       0.1583       2.6070
   2245.2107       7.0000       0.0471    -999.2500      15.0033    -999.2500     200.7043      53.4533      15.6468       0.1518       2.6145
   2245.3633       7.0000       0.0515    -999.2500      15.3582    -999.2500     222.2578      59.5068      22.4503       0.1450       2.6215
   2245.5156       7.0000       0.0555    -999.2500      15.9724    -999.2500     265.9193      83.4813      21.2794       0.1384       2.6255
   2245.6680       7.0000       0.0597    -999.2500      16.5857    -999.2500     300.2821     103.7379      19.9207       0.1312       2.6293
   2245.8203       7.0000       0.0647    -999.2500      17.1929    -999.2500     276.4673     100.7329      17.3712       0.1232       2.6318
   2245.9729       7.0000       0.0697    -999.2500      17.7872    -999.2500     256.0618      98.8944      14.8973       0.1177       2.6355
   2246.1252       7.0000       0.0747    -999.2500      18.3023    -999.2500     256.5739     104.2131      12.8875       0.1174       2.6465
   2246.2776       7.0000       0.0794    -999.2500      18.8652    -999.2500     258.4211     108.7025      10.6887       0.1186       2.6558
   2246.4299       7.0000       0.0824    -999.2500      19.7157    -999.2500     268.3030     108.2009       7.3533       0.1185       2.6543
   2246.5825       7.0000       0.0861    -999.2500      20.8137    -999.2500     281.7820     105.0876       4.6008       0.1170       2.6505
   2246.7349       7.0000       0.0942    -999.2500      23.3732    -999.2500     316.2283      86.5524       5.2896       0.1140       2.6335
   2246.8872       7.0000       0.1009    -999.2500      25.5389    -999.2500     361.1682      71.2273       6.3766       0.1119       2.6191
   2247.0396       7.0000       0.0999    -999.2500      25.4228    -999.2500     466.1495      74.5042       9.7716       0.1126       2.6196
   2247.1919       7.0005       0.0986    -999.2500      25.1012    -999.2500     549.2956      83.9794      16.3160       0.1166       2.6204
   2247.3445       7.0040       0.0961    -999.2500      23.6113    -999.2500     509.7788     128.2737      40.7761       0.1245       2.6235
   2247.4968       7.0105       0.0935    -999.2500      22.3687    -999.2500     477.1503     165.3489      61.1996       0.1311       2.6269
   2247.6492       7.0330       0.0900    -999.2500      22.4909    -999.2500     482.5221     162.5982      59.0764       0.1326       2.6329
   2247.8015       7.0797       0.0865    -999.2500      23.0049    -999.2500     503.2646     157.8189      53.5530       0.1316       2.6422
   2247.9541       7.2574       0.0835    -999.2500      25.6425    -999.2500     607.2989     142.0475      29.6045       0.1296       2.6692
   2248.1064       7.4049       0.0812    -999.2500      27.6816    -999.2500     694.0191     135.5597      10.0663       0.1258       2.6914
   2248.2588       7.3919       0.0822    -999.2500      26.5348    -999.2500     688.5624     178.4970      14.0079       0.1198       2.6874
   2248.4111       7.3534       0.0844    -999.2500      25.5820    -999.2500     680.0843     213.9270      17.1957       0.1150       2.6808
   2248.5637       7.1817       0.0934    -999.2500      25.6440    -999.2500     655.9861     210.0820      16.4398       0.1144       2.6608
   2248.7161       7.0382       0.1008    -999.2500      25.4186    -999.2500     628.6482     199.9752      15.1647       0.1170       2.6301
   2248.8684       7.0392       0.0998    -999.2500      23.7152    -999.2500     584.8455     157.6698      11.2196       0.1228       2.5445
   2249.0208       7.0455       0.0982    -999.2500      22.3007    -999.2500     536.2397     122.5343       8.0290       0.1343       2.4766
   2249.1731       7.0785       0.0932    -999.2500      22.3473    -999.2500     463.6343     123.2256       8.6527       0.1527       2.4981
   2249.3257       7.1050       0.0854    -999.2500      22.4403    -999.2500     405.8340     124.8643      12.4662       0.1671       2.5159
   2249.4780       7.0990       0.0639    -999.2500      22.7611    -999.2500     420.7839     131.1587      32.1340       0.1687       2.5154
   2249.6304       7.0859       0.0463    -999.2500      23.1665    -999.2500     444.0468     140.2518      47.0128       0.1608       2.5114
   2249.7827       7.0389       0.0483    -999.2500      23.9805    -999.2500     507.4865     162.8718      38.7461       0.1464       2.4904
   2249.9353       7.0000       0.0498    -999.2500      25.1298    -999.2500     600.6586     203.8712      34.2528       0.1351       2.4730
   2250.0876       7.0000       0.0488    -999.2500      27.8735    -999.2500     835.1959     332.2569      47.7000       0.1344       2.4730
   2250.2400       7.0034       0.0466    -999.2500      30.0956    -999.2500    1023.6614     436.1194      58.7758       0.1421       2.4743
   2250.3923       7.0230       0.0386    -999.2500      29.8773    -999.2500     998.9554     425.2595      58.7578       0.1553       2.4818
   2250.5449       7.0675       0.0323    -999.2500      29.0952    -999.2500     946.4104     409.2430      55.5848       0.1606       2.4989
   2250.6973       7.2273       0.0338    -999.2500      25.7176    -999.2500     767.0916     369.7443      37.8876       0.1491       2.5600
   2250.8496       7.3537       0.0360    -999.2500      23.0847    -999.2500     620.8552     328.0928      23.4824       0.1367       2.6092
   2251.0020       7.3302       0.0415    -999.2500      23.7906    -999.2500     622.9127     276.7912      23.9934       0.1349       2.6047
   2251.1543       7.2822       0.0509    -999.2500      24.3175    -999.2500     628.6193     228.1529      24.3156       0.1393       2.5977
   2251.3069       7.1266       0.0774    -999.2500      24.0552    -999.2500     650.4297     191.2678      23.8045       0.1470       2.5797
   2251.4592       7.0007       0.0985    -999.2500      23.6853    -999.2500     667.2349     157.3284      23.0168       0.1596       2.5529
   2251.6116       7.0048       0.0960    -999.2500      22.8478    -999.2500     662.2902     136.1897      21.0275       0.1769       2.4878
   2251.7639       7.0241       0.0903    -999.2500      21.9720    -999.2500     654.2175     115.3656      18.7833       0.1900       2.4362
   2251.9165       7.1092       0.0708    -999.2500      20.9317    -999.2500     632.8981      95.8878      15.4484       0.1925       2.4427
   2252.0688       7.1772       0.0555    -999.2500      19.9139    -999.2500     597.6419      80.3575      11.6969       0.1892       2.4643
   2252.2212       7.1732       0.0580    -999.2500      18.9903    -999.2500     504.2456      81.4657       6.1895       0.1831       2.5494
   2252.3735       7.1663       0.0639    -999.2500      17.9125    -999.2500     432.8227      83.7772       1.7980       0.1712       2.6179
   2252.5261       7.1473       0.0839    -999.2500      16.1941    -999.2500     451.7073      91.0342       2.0403       0.1530       2.6174
   2252.6785       7.1189       0.0998    -999.2500      14.8880    -999.2500     513.0273     100.7407       3.6753       0.1388       2.6162
   2252.8308       7.0528       0.0988    -999.2500      15.2514    -999.2500     746.1886     120.3667      11.0072       0.1360       2.6122
   2252.9832       7.0000       0.0940    -999.2500      15.9892    -999.2500     929.8705     148.8072      16.7574       0.1392       2.6072
   2253.1355       7.0000       0.0740    -999.2500      18.2208    -999.2500     916.1045     212.4221      16.1952       0.1445       2.5982
   2253.2881       7.0013       0.0584    -999.2500      19.9865    -999.2500     879.6131     256.4060      15.7820       0.1514       2.5891
