#------------------------------------------------------------------------------
#
#   Created by  : [OpenWorks] Log Export Utility (LEXP)
#   Created on  : 2016-05-23 11:50:53
#   Project     : CANT971
#   User        : R5K
#   Interpreter : PEP
#
#------------------------------------------------------------------------------
~VERSION INFORMATION
VERS. 2.0 : CWLS Log ASCII Standard - version 2.0
WRAP.  NO : One line per depth step
~WELL INFORMATION
#MNEMONIC   .UNIT                                           VALUE :DESCRIPTION
#------------------------------------------------------------------------------
STRT        .M                                           494.4622 :START DEPTH
STOP        .M                                          2707.4626 :STOP DEPTH
STEP        .M                                             0.1524 :STEP
NULL        .                                           -999.2500 :NULL VALUE
COMP        .                                   PEMEX EXPL & PROD :COMPANY
WELL        .                                                1042 :WELL
FLD         .                                           CANTARELL :FIELD
LOC         .                                             UNKNOWN :LOCATION
CNTY        .                                      CD. DEL CARMEN :COUNTY
STAT        .                                            CAMPECHE :STATE
CTRY        .                                              MEXICO :COUNTRY
SRVC        .                                             UNKNOWN :SERVICE COMPANY
DATE        .                                             UNKNOWN :LOG DATE
UWI         .                                          3060000495 :UNIQUE WELL ID
XCOORD      .                                       596162.680000 :SURFACE X
YCOORD      .                                      2150604.600000 :SURFACE Y
LAT         .                                           19.448706 :LATITUDE
LON         .                                          -92.083900 :LONGITUDE
ELEV        .M                                            30.0000 :SURFACE ELEV
ELEV_TYPE   .                                                  KB :ELEV TYPE
~CURVE INFORMATION
#MNEMONIC.UNIT        API CODE       : CURVE DESCRIPTION
#------------------------------------------------------------------------------
DEPTH    .M                          : Measured Depth
CALI     .inches      UNKNOWN        : CALI:litodensidad:rC:NONE:v0 (auto-composite)
DT       .us/ft       UNKNOWN        : DT:DT:rC:NONE:v0 (auto-composite)
GR       .API         UNKNOWN        : GR:GR-Load:rC:NONE:v0 (auto-composite)
ILD      .ohmm        UNKNOWN        : ILD:UNKNOWN:rC:NONE:v0 (auto-composite)
LLD      .ohmm        UNKNOWN        : LLD:UNKNOWN:rC:NONE:v0 (auto-composite)
LLS      .ohmm        UNKNOWN        : LLS:UNKNOWN:rC:NONE:v0 (auto-composite)
MSFL     .ohmm        UNKNOWN        : MSFL:UNKNOWN:rC:NONE:v0 (auto-composite)
NPHI     .v/v_decimal UNKNOWN        : NPHI:NPHI:rC:NONE:v0 (auto-composite)
~A     DEPTH         CALI           DT           GR          ILD          LLD          LLS         MSFL         NPHI
# ...
   2376.7546       8.3339    -999.2500      25.2865       0.2000      67.4570      60.7683      37.3814       0.0322
   2376.9070       8.2977    -999.2500      27.9308       0.2000      68.0441      61.8290      46.4449       0.0317
   2377.0596       8.2812    -999.2500      29.8515       0.2000      65.3983      59.2063      53.5501       0.0342
   2377.2119       8.2700    -999.2500      29.5611       0.2000      58.4643      52.5290      49.7869       0.0378
   2377.3643       8.2640    -999.2500      27.0541       0.2000      48.7695      43.2413      39.0261       0.0426
   2377.5166       8.2333    -999.2500      30.2465       0.2000      40.2959      35.4571      29.7682       0.0473
   2377.6689       8.1784    -999.2500      39.1718       0.2000      32.5905      28.6186      21.4556       0.0517
   2377.8215       8.1545    -999.2500      40.0311       0.2000      32.7935      28.5451      15.4762       0.0544
   2377.9739       8.1615    -999.2500      32.8007       0.2000      37.8554      32.6282      10.9302       0.0554
   2378.1262       8.1580    -999.2500      27.0877       0.2000     110.2032      86.6736      49.8652       0.0542
   2378.2786       8.1440    -999.2500      22.9016       0.2000     223.2059     170.9071     115.0719       0.0509
   2378.4312       8.1378    -999.2500      21.7130       0.2000     271.2318     206.8684     147.5243       0.0472
   2378.5835       8.1393    -999.2500      23.5323       0.2000     280.9167     214.3457     160.6492       0.0431
   2378.7358       8.1443    -999.2500      24.1275       0.2000     215.5494     166.0604     121.1983       0.0395
   2378.8882       8.1528    -999.2500      23.4902       0.2000     106.9389      85.6460      51.4545       0.0362
   2379.0408       8.1404    -999.2500      22.3151       0.2000      59.2309      49.6670      23.7799       0.0351
   2379.1931       8.1074    -999.2500      20.6000       0.2000      45.7821      38.6841      19.7703       0.0359
   2379.3455       8.1166    -999.2500      21.6115       0.2000      37.6742      31.8286      13.0112       0.0417
   2379.4978       8.1676    -999.2500      25.3524       0.2000      32.4990      27.2396       4.7424       0.0525
   2379.6501       8.2626    -999.2500      26.9530       0.2000      33.7734      28.1306       2.6132       0.0601
   2379.8027       8.4011    -999.2500      26.4038       0.2000      38.5286      31.9793       3.7974       0.0645
   2379.9551       8.4434    -999.2500      25.9192       0.2000      49.1700      40.2774       7.9053       0.0627
   2380.1074       8.3904    -999.2500      25.4994       0.2000      62.9116      50.9189      13.5530       0.0549
   2380.2598       8.3949    -999.2500      25.4823       0.2000      76.8947      61.5435      14.1608       0.0472
   2380.4124       8.4564    -999.2500      25.8700       0.2000      91.0018      72.1594      12.1788       0.0397
   2380.5647       8.4820    -999.2500      26.5238       0.2000     103.1344      82.7550      28.9227       0.0346
   2380.7170       8.4720    -999.2500      27.4444       0.2000     114.2773      93.3403      55.0532       0.0320
   2380.8694       8.4582    -999.2500      27.7070       0.2000     118.6914      98.5341      96.7399       0.0302
   2381.0217       8.4407    -999.2500      27.3078       0.2000     119.8160     101.0922     146.0315       0.0291
   2381.1743       8.3732    -999.2500      25.2891       0.2000     102.1765      86.7677     150.3530       0.0282
   2381.3267       8.2561    -999.2500      21.6466       0.2000      75.5926      64.3956     133.2382       0.0274
   2381.4790       8.2023    -999.2500      21.6343       0.2000      58.9066      49.9867     101.4077       0.0267
   2381.6313       8.2108    -999.2500      25.2736       0.2000      46.8542      39.3056      62.6884       0.0260
   2381.7839       8.2411    -999.2500      27.7680       0.2000      43.3965      36.0943      36.3727       0.0258
   2381.9363       8.2932    -999.2500      29.1139       0.2000      43.8603      36.2914      15.7164       0.0259
   2382.0886       8.2853    -999.2500      28.7373       0.2000      59.1650      49.3174       9.9508       0.0261
   2382.2410       8.2183    -999.2500      26.6270       0.2000      81.0682      68.0473      10.8056       0.0265
   2382.3936       8.2043    -999.2500      26.5207       0.2000     121.2489     103.1767      13.0253       0.0271
   2382.5459       8.2429    -999.2500      28.4254       0.2000     169.3463     145.4093      15.8361       0.0281
   2382.6982       8.2708    -999.2500      30.0494       0.2000     179.4283     154.1068      14.2909       0.0300
   2382.8506       8.2883    -999.2500      31.3909       0.2000     173.4741     148.6581      10.9082       0.0329
   2383.0029       8.3372    -999.2500      29.0619       0.2000     147.6688     125.8909      10.6751       0.0393
   2383.1555       8.4172    -999.2500      23.0477       0.2000     113.6470      95.9554      11.7456       0.0494
   2383.3079       8.4429    -999.2500      20.4349       0.2000      87.2777      74.1638      10.4673       0.0640
   2383.4602       8.4149    -999.2500      21.2270       0.2000      63.9916      55.6535       8.2426       0.0833
   2383.6125       8.3643    -999.2500      22.6872       0.2000      53.0483      47.3789       5.7197       0.0866
   2383.7651       8.2913    -999.2500      24.8185       0.2000      46.9444      43.1176       3.0799       0.0743
   2383.9175       8.2367    -999.2500      28.1143       0.2000      54.6202      51.9396       5.2728       0.0603
   2384.0698       8.2002    -999.2500      32.5764       0.2000      67.5521      65.7519       9.3089       0.0449
   2384.2222       8.1865    -999.2500      31.9608       0.2000      75.3619      74.3679      16.4996       0.0390
   2384.3748       8.1955    -999.2500      26.2422       0.2000      81.2718      81.0564      24.8602       0.0428
   2384.5271       8.1857    -999.2500      22.3393       0.2000      79.7369      78.1000      22.5436       0.0488
   2384.6794       8.1572    -999.2500      20.2557       0.2000      75.5176      71.6658      16.3770       0.0570
   2384.8318       8.1450    -999.2500      19.2931       0.2000      76.4289      70.0290      15.4035       0.0596
   2384.9841       8.1490    -999.2500      19.4576       0.2000      79.1529      70.0871      16.2649       0.0567
   2385.1367       8.1520    -999.2500      20.3059       0.2000      89.0952      76.4916      17.5944       0.0538
   2385.2891       8.1540    -999.2500      21.8398       0.2000     101.5151      85.0744      19.0845       0.0510
   2385.4414       8.1517    -999.2500      22.0395       0.2000     113.6203      93.7568      15.7417       0.0498
   2385.5938       8.1452    -999.2500      20.8971       0.2000     125.6206     102.4725      10.7879       0.0501
   2385.7463       8.1372    -999.2500      19.8716       0.2000     132.0839     107.7692       7.6980       0.0512
   2385.8987       8.1277    -999.2500      18.9635       0.2000     136.7558     111.9598       5.2111       0.0532
   2386.0510       8.1240    -999.2500      19.6477       0.2000     132.5441     109.5369       8.2054       0.0532
   2386.2034       8.1260    -999.2500      21.9345       0.2000     125.5438     105.0381      12.9202       0.0513
   2386.3560       8.1225    -999.2500      24.6558       0.2000     118.9216     101.0585      11.5853       0.0479
   2386.5083       8.1135    -999.2500      27.8129       0.2000     112.4156      97.2384       8.3925       0.0428
   2386.6606       8.1020    -999.2500      29.9677       0.2000     103.8302      90.6284       8.4621       0.0383
   2386.8130       8.0880    -999.2500      31.1131       0.2000      94.6256      83.1878       9.5030       0.0343
   2386.9653       8.0790    -999.2500      31.2016       0.2000      90.5356      79.1833      10.3870       0.0309
   2387.1179       8.0750    -999.2500      30.2287       0.2000      87.9209      76.1699      11.2259       0.0282
