#------------------------------------------------------------------------------
#
#   Created by  : [OpenWorks] Log Export Utility (LEXP)
#   Created on  : 2016-05-12 17:01:16
#   Project     : CANT971
#   User        : R5K
#   Interpreter : PEP
#
#------------------------------------------------------------------------------
~VERSION INFORMATION
VERS. 2.0 : CWLS Log ASCII Standard - version 2.0
WRAP.  NO : One line per depth step
~WELL INFORMATION
#MNEMONIC   .UNIT                                           VALUE :DESCRIPTION
#------------------------------------------------------------------------------
STRT        .M                                          4907.2798 :START DEPTH
STOP        .M                                          5813.7549 :STOP DEPTH
STEP        .M                                             0.1524 :STEP
NULL        .                                           -999.2500 :NULL VALUE
COMP        .                                   PEMEX EXPL & PROD :COMPANY
WELL        .                                            3026D_ST :WELL
FLD         .                                           CANTARELL :FIELD
LOC         .                                             UNKNOWN :LOCATION
CNTY        .                                      CD. DEL CARMEN :COUNTY
STAT        .                                            CAMPECHE :STATE
CTRY        .                                              MEXICO :COUNTRY
SRVC        .                                             UNKNOWN :SERVICE COMPANY
DATE        .                                             UNKNOWN :LOG DATE
UWI         .                                      3060000820D_ST :UNIQUE WELL ID
XCOORD      .                                       601717.200000 :SURFACE X
YCOORD      .                                      2148573.570000 :SURFACE Y
LAT         .                                           19.430078 :LATITUDE
LON         .                                          -92.031099 :LONGITUDE
ELEV        .M                                            30.0000 :SURFACE ELEV
ELEV_TYPE   .                                                  KB :ELEV TYPE
~CURVE INFORMATION
#MNEMONIC.UNIT        API CODE       : CURVE DESCRIPTION
#------------------------------------------------------------------------------
DEPTH    .M                          : Measured Depth
CALI     .inches      UNKNOWN        : CALI:registros:rC:NONE:v0 (auto-composite)
CGR      .API         UNKNOWN        : CGR:registros:rC:NONE:v0 (auto-composite)
DRHO     .g/cm3       UNKNOWN        : DRHO:registros:rC:NONE:v0 (auto-composite)
DT       .us/ft       UNKNOWN        : DT:registros:rC:NONE:v0 (auto-composite)
GR       .API         UNKNOWN        : GR:registros:rC:NONE:v0 (auto-composite)
ILD      .ohm.m       UNKNOWN        : ILD:registros:rC:NONE:v0 (auto-composite)
ILM      .ohm.m       UNKNOWN        : ILM:registros:rC:NONE:v0 (auto-composite)
NPHI     .UNKNOWN     UNKNOWN        : NPHI:registros:rC:NONE:v0 (auto-composite)
PEF      .b/elec      UNKNOWN        : PEF:registros:rC:NONE:v0 (auto-composite)
POTA     .UNKNOWN     UNKNOWN        : POTA:registros:rC:NONE:v0 (auto-composite)
RHOB     .g/cm3       UNKNOWN        : RHOB:registros:rC:NONE:v0 (auto-composite)
THOR     .ppm         UNKNOWN        : THOR:registros:rC:NONE:v0 (auto-composite)
URAN     .ppm         UNKNOWN        : URAN:registros:rC:NONE:v0 (auto-composite)
~A     DEPTH         CALI          CGR         DRHO           DT           GR          ILD          ILM         NPHI          PEF         POTA         RHOB         THOR         URAN
# ...
   5805.8301       6.3291    -999.2500      -0.0168    -999.2500     165.6001       6.3452       6.2494       0.2870      18.6038    -999.2500       2.7863    -999.2500    -999.2500
   5805.9824       6.3291    -999.2500      -0.0168    -999.2500     165.6001       6.3379       6.2419       0.2870      18.6038    -999.2500       2.7863    -999.2500    -999.2500
   5806.1348       6.3291    -999.2500      -0.0168    -999.2500     165.6001       6.3928       6.2923       0.2870      18.6038    -999.2500       2.7863    -999.2500    -999.2500
   5806.2876       6.3291    -999.2500      -0.0168    -999.2500     165.6001       6.4405       6.3374       0.2870      18.6038    -999.2500       2.7863    -999.2500    -999.2500
   5806.4399       6.3291    -999.2500      -0.0168    -999.2500     165.6001       6.4323       6.3271       0.2870      18.6038    -999.2500       2.7863    -999.2500    -999.2500
   5806.5923       6.3291    -999.2500      -0.0168    -999.2500     165.6001       6.4432       6.3346       0.2870      18.6038    -999.2500       2.7863    -999.2500    -999.2500
   5806.7446       6.3291    -999.2500      -0.0168    -999.2500     165.6001       6.5087       6.3993       0.2870      18.6038    -999.2500       2.7863    -999.2500    -999.2500
   5806.8970       6.3291    -999.2500      -0.0168    -999.2500     165.6001       6.5294       6.4163       0.2870      18.6038    -999.2500       2.7863    -999.2500    -999.2500
   5807.0493       6.3291    -999.2500      -0.0168    -999.2500     165.6001       6.5223       6.4116       0.2870      18.6038    -999.2500       2.7863    -999.2500    -999.2500
   5807.2017       6.3291    -999.2500      -0.0168    -999.2500     165.6001       6.5364       6.4230       0.2870      18.6038    -999.2500       2.7863    -999.2500    -999.2500
   5807.3540       6.3291    -999.2500      -0.0168    -999.2500     165.6001       6.5278       6.4187       0.2870      18.6038    -999.2500       2.7863    -999.2500    -999.2500
   5807.5063       6.3291    -999.2500      -0.0168    -999.2500     165.6001       6.4962       6.3835       0.2870      18.6038    -999.2500       2.7863    -999.2500    -999.2500
   5807.6592       6.3291    -999.2500      -0.0168    -999.2500     165.6001       6.4540       6.3465       0.2870      18.6038    -999.2500       2.7863    -999.2500    -999.2500
   5807.8115       6.3291    -999.2500      -0.0168    -999.2500     165.6001       6.3948       6.2924       0.2870      18.6038    -999.2500       2.7863    -999.2500    -999.2500
   5807.9639       6.3291    -999.2500      -0.0168    -999.2500     165.6001       6.3805       6.2792       0.2870      18.6038    -999.2500       2.7863    -999.2500    -999.2500
   5808.1162       6.3291    -999.2500      -0.0168    -999.2500     165.6001       6.3508       6.2532       0.2870      18.6038    -999.2500       2.7863    -999.2500    -999.2500
   5808.2686       6.3291    -999.2500      -0.0168    -999.2500     165.6001       6.3305       6.2397       0.2870      18.6038    -999.2500       2.7863    -999.2500    -999.2500
   5808.4209       6.3291    -999.2500      -0.0168    -999.2500     165.6001       6.3447       6.2578       0.2870      18.6038    -999.2500       2.7863    -999.2500    -999.2500
   5808.5732       6.3291    -999.2500      -0.0168    -999.2500     165.6001       6.3834       6.3075       0.2870      18.6038    -999.2500       2.7863    -999.2500    -999.2500
   5808.7256       6.3291    -999.2500      -0.0168    -999.2500     165.6001       6.3638       6.3005       0.2870      18.6038    -999.2500       2.7863    -999.2500    -999.2500
   5808.8784       6.3291    -999.2500      -0.0168    -999.2500     165.6001       6.4550       6.4063       0.2870      18.6038    -999.2500       2.7863    -999.2500    -999.2500
   5809.0308       6.3291    -999.2500      -0.0168    -999.2500     165.6001       6.6315       6.5961       0.2870      18.6038    -999.2500       2.7863    -999.2500    -999.2500
   5809.1831       6.3291    -999.2500      -0.0168    -999.2500     165.6001       6.6479       6.6324       0.2870      18.6038    -999.2500       2.7863    -999.2500    -999.2500
   5809.3354       6.3291    -999.2500      -0.0168    -999.2500     165.6001       6.7591       6.7640       0.2870      18.6038    -999.2500       2.7863    -999.2500    -999.2500
   5809.4878       6.3291    -999.2500      -0.0168    -999.2500     165.6001       6.6691       6.6632       0.2870      18.6038    -999.2500       2.7863    -999.2500    -999.2500
   5809.6401       6.3291    -999.2500      -0.0168    -999.2500     165.6001       6.6161       6.6259       0.2870      18.6038    -999.2500       2.7863    -999.2500    -999.2500
   5809.7925       6.3291    -999.2500      -0.0168    -999.2500     165.6001       6.5973       6.6123       0.2870      18.6038    -999.2500       2.7863    -999.2500    -999.2500
   5809.9448       6.3291    -999.2500      -0.0168    -999.2500     165.6001       6.6253       6.6345       0.2870      18.6038    -999.2500       2.7863    -999.2500    -999.2500
   5810.0972       6.3291    -999.2500      -0.0168    -999.2500     165.6001       6.6846       6.6880       0.2870      18.6038    -999.2500       2.7863    -999.2500    -999.2500
   5810.2500       6.3291    -999.2500      -0.0168    -999.2500     165.6001       6.7054       6.7081       0.2870      18.6038    -999.2500       2.7863    -999.2500    -999.2500
   5810.4023       6.3291    -999.2500      -0.0168    -999.2500     165.6001       6.6689       6.6794       0.2870      18.6038    -999.2500       2.7863    -999.2500    -999.2500
   5810.5547       6.3291    -999.2500      -0.0168    -999.2500     165.6001       6.7782       6.7664       0.2870      18.6038    -999.2500       2.7863    -999.2500    -999.2500
   5810.7070       6.3291    -999.2500      -0.0168    -999.2500     165.6001       6.8637       6.8369       0.2870      18.6038    -999.2500       2.7863    -999.2500    -999.2500
   5810.8594       6.3291    -999.2500      -0.0168    -999.2500     165.6001       6.7704       6.7345       0.2870      18.6038    -999.2500       2.7863    -999.2500    -999.2500
   5811.0117       6.3291    -999.2500      -0.0168    -999.2500     165.6001       6.7154       6.6644       0.2870      18.6038    -999.2500       2.7863    -999.2500    -999.2500
   5811.1641       6.3291    -999.2500      -0.0168    -999.2500     165.6001       6.6708       6.6035       0.2870      18.6038    -999.2500       2.7863    -999.2500    -999.2500
   5811.3164       6.3291    -999.2500      -0.0168    -999.2500     165.6001       6.6187       6.5422       0.2870      18.6038    -999.2500       2.7863    -999.2500    -999.2500
   5811.4688       6.3291    -999.2500      -0.0168    -999.2500     165.6001       6.5961       6.5099       0.2870      18.6038    -999.2500       2.7863    -999.2500    -999.2500
   5811.6216       6.3291    -999.2500      -0.0168    -999.2500     165.6001       6.5816       6.4903       0.2870      18.6038    -999.2500       2.7863    -999.2500    -999.2500
   5811.7739       6.3291    -999.2500      -0.0168    -999.2500     165.6001       6.5740       6.4802       0.2870      18.6038    -999.2500       2.7863    -999.2500    -999.2500
   5811.9263       6.3291    -999.2500      -0.0168    -999.2500     165.6001       6.5712       6.4760       0.2870      18.6038    -999.2500       2.7863    -999.2500    -999.2500
   5812.0786       6.3291    -999.2500      -0.0168    -999.2500     165.6001       6.5695       6.4742       0.2870      18.6038    -999.2500       2.7863    -999.2500    -999.2500
   5812.2310       6.3291    -999.2500      -0.0168    -999.2500     165.6001       6.5690       6.4738       0.2870      18.6038    -999.2500       2.7863    -999.2500    -999.2500
   5812.3833       6.3291    -999.2500      -0.0168    -999.2500     165.6001       6.5680       6.4731       0.2870      18.6038    -999.2500       2.7863    -999.2500    -999.2500
