#------------------------------------------------------------------------------
#
#   Created by  : [OpenWorks] Log Export Utility (LEXP)
#   Created on  : 2016-05-23 11:50:40
#   Project     : CANT971
#   User        : R5K
#   Interpreter : PEP
#
#------------------------------------------------------------------------------
~VERSION INFORMATION
VERS. 2.0 : CWLS Log ASCII Standard - version 2.0
WRAP.  NO : One line per depth step
~WELL INFORMATION
#MNEMONIC   .UNIT                                           VALUE :DESCRIPTION
#------------------------------------------------------------------------------
STRT        .M                                           697.2303 :START DEPTH
STOP        .M                                          3650.8948 :STOP DEPTH
STEP        .M                                             0.1524 :STEP
NULL        .                                           -999.2500 :NULL VALUE
COMP        .                                   PEMEX EXPL & PROD :COMPANY
WELL        .                                                1026 :WELL
FLD         .                                           CANTARELL :FIELD
LOC         .                                             UNKNOWN :LOCATION
CNTY        .                                      CD. DEL CARMEN :COUNTY
STAT        .                                            CAMPECHE :STATE
CTRY        .                                              MEXICO :COUNTRY
SRVC        .                                             UNKNOWN :SERVICE COMPANY
DATE        .                                             UNKNOWN :LOG DATE
UWI         .                                          3060000491 :UNIQUE WELL ID
XCOORD      .                                       596159.330000 :SURFACE X
YCOORD      .                                      2150607.710000 :SURFACE Y
LAT         .                                           19.448735 :LATITUDE
LON         .                                          -92.083932 :LONGITUDE
ELEV        .M                                            30.0000 :SURFACE ELEV
ELEV_TYPE   .                                                  KB :ELEV TYPE
~CURVE INFORMATION
#MNEMONIC.UNIT        API CODE       : CURVE DESCRIPTION
#------------------------------------------------------------------------------
DEPTH    .M                          : Measured Depth
CALI     .inches      UNKNOWN        : CALI:registros:rC:NONE:v0 (auto-composite)
DRHO     .g/cm3       UNKNOWN        : DRHO:registros:rC:NONE:v0 (auto-composite)
DT       .us/ft       UNKNOWN        : DT:registros:rC:NONE:v0 (auto-composite)
GR       .API         UNKNOWN        : GR:registros:rC:NONE:v0 (auto-composite)
ILD      .ohm.m       UNKNOWN        : ILD:registros:rC:NONE:v0 (auto-composite)
ILM      .ohm.m       UNKNOWN        : ILM:registros:rC:NONE:v0 (auto-composite)
LLD      .ohm.m       UNKNOWN        : LLD:registros:rC:NONE:v0 (auto-composite)
LLS      .ohm.m       UNKNOWN        : LLS:registros:rC:NONE:v0 (auto-composite)
MSFL     .ohm.m       UNKNOWN        : MSFL:registros:rC:NONE:v0 (auto-composite)
NPHI     .v/v_decimal UNKNOWN        : NPHI:registros:rC:NONE:v0 (auto-composite)
PEF      .b/elec      UNKNOWN        : PEF:registros:rC:NONE:v0 (auto-composite)
RHOB     .g/cm3       UNKNOWN        : RHOB:registros:rC:NONE:v0 (auto-composite)
~A     DEPTH         CALI         DRHO           DT           GR          ILD          ILM          LLD          LLS         MSFL         NPHI          PEF         RHOB
# ...
   3228.2896      11.1121       0.0255      56.8552      56.4556    -999.2500    -999.2500     228.3335     132.1595      37.8126       0.0448       3.3236       2.7180
   3228.4419      10.9350       0.0170      57.5240      56.2550    -999.2500    -999.2500     253.0510     143.8070      33.8150       0.0385       3.2110       2.7090
   3228.5942      10.8281       0.0130      57.9493      54.1866    -999.2500    -999.2500     215.5990     121.2637      24.7525       0.0347       3.3464       2.7245
   3228.7466      10.7210       0.0090      58.3750      52.1160    -999.2500    -999.2500     178.1680      98.7330      15.6950       0.0320       3.4820       2.7400
   3228.8992      10.6885       0.0070      57.0618      46.1085    -999.2500    -999.2500     142.1692      78.7392      21.0597       0.0367       3.5225       2.7210
   3229.0515      10.6560       0.0050      55.7470      40.0940    -999.2500    -999.2500     106.1860      58.7540      26.4220       0.0421       3.5630       2.7020
   3229.2039      10.7704       0.0085      55.4492      41.2887    -999.2500    -999.2500      79.7923      44.3818      17.0576       0.0464       3.6664       2.6820
   3229.3562      10.8850       0.0120      55.1510      42.4850    -999.2500    -999.2500      53.4490      30.0370       7.7110       0.0511       3.7700       2.6620
   3229.5088      10.9075       0.0210      46.2932      44.5475    -999.2500    -999.2500      45.7291      24.9735      11.2727       0.0595       3.6571       2.6745
   3229.6611      10.9300       0.0300      37.4370      46.6130    -999.2500    -999.2500      38.0230      19.9190      14.8280       0.0701       3.5440       2.6870
   3229.8135      10.9180       0.0390      46.6508      51.6936    -999.2500    -999.2500      33.7600      17.4309       8.8621       0.0965       3.3921       2.6600
   3229.9658      10.9060       0.0480      55.8640      56.7820    -999.2500    -999.2500      29.5040      14.9470       2.9060       0.1257       3.2400       2.6330
   3230.1182      11.2735       0.0360      59.5569      58.7319    -999.2500    -999.2500      30.3171      15.2482      10.0290       0.1641       3.1726       2.5870
   3230.2708      11.6410       0.0240      63.2500      60.6850    -999.2500    -999.2500      31.1290      15.5490      17.1410       0.1978       3.1050       2.5410
   3230.4231      11.7035       0.0190      60.9687      63.1528    -999.2500    -999.2500      35.2244      16.7263      12.6503       0.1791       3.2379       2.5475
   3230.5754      11.7660       0.0140      58.6870      65.6250    -999.2500    -999.2500      39.3140      17.9020       8.1660       0.1554       3.3710       2.5540
   3230.7278      11.3986       0.0480      63.3912      61.7456    -999.2500    -999.2500      37.9046      17.4237       4.5227       0.1400       3.4970       2.5245
   3230.8804      11.0310       0.0820      68.0970      57.8650    -999.2500    -999.2500      36.4970      16.9460       0.8840       0.1288       3.6230       2.4950
   3231.0327      11.2240       0.0995      71.3753      52.7306    -999.2500    -999.2500      35.8356      16.7224       3.4710       0.1494       3.4960       2.4685
   3231.1851      11.4170       0.1170      74.6550      47.5940    -999.2500    -999.2500      35.1750      16.4990       6.0550       0.1733       3.3690       2.4420
   3231.3374      11.5585       0.1150      78.1365      52.3271    -999.2500    -999.2500      42.9020      18.6431       3.4281       0.1953       3.5155       2.4800
   3231.4900      11.7000       0.1130      81.6200      57.0630    -999.2500    -999.2500      50.6210      20.7850       0.8040       0.2160       3.6620       2.5180
   3231.6423      11.9434       0.0735      82.9660      46.2853    -999.2500    -999.2500      40.2953      16.5191       0.9331       0.2232       3.6025       2.4730
   3231.7947      12.1870       0.0340      84.3130      35.5000    -999.2500    -999.2500      29.9790      12.2570       1.0620       0.2297       3.5430       2.4280
   3231.9470      12.1805       0.0230      82.2508      37.0898    -999.2500    -999.2500      22.4396       9.3524       1.6742       0.2432       3.5555       2.4490
   3232.0994      12.1740       0.0120      80.1870      38.6810    -999.2500    -999.2500      14.9060       6.4500       2.2860       0.2567       3.5680       2.4700
   3232.2520      12.0710       0.0080      83.4245      55.5200    -999.2500    -999.2500      16.7891       7.1242       3.7160       0.2612       3.5315       2.4815
   3232.4043      11.9680       0.0040      86.6650      72.3750    -999.2500    -999.2500      18.6710       7.7980       5.1450       0.2629       3.4950       2.4930
   3232.5566      11.9295       0.0045      95.2029      68.3826    -999.2500    -999.2500      24.3285       9.9941       3.7001       0.2442       3.4675       2.4780
   3232.7090      11.8910       0.0050     103.7500      64.3860    -999.2500    -999.2500      29.9830      12.1890       2.2560       0.2246       3.4400       2.4630
   3232.8616      11.9140       0.0045     103.6411      53.4650    -999.2500    -999.2500      27.5570      11.3993       3.3452       0.2181       3.2711       2.4655
   3233.0139      11.9370       0.0040     103.5320      42.5310    -999.2500    -999.2500      25.1320      10.6100       4.4340       0.2123       3.1020       2.4680
   3233.1663      11.8825       0.0030      96.8020      44.7850    -999.2500    -999.2500      23.3177       9.7904       3.5994       0.1991       3.1165       2.4560
   3233.3186      11.8280       0.0020      90.0630      47.0420    -999.2500    -999.2500      21.5040       8.9710       2.7650       0.1865       3.1310       2.4440
   3233.4712      11.8170       0.0035     105.5952      55.8691    -999.2500    -999.2500      20.7554       8.4695       2.1785       0.1884       3.0371       2.4305
   3233.6235      11.8060       0.0050     121.1250      64.7090    -999.2500    -999.2500      20.0070       7.9680       1.5920       0.1936       2.9430       2.4170
   3233.7759      11.5860       0.0055     113.4759      66.9023    -999.2500    -999.2500      23.2992       9.1735       4.7205       0.2207       2.9920       2.3955
   3233.9282      11.3660       0.0060     105.8270      69.0990    -999.2500    -999.2500      26.5860      10.3770       7.8440       0.2462       3.0410       2.3740
   3234.0806      11.3150       0.0030     102.3977      75.0130    -999.2500    -999.2500      33.7854      13.2116      11.3251       0.2297       3.0950       2.3750
   3234.2332      11.2640       0.0000      98.9680      80.9370    -999.2500    -999.2500      40.9740      16.0420      14.8010       0.2093       3.1490       2.3760
   3234.3855      11.0445      -0.0025      95.7659      74.9770    -999.2500    -999.2500      55.7377      22.9823      15.5805       0.1886       3.2064       2.3950
   3234.5378      10.8250      -0.0050      92.5630      69.0060    -999.2500    -999.2500      70.4810      29.9130      16.3590       0.1684       3.2640       2.4140
   3234.6902      10.7330       0.0025      94.4062      59.3182    -999.2500    -999.2500      74.7272      31.6911      11.2343       0.1544       3.2345       2.4230
   3234.8428      10.6410       0.0100      96.2500      49.6270    -999.2500    -999.2500      78.9680      33.4670       6.1160       0.1427       3.2050       2.4320
   3234.9951      10.6410       0.0365      97.0313      44.4867    -999.2500    -999.2500      58.5115      25.3539       3.8292       0.1530       3.1660       2.4285
   3235.1475      10.6410       0.0630      97.8130      39.3440    -999.2500    -999.2500      38.0780      17.2500       1.5450       0.1655       3.1270       2.4250
   3235.2998      10.7925       0.0965      91.7168      45.0123    -999.2500    -999.2500      29.1205      12.9959       3.4279       0.1823       3.1195       2.4355
   3235.4524      10.9440       0.1300      85.6170      50.6840    -999.2500    -999.2500      20.1720       8.7460       5.3090       0.1993       3.1120       2.4460
