#------------------------------------------------------------------------------
#
#   Created by  : [OpenWorks] Log Export Utility (LEXP)
#   Created on  : 2016-05-23 11:57:24
#   Project     : CANT971
#   User        : R5K
#   Interpreter : PEP
#
#------------------------------------------------------------------------------
~VERSION INFORMATION
VERS. 2.0 : CWLS Log ASCII Standard - version 2.0
WRAP.  NO : One line per depth step
~WELL INFORMATION
#MNEMONIC   .UNIT                                           VALUE :DESCRIPTION
#------------------------------------------------------------------------------
STRT        .M                                           648.1292 :START DEPTH
STOP        .M                                          2685.5647 :STOP DEPTH
STEP        .M                                             0.1524 :STEP
NULL        .                                           -999.2500 :NULL VALUE
COMP        .                                   PEMEX EXPL & PROD :COMPANY
WELL        .                                                 81D :WELL
FLD         .                                           CANTARELL :FIELD
LOC         .                                             UNKNOWN :LOCATION
CNTY        .                                      CD. DEL CARMEN :COUNTY
STAT        .                                            CAMPECHE :STATE
CTRY        .                                              MEXICO :COUNTRY
SRVC        .                                             UNKNOWN :SERVICE COMPANY
DATE        .                                             UNKNOWN :LOG DATE
UWI         .                                          3060000666 :UNIQUE WELL ID
XCOORD      .                                       601717.100000 :SURFACE X
YCOORD      .                                      2142375.260000 :SURFACE Y
LAT         .                                           19.374067 :LATITUDE
LON         .                                          -92.031430 :LONGITUDE
ELEV        .M                                            30.0000 :SURFACE ELEV
ELEV_TYPEF  .b/elec                                            KB :ELEV TYPE
~CURVE INFORMATION
#MNEMONIC.UNIT        API CODE       : CURVE DESCRIPTION
#------------------------------------------------------------------------------
DEPTH    .M                          : Measured Depth
CALI     .in          UNKNOWN        : CALI:UNKNOWN:rC:NONE:v0 (auto-composite)
CGR      .API         UNKNOWN        : CGR:UNKNOWN:rC:NONE:v0 (auto-composite)
DRHO     .g/cm3       UNKNOWN        : DRHO:UNKNOWN:rC:NONE:v0 (auto-composite)
DT       .us/ft       UNKNOWN        : DT:DT:rC:NONE:v0 (auto-composite)
GR       .API         UNKNOWN        : GR:UNKNOWN:rC:NONE:v0 (auto-composite)
ILD      .ohmm        UNKNOWN        : ILD:UNKNOWN:rC:NONE:v0 (auto-composite)
ILM      .ohmm        UNKNOWN        : ILM:UNKNOWN:rC:NONE:v0 (auto-composite)
LLD      .ohmm        UNKNOWN        : LLD:UNKNOWN:rC:NONE:v0 (auto-composite)
LLS      .ohmm        UNKNOWN        : LLS:UNKNOWN:rC:NONE:v0 (auto-composite)
NPHI     .v/v_decimal UNKNOWN        : NPHI:NPHI:rC:NONE:v0 (auto-composite)
PEF      .b/elec      UNKNOWN        : PEF:UNKNOWN:rC:NONE:v0 (auto-composite)
POTA     .%           UNKNOWN        : POTA:UNKNOWN:rC:NONE:v0 (auto-composite)
RHOB     .g/cm3       UNKNOWN        : RHOB:UNKNOWN:rC:NONE:v0 (auto-composite)
THOR     .ppm         UNKNOWN        : THOR:UNKNOWN:rC:NONE:v0 (auto-composite)
URAN     .ppm         UNKNOWN        : URAN:UNKNOWN:rC:NONE:v0 (auto-composite)
~A     DEPTH         CALI          CGR         DRHO           DT           GR          ILD          ILM          LLD          LLS         NPHI          PEF         POTA         RHOB         THOR         URAN
# ...
   2235.0703      13.4008       5.4880    -999.2500    -999.2500      39.3317    -999.2500    -999.2500     141.1556     102.5088      29.6391    -999.2500       0.1004    -999.2500       1.2432       3.7490
   2235.2229      13.3728       5.9809    -999.2500    -999.2500      39.4283    -999.2500    -999.2500     157.8363     100.8707      24.9554    -999.2500       0.1306    -999.2500       1.2432       3.7051
   2235.3752      13.3578       6.7955    -999.2500    -999.2500      39.5777    -999.2500    -999.2500     168.9345      92.6117      19.0402    -999.2500       0.1771    -999.2500       1.2632       3.6311
   2235.5276      13.2760       7.6143    -999.2500    -999.2500      39.3596    -999.2500    -999.2500     156.7988      86.2734      14.7759    -999.2500       0.2257    -999.2500       1.2706       3.5166
   2235.6799      13.1785       8.4341    -999.2500    -999.2500      39.0558    -999.2500    -999.2500     139.2963      80.3788      11.3184    -999.2500       0.2747    -999.2500       1.2751       3.3926
   2235.8325      13.0090      12.0358    -999.2500    -999.2500      37.0511    -999.2500    -999.2500     170.0240      92.2825       9.8413    -999.2500       0.4321    -999.2500       1.6051       2.7388
   2235.9849      12.8226      16.2905    -999.2500    -999.2500      34.6471    -999.2500    -999.2500     211.8385     108.2776       9.4304    -999.2500       0.6151    -999.2500       2.0114       1.9606
   2236.1372      12.6865      14.1316    -999.2500    -999.2500      32.9384    -999.2500    -999.2500     330.5677     149.3191       8.3533    -999.2500       0.4756    -999.2500       2.0497       2.0431
   2236.2896      12.5622      10.4587    -999.2500    -999.2500      31.3939    -999.2500    -999.2500     467.0781     196.1509       7.1572    -999.2500       0.2600    -999.2500       2.0012       2.3287
   2236.4419      12.5167      10.1688    -999.2500    -999.2500      31.2525    -999.2500    -999.2500     773.9462     275.3667       6.1481    -999.2500       0.2125    -999.2500       2.1519       2.3308
   2236.5945      12.4892      10.6735    -999.2500    -999.2500      31.4339    -999.2500    -999.2500    1120.0073     362.0327       5.2497    -999.2500       0.2045    -999.2500       2.3493       2.2663
   2236.7468      12.4783      11.1706    -999.2500    -999.2500      32.2034    -999.2500    -999.2500    1338.1539     401.5822       5.3109    -999.2500       0.2503    -999.2500       2.2652       2.3090
   2236.8992      12.4713      11.6657    -999.2500    -999.2500      33.1091    -999.2500    -999.2500    1526.7051     430.2303       5.6603    -999.2500       0.3089    -999.2500       2.1147       2.3771
   2237.0515      12.4501      12.3253    -999.2500    -999.2500      36.6022    -999.2500    -999.2500    1883.0115     470.2366       6.3463    -999.2500       0.3880    -999.2500       1.9013       2.7140
   2237.2041      12.4256      13.0236    -999.2500    -999.2500      40.6974    -999.2500    -999.2500    2277.9438     512.8582       7.1519    -999.2500       0.4721    -999.2500       1.6733       3.1141
   2237.3564      12.4182      12.8737    -999.2500    -999.2500      44.4145    -999.2500    -999.2500    1738.7720     424.6114       7.6692    -999.2500       0.5002    -999.2500       1.5535       3.5258
   2237.5088      12.4147      12.5254    -999.2500    -999.2500      48.0430    -999.2500    -999.2500     983.2982     306.0607       8.1759    -999.2500       0.5151    -999.2500       1.4590       3.9401
   2237.6611      12.4326      11.9622    -999.2500    -999.2500      46.6169    -999.2500    -999.2500     568.6526     213.1656      10.5218    -999.2500       0.4633    -999.2500       1.5078       3.8384
   2237.8137      12.4556      11.3485    -999.2500    -999.2500      43.9891    -999.2500    -999.2500     232.5483     126.1827      13.9175    -999.2500       0.3958    -999.2500       1.5903       3.6153
   2237.9661      12.4365       9.8216    -999.2500    -999.2500      40.4273    -999.2500    -999.2500     151.6987     103.9350      19.8831    -999.2500       0.2680    -999.2500       1.7971       3.3839
   2238.1184      12.4075       8.0808    -999.2500    -999.2500      36.6423    -999.2500    -999.2500     130.0047      96.6898      27.1467    -999.2500       0.1261    -999.2500       2.0330       3.1505
   2238.2708      12.4621       7.9777    -999.2500    -999.2500      35.3652    -999.2500    -999.2500     109.3876      88.9705      34.8556    -999.2500       0.1403    -999.2500       1.8910       3.0258
   2238.4231      12.5361       8.2603    -999.2500    -999.2500      34.6665    -999.2500    -999.2500      89.0189      81.1419      40.6462    -999.2500       0.1913    -999.2500       1.6599       2.9268
   2238.5757      12.8216       8.8250    -999.2500    -999.2500      34.6380    -999.2500    -999.2500      71.4177      67.8912      37.0007    -999.2500       0.2208    -999.2500       1.6779       2.8590
   2238.7280      13.1562       9.4557    -999.2500    -999.2500      34.7648    -999.2500    -999.2500      54.4585      53.3828      28.2081    -999.2500       0.2453    -999.2500       1.7544       2.7985
   2238.8804      13.2778       8.8118    -999.2500    -999.2500      34.9391    -999.2500    -999.2500      44.8734      45.2912      20.9382    -999.2500       0.1978    -999.2500       1.8099       2.8906
   2239.0327      13.3493       7.8674    -999.2500    -999.2500      35.1245    -999.2500    -999.2500      36.9905      38.6808      14.5695    -999.2500       0.1333    -999.2500       1.8604       3.0187
   2239.1853      13.1729       7.4030    -999.2500    -999.2500      35.2751    -999.2500    -999.2500      33.9102      35.8658      11.1571    -999.2500       0.1052    -999.2500       1.7915       3.0847
   2239.3376      12.9378       7.0512    -999.2500    -999.2500      35.4175    -999.2500    -999.2500      31.9330      33.9227       9.2865    -999.2500       0.0857    -999.2500       1.6945       3.1362
   2239.4900      12.7101       7.4122    -999.2500    -999.2500      32.6501    -999.2500    -999.2500      41.3096      45.2129       8.1498    -999.2500       0.1257    -999.2500       1.5817       2.8008
   2239.6423      12.4842       7.9414    -999.2500    -999.2500      29.2176    -999.2500    -999.2500      53.3090      59.5602       7.2313    -999.2500       0.1797    -999.2500       1.4652       2.3741
   2239.7949      12.3247       7.0374    -999.2500    -999.2500      27.9832    -999.2500    -999.2500     103.1830     107.5799       6.2156    -999.2500       0.1240    -999.2500       1.5256       2.3315
   2239.9473      12.1803       5.7969    -999.2500    -999.2500      27.2541    -999.2500    -999.2500     161.7643     163.3409       5.2292    -999.2500       0.0426    -999.2500       1.6275       2.3789
   2240.0996      12.1202       6.7667    -999.2500    -999.2500      27.6269    -999.2500    -999.2500     409.1942     295.4615       4.7054    -999.2500       0.0885    -999.2500       1.7069       2.3135
   2240.2520      12.0797       8.2582    -999.2500    -999.2500      28.2571    -999.2500    -999.2500     700.2867     445.2368       4.3917    -999.2500       0.1645    -999.2500       1.7809       2.2215
   2240.4043      12.1125       8.1875    -999.2500    -999.2500      28.4596    -999.2500    -999.2500    1825.5985     645.0533       4.6625    -999.2500       0.1555    -999.2500       1.8092       2.2449
   2240.5569      12.1624       7.7497    -999.2500    -999.2500      28.5615    -999.2500    -999.2500    3142.8521     856.3835       5.1186    -999.2500       0.1265    -999.2500       1.8267       2.2954
   2240.7092      12.1225       7.8392    -999.2500    -999.2500      28.5267    -999.2500    -999.2500    5197.1904    1007.8019       5.7814    -999.2500       0.1234    -999.2500       1.8761       2.2848
   2240.8616      12.0614       8.0532    -999.2500    -999.2500      28.4595    -999.2500    -999.2500    7422.0854    1145.3573       6.5545    -999.2500       0.1264    -999.2500       1.9331       2.2598
