#------------------------------------------------------------------------------
#
#   Created by  : [OpenWorks] Log Export Utility (LEXP)
#   Created on  : 2016-05-23 11:57:27
#   Project     : CANT971
#   User        : R5K
#   Interpreter : PEP
#
#------------------------------------------------------------------------------
~VERSION INFORMATION
VERS. 2.0 : CWLS Log ASCII Standard - version 2.0
WRAP.  NO : One line per depth step
~WELL INFORMATION
#MNEMONIC   .UNIT                                           VALUE :DESCRIPTION
#------------------------------------------------------------------------------
STRT        .M                                           813.0000 :START DEPTH
STOP        .M                                          2589.2219 :STOP DEPTH
STEP        .M                                             0.1524 :STEP
NULL        .                                           -999.2500 :NULL VALUE
COMP        .                                   PEMEX EXPL & PROD :COMPANY
WELL        .                                                  84 :WELL
FLD         .                                           CANTARELL :FIELD
LOC         .                                             UNKNOWN :LOCATION
CNTY        .                                      CD. DEL CARMEN :COUNTY
STAT        .                                            CAMPECHE :STATE
CTRY        .                                              MEXICO :COUNTRY
SRVC        .                                             UNKNOWN :SERVICE COMPANY
DATE        .                                             UNKNOWN :LOG DATE
UWI         .                                          3060000616 :UNIQUE WELL ID
XCOORD      .                                       601709.550000 :SURFACE X
YCOORD      .                                      2142344.590000 :SURFACE Y
LAT         .                                           19.373791 :LATITUDE
LON         .                                          -92.031505 :LONGITUDE
ELEV        .M                                            24.0000 :SURFACE ELEV
ELEV_TYPE   .                                                  KB :ELEV TYPE
~CURVE INFORMATION
#MNEMONIC.UNIT        API CODE       : CURVE DESCRIPTION
#------------------------------------------------------------------------------
DEPTH    .M                          : Measured Depth
CALI     .in          UNKNOWN        : CALI:UNKNOWN:rC:NONE:v0 (auto-composite)
DRHO     .g/cm3       UNKNOWN        : DRHO:UNKNOWN:rC:NONE:v0 (auto-composite)
DT       .us/ft       UNKNOWN        : DT:DT:rC:NONE:v0 (auto-composite)
ILD      .ohmm        UNKNOWN        : ILD:UNKNOWN:rC:NONE:v0 (auto-composite)
ILM      .ohmm        UNKNOWN        : ILM:UNKNOWN:rC:NONE:v0 (auto-composite)
LLD      .ohmm        UNKNOWN        : LLD:UNKNOWN:rC:NONE:v0 (auto-composite)
LLS      .ohmm        UNKNOWN        : LLS:UNKNOWN:rC:NONE:v0 (auto-composite)
MSFL     .ohmm        UNKNOWN        : MSFL:UNKNOWN:rC:NONE:v0 (auto-composite)
NPHI     .v/v_decimal UNKNOWN        : NPHI:NPHI:rC:NONE:v0 (auto-composite)
PEF      .b/elec      UNKNOWN        : PEF:UNKNOWN:rC:NONE:v0 (auto-composite)
RG       .UNKNOWN     UNKNOWN        : RG:UNKNOWN:rC:NONE:v0 (auto-composite)
RHOB     .g/cm3       UNKNOWN        : RHOB:UNKNOWN:rC:NONE:v0 (auto-composite)
~A     DEPTH         CALI         DRHO           DT          ILD          ILM          LLD          LLS         MSFL         NPHI          PEF           RG         RHOB
# ...
    930.0432       0.0000      -0.1000    -999.2500       1.1807       1.1324       0.0000       0.0000       0.0000    -999.2500       0.0000      31.0407       0.0000
    930.1956       0.0000      -0.1000    -999.2500       1.1672       1.1033       0.0000       0.0000       0.0000    -999.2500       0.0000      32.2077       0.0000
    930.3480       0.0000      -0.1000    -999.2500       1.1530       1.0744       0.0000       0.0000       0.0000    -999.2500       0.0000      33.3214       0.0000
    930.5004       0.0000      -0.1000    -999.2500       1.1149       1.0508       0.0000       0.0000       0.0000    -999.2500       0.0000      32.4596       0.0000
    930.6528       0.0000      -0.1000    -999.2500       1.0766       1.0270       0.0000       0.0000       0.0000    -999.2500       0.0000      31.6506       0.0000
    930.8052       0.0000      -0.1000    -999.2500       1.0304       0.9959       0.0000       0.0000       0.0000    -999.2500       0.0000      32.4652       0.0000
    930.9576       0.0000      -0.1000    -999.2500       0.9848       0.9650       0.0000       0.0000       0.0000    -999.2500       0.0000      33.2294       0.0000
    931.1100       0.0000      -0.1000    -999.2500       0.9517       0.9369       0.0000       0.0000       0.0000    -999.2500       0.0000      32.6653       0.0000
    931.2624       0.0000      -0.1000    -999.2500       0.9190       0.9086       0.0000       0.0000       0.0000    -999.2500       0.0000      32.1507       0.0000
    931.4148       0.0000      -0.1000    -999.2500       0.8944       0.8766       0.0000       0.0000       0.0000    -999.2500       0.0000      32.7618       0.0000
    931.5672       0.0000      -0.1000    -999.2500       0.8703       0.8454       0.0000       0.0000       0.0000    -999.2500       0.0000      33.4735       0.0000
    931.7196       0.0000      -0.1000    -999.2500       0.8563       0.8324       0.0000       0.0000       0.0000    -999.2500       0.0000      36.2146       0.0000
    931.8720       0.0000      -0.1000    -999.2500       0.8426       0.8202       0.0000       0.0000       0.0000    -999.2500       0.0000      38.8210       0.0000
    932.0244       0.0000      -0.1000    -999.2500       0.8351       0.8232       0.0000       0.0000       0.0000    -999.2500       0.0000      38.9935       0.0000
    932.1768       0.0000      -0.1000    -999.2500       0.8286       0.8266       0.0000       0.0000       0.0000    -999.2500       0.0000      39.0162       0.0000
    932.3292       0.0000      -0.1000    -999.2500       0.8381       0.8377       0.0000       0.0000       0.0000    -999.2500       0.0000      36.6040       0.0000
    932.4816       0.0000      -0.1000    -999.2500       0.8492       0.8495       0.0000       0.0000       0.0000    -999.2500       0.0000      34.4498       0.0000
    932.6340       0.0000      -0.1000    -999.2500       0.8843       0.8730       0.0000       0.0000       0.0000    -999.2500       0.0000      36.1261       0.0000
    932.7864       0.0000      -0.1000    -999.2500       0.9211       0.8989       0.0000       0.0000       0.0000    -999.2500       0.0000      37.9018       0.0000
    932.9388       0.0000      -0.1000    -999.2500       0.9807       0.9555       0.0000       0.0000       0.0000    -999.2500       0.0000      41.0348       0.0000
    933.0912       0.0000      -0.1000    -999.2500       1.0424       1.0158       0.0000       0.0000       0.0000    -999.2500       0.0000      43.8242       0.0000
    933.2436       0.0000      -0.1000    -999.2500       1.1302       1.1221       0.0000       0.0000       0.0000    -999.2500       0.0000      42.2729       0.0000
    933.3960       0.0000      -0.1000    -999.2500       1.2214       1.2318       0.0000       0.0000       0.0000    -999.2500       0.0000      40.5942       0.0000
    933.5484       0.0000      -0.1000    -999.2500       1.3532       1.3812       0.0000       0.0000       0.0000    -999.2500       0.0000      37.4296       0.0000
    933.7008       0.0000      -0.1000    -999.2500       1.4877       1.5310       0.0000       0.0000       0.0000    -999.2500       0.0000      34.5916       0.0000
    933.8532       0.0000      -0.1000    -999.2500       1.6506       1.6854       0.0000       0.0000       0.0000    -999.2500       0.0000      35.3125       0.0000
    934.0056       0.0000      -0.1000    -999.2500       1.8089       1.8371       0.0000       0.0000       0.0000    -999.2500       0.0000      35.9089       0.0000
    934.1580       0.0000      -0.1000    -999.2500       1.9202       1.9614       0.0000       0.0000       0.0000    -999.2500       0.0000      35.2352       0.0000
    934.3104       0.0000      -0.1000    -999.2500       2.0201       2.0740       0.0000       0.0000       0.0000    -999.2500       0.0000      34.5037       0.0000
    934.4628       0.0000      -0.1000    -999.2500       2.0100       2.0735       0.0000       0.0000       0.0000    -999.2500       0.0000      33.2187       0.0000
    934.6152       0.0000      -0.1000    -999.2500       1.9938       2.0584       0.0000       0.0000       0.0000    -999.2500       0.0000      32.3140       0.0000
    934.7676       0.0000      -0.1000    -999.2500       1.9222       1.9126       0.0000       0.0000       0.0000    -999.2500       0.0000      34.8365       0.0000
    934.9200       0.0000      -0.1000    -999.2500       1.8503       1.7740       0.0000       0.0000       0.0000    -999.2500       0.0000      37.0216       0.0000
    935.0724       0.0000      -0.1000    -999.2500       1.7771       1.6978       0.0000       0.0000       0.0000    -999.2500       0.0000      36.3323       0.0000
    935.2248       0.0000      -0.1000    -999.2500       1.7040       1.6256       0.0000       0.0000       0.0000    -999.2500       0.0000      35.9814       0.0000
    935.3772       0.0000      -0.1000    -999.2500       1.6313       1.5855       0.0000       0.0000       0.0000    -999.2500       0.0000      38.3625       0.0000
    935.5296       0.0000      -0.1000    -999.2500       1.5619       1.5457       0.0000       0.0000       0.0000    -999.2500       0.0000      40.3967       0.0000
    935.6820       0.0000      -0.1000    -999.2500       1.5172       1.5086       0.0000       0.0000       0.0000    -999.2500       0.0000      39.7700       0.0000
    935.8344       0.0000      -0.1000    -999.2500       1.4772       1.4748       0.0000       0.0000       0.0000    -999.2500       0.0000      38.8403       0.0000
    935.9868       0.0000      -0.1000    -999.2500       1.4701       1.4653       0.0000       0.0000       0.0000    -999.2500       0.0000      35.7072       0.0000
    936.1392       0.0000      -0.1000    -999.2500       1.4637       1.4561       0.0000       0.0000       0.0000    -999.2500       0.0000      32.8485       0.0000
    936.2916       0.0000      -0.1000    -999.2500       1.4617       1.4491       0.0000       0.0000       0.0000    -999.2500       0.0000      31.8926       0.0000
    936.4440       0.0000      -0.1000    -999.2500       1.4582       1.4400       0.0000       0.0000       0.0000    -999.2500       0.0000      31.3374       0.0000
    936.5964       0.0000      -0.1000    -999.2500       1.4441       1.4175       0.0000       0.0000       0.0000    -999.2500       0.0000      33.4372       0.0000
    936.7488       0.0000      -0.1000    -999.2500       1.4291       1.3932       0.0000       0.0000       0.0000    -999.2500       0.0000      35.3056       0.0000
    936.9012       0.0000      -0.1000    -999.2500       1.4081       1.3581       0.0000       0.0000       0.0000    -999.2500       0.0000      35.7127       0.0000
    937.0536       0.0000      -0.1000    -999.2500       1.3826       1.3225       0.0000       0.0000       0.0000    -999.2500       0.0000      36.0865       0.0000
    937.2060       0.0000      -0.1000    -999.2500       1.3305       1.2839       0.0000       0.0000       0.0000    -999.2500       0.0000      36.2589       0.0000
