#------------------------------------------------------------------------------
#
#   Created by  : [OpenWorks] Log Export Utility (LEXP)
#   Created on  : 2016-05-12 17:01:19
#   Project     : CANT971
#   User        : R5K
#   Interpreter : PEP
#
#------------------------------------------------------------------------------
~VERSION INFORMATION
VERS. 2.0 : CWLS Log ASCII Standard - version 2.0
WRAP.  NO : One line per depth step
~WELL INFORMATION
#MNEMONIC   .UNIT                                           VALUE :DESCRIPTION
#------------------------------------------------------------------------------
STRT        .M                                           335.5854 :START DEPTH
STOP        .M                                          2510.4858 :STOP DEPTH
STEP        .M                                             0.1524 :STEP
NULL        .                                           -999.2500 :NULL VALUE
COMP        .                                   PEMEX EXPL & PROD :COMPANY
WELL        .                                                  35 :WELL
FLD         .                                           CANTARELL :FIELD
LOC         .                                             UNKNOWN :LOCATION
CNTY        .                                      CD. DEL CARMEN :COUNTY
STAT        .                                            CAMPECHE :STATE
CTRY        .                                              MEXICO :COUNTRY
SRVC        .                                             UNKNOWN :SERVICE COMPANY
DATE        .                                             UNKNOWN :LOG DATE
UWI         .                                          3060000159 :UNIQUE WELL ID
XCOORD      .                                       602147.900000 :SURFACE X
YCOORD      .                                      2147168.470000 :SURFACE Y
LAT         .                                           19.417359 :LATITUDE
LON         .                                          -92.027072 :LONGITUDE
ELEV        .M                                            28.1700 :SURFACE ELEV
ELEV_TYPE   .                                                  KB :ELEV TYPE
~CURVE INFORMATION
#MNEMONIC.UNIT        API CODE       : CURVE DESCRIPTION
#------------------------------------------------------------------------------
DEPTH    .M                          : Measured Depth
CALI     .inches      UNKNOWN        : CALI:Import:rC:NONE:v0 (auto-composite)
DRHO     .g/cm3       UNKNOWN        : DRHO:Import:rC:NONE:v0 (auto-composite)
DT       .us/ft       UNKNOWN        : DT:Import:rC:NONE:v0 (auto-composite)
GR       .API         UNKNOWN        : GR:Import:rC:NONE:v0 (auto-composite)
ILD      .ohm.m       UNKNOWN        : ILD:Import:rC:NONE:v0 (auto-composite)
LLD      .ohm.m       UNKNOWN        : LLD:Import:rC:NONE:v0 (auto-composite)
LLS      .ohm.m       UNKNOWN        : LLS:Import:rC:NONE:v0 (auto-composite)
MSFL     .ohm.m       UNKNOWN        : MSFL:Import:rC:NONE:v0 (auto-composite)
NPHI     .v/v_decimal UNKNOWN        : NPHI:Import:rC:NONE:v0 (auto-composite)
RHOB     .g/cm3       UNKNOWN        : RHOB:Import:rC:NONE:v0 (auto-composite)
SP       .mV          UNKNOWN        : SP:Import:rC:NONE:v0 (auto-composite)
~A     DEPTH         CALI         DRHO           DT           GR          ILD          LLD          LLS         MSFL         NPHI         RHOB           SP
# ...
   1096.3662      18.2520   -1998.5000     137.1240      62.5250       0.8370    -999.2500    -999.2500    -999.2500       0.3909       2.1700      80.6290
   1096.5186      18.1269   -1998.5000     137.4786      61.8490       0.8305    -999.2500    -999.2500    -999.2500       0.4098       2.1700      80.5493
   1096.6710      18.0020   -1998.5000     137.8300      61.1790       0.8240    -999.2500    -999.2500    -999.2500       0.4231       2.1700      80.4700
   1096.8234      17.8909   -1998.5000     137.9933      61.0137       0.8205    -999.2500    -999.2500    -999.2500       0.4193       2.1850      80.5652
   1096.9758      17.7800   -1998.5000     138.1550      60.8500       0.8170    -999.2500    -999.2500    -999.2500       0.4104       2.2000      80.6600
   1097.1282      17.8991   -1998.5000     138.1877      60.6440       0.8185    -999.2500    -999.2500    -999.2500       0.4036       2.1950      80.8364
   1097.2806      18.0180   -1998.5000     138.2200      60.4400       0.8200    -999.2500    -999.2500    -999.2500       0.3977       2.1900      81.0120
   1097.4330      18.0540   -1998.5000     137.3058      60.5540       0.8215    -999.2500    -999.2500    -999.2500       0.3927       2.1900      81.1162
   1097.5854      18.0900   -1998.5000     136.4000      60.6670       0.8230    -999.2500    -999.2500    -999.2500       0.3883       2.1900      81.2200
   1097.7378      18.1400   -1998.5000     136.4502      60.9729       0.8295    -999.2500    -999.2500    -999.2500       0.3850       2.1900      81.1599
   1097.8901      18.1900   -1998.5000     136.5000      61.2760       0.8360    -999.2500    -999.2500    -999.2500       0.3817       2.1900      81.1000
   1098.0426      18.2400   -1998.5000     136.4051      62.4382       0.8450    -999.2500    -999.2500    -999.2500       0.3771       2.1950      81.2253
   1098.1949      18.2900   -1998.5000     136.3110      63.5900       0.8540    -999.2500    -999.2500    -999.2500       0.3727       2.2000      81.3500
   1098.3474      18.2059   -1998.5000     135.9841      63.3786       0.8580    -999.2500    -999.2500    -999.2500       0.3699       2.1950      81.0995
   1098.4998      18.1220   -1998.5000     135.6600      63.1690       0.8620    -999.2500    -999.2500    -999.2500       0.3685       2.1900      80.8500
   1098.6522      18.0009   -1998.5000     135.9814      62.3760       0.8655    -999.2500    -999.2500    -999.2500       0.3694       2.1900      80.8500
   1098.8046      17.8800   -1998.5000     136.3000      61.5900       0.8690    -999.2500    -999.2500    -999.2500       0.3724       2.1900      80.8500
   1098.9570      17.9526   -1998.5000     136.1775      61.5900       0.8700    -999.2500    -999.2500    -999.2500       0.3792       2.1850      80.9457
   1099.1094      18.0250   -1998.5000     136.0560      61.5900       0.8710    -999.2500    -999.2500    -999.2500       0.3844       2.1800      81.0410
   1099.2618      18.0665   -1998.5000     135.5709      62.3286       0.8680    -999.2500    -999.2500    -999.2500       0.3813       2.1900      81.1958
   1099.4142      18.1080   -1998.5000     135.0900      63.0610       0.8650    -999.2500    -999.2500    -999.2500       0.3774       2.2000      81.3500
   1099.5665      18.2436   -1998.5000     135.1357      63.8563       0.8625    -999.2500    -999.2500    -999.2500       0.3790       2.1960      81.3004
   1099.7190      18.3790   -1998.5000     135.1810      64.6450       0.8600    -999.2500    -999.2500    -999.2500       0.3827       2.1920      81.2510
   1099.8713      18.6257   -1998.5000     135.6685      64.9688       0.8575    -999.2500    -999.2500    -999.2500       0.3869       2.1870      81.1378
   1100.0238      18.8720   -1998.5000     136.1520      65.2900       0.8550    -999.2500    -999.2500    -999.2500       0.3915       2.1820      81.0250
   1100.1761      19.1112   -1998.5000     136.6570      64.2106       0.8550    -999.2500    -999.2500    -999.2500       0.3967       2.1760      80.9514
   1100.3286      19.3500   -1998.5000     137.1580      63.1400       0.8550    -999.2500    -999.2500    -999.2500       0.4002       2.1700      80.8780
   1100.4810      18.8546   -1998.5000     137.3599      64.1735       0.8535    -999.2500    -999.2500    -999.2500       0.3982       2.1700      80.7387
   1100.6334      18.3600   -1998.5000     137.5600      65.1980       0.8520    -999.2500    -999.2500    -999.2500       0.3924       2.1700      80.6000
   1100.7858      18.7253   -1998.5000     136.7778      67.4295       0.8490    -999.2500    -999.2500    -999.2500       0.3818       2.1775      80.6000
   1100.9382      19.0900   -1998.5000     136.0030      69.6400       0.8460    -999.2500    -999.2500    -999.2500       0.3722       2.1850      80.6000
   1101.0906      18.7748   -1998.5000     135.6700      67.8878       0.8430    -999.2500    -999.2500    -999.2500       0.3703       2.2025      80.1590
   1101.2430      18.4600   -1998.5000     135.3400      66.1520       0.8400    -999.2500    -999.2500    -999.2500       0.3727       2.2200      79.7200
   1101.3954      18.5451   -1998.5000     137.1232      65.2418       0.8415    -999.2500    -999.2500    -999.2500       0.3793       2.2160      79.9119
   1101.5477      18.6300   -1998.5000     138.8900      64.3400       0.8430    -999.2500    -999.2500    -999.2500       0.3861       2.2120      80.1030
   1101.7002      18.3749   -1998.5000     138.8433      64.6414       0.8450    -999.2500    -999.2500    -999.2500       0.3895       2.2060      80.5374
   1101.8525      18.1200   -1998.5000     138.7970      64.9400       0.8470    -999.2500    -999.2500    -999.2500       0.3902       2.2000      80.9700
   1102.0050      18.1901   -1998.5000     137.7508      64.4599       0.8475    -999.2500    -999.2500    -999.2500       0.3862       2.2000      80.8743
   1102.1573      18.2600   -1998.5000     136.7140      63.9840       0.8480    -999.2500    -999.2500    -999.2500       0.3802       2.2000      80.7790
   1102.3098      18.1899   -1998.5000     136.0340      62.2649       0.8490    -999.2500    -999.2500    -999.2500       0.3737       2.2000      80.5560
   1102.4622      18.1200   -1998.5000     135.3600      60.5610       0.8500    -999.2500    -999.2500    -999.2500       0.3689       2.2000      80.3340
   1102.6146      18.4354   -1998.5000     135.7587      59.7218       0.8535    -999.2500    -999.2500    -999.2500       0.3694       2.1950      80.2168
   1102.7670      18.7500   -1998.5000     136.1540      58.8900       0.8570    -999.2500    -999.2500    -999.2500       0.3708       2.1900      80.1000
   1102.9194      18.5453   -1998.5000     136.6843      58.9096       0.8600    -999.2500    -999.2500    -999.2500       0.3695       2.2050      80.4361
   1103.0718      18.3410   -1998.5000     137.2100      58.9290       0.8630    -999.2500    -999.2500    -999.2500       0.3654       2.2200      80.7710
   1103.2242      18.2054   -1998.5000     136.7631      60.8426       0.8590    -999.2500    -999.2500    -999.2500       0.3565       2.2125      80.8707
   1103.3766      18.0700   -1998.5000     136.3200      62.7400       0.8550    -999.2500    -999.2500    -999.2500       0.3493       2.2050      80.9700
   1103.5289      18.0775   -1998.5000     136.3200      62.0828       0.8580    -999.2500    -999.2500    -999.2500       0.3514       2.1985      80.9099
   1103.6814      18.0850   -1998.5000     136.3200      61.4310       0.8610    -999.2500    -999.2500    -999.2500       0.3574       2.1920      80.8500
   1103.8337      18.7931   -1998.5000     135.8425      61.1845       0.8620    -999.2500    -999.2500    -999.2500       0.3644       2.1860      80.9752
   1103.9862      19.5000   -1998.5000     135.3690      60.9400       0.8630    -999.2500    -999.2500    -999.2500       0.3706       2.1800      81.1000
   1104.1385      18.9796   -1998.5000     134.9428      61.6930       0.8615    -999.2500    -999.2500    -999.2500       0.3737       2.1875      80.9747
