#------------------------------------------------------------------------------
#
#   Created by  : [OpenWorks] Log Export Utility (LEXP)
#   Created on  : 2016-05-23 11:55:46
#   Project     : CANT971
#   User        : R5K
#   Interpreter : PEP
#
#------------------------------------------------------------------------------
~VERSION INFORMATION
VERS. 2.0 : CWLS Log ASCII Standard - version 2.0
WRAP.  NO : One line per depth step
~WELL INFORMATION
#MNEMONIC   .UNIT                                           VALUE :DESCRIPTION
#------------------------------------------------------------------------------
STRT        .M                                           292.5192 :START DEPTH
STOP        .M                                          2727.7188 :STOP DEPTH
STEP        .M                                             0.1524 :STEP
NULL        .                                           -999.2500 :NULL VALUE
COMP        .                                   PEMEX EXPL & PROD :COMPANY
WELL        .                                                  39 :WELL
FLD         .                                           CANTARELL :FIELD
LOC         .                                             UNKNOWN :LOCATION
CNTY        .                                      CD. DEL CARMEN :COUNTY
STAT        .                                            CAMPECHE :STATE
CTRY        .                                              MEXICO :COUNTRY
SRVC        .                                             UNKNOWN :SERVICE COMPANY
DATE        .                                             UNKNOWN :LOG DATE
UWI         .                                          3060000161 :UNIQUE WELL ID
XCOORD      .                                       603360.280000 :SURFACE X
YCOORD      .                                      2145098.760000 :SURFACE Y
LAT         .                                           19.398594 :LATITUDE
LON         .                                          -92.015639 :LONGITUDE
ELEV        .M                                            27.1400 :SURFACE ELEV
ELEV_TYPE   .                                                  KB :ELEV TYPE
~CURVE INFORMATION
#MNEMONIC.UNIT        API CODE       : CURVE DESCRIPTION
#------------------------------------------------------------------------------
DEPTH    .M                          : Measured Depth
CALI     .inches      UNKNOWN        : CALI:Import:rC:NONE:v0 (auto-composite)
DRHO     .g/cm3       UNKNOWN        : DRHO:Import:rC:NONE:v0 (auto-composite)
DT       .us/ft       UNKNOWN        : DT:Import:rC:NONE:v0 (auto-composite)
GR       .API         UNKNOWN        : GR:Import:rC:NONE:v0 (auto-composite)
ILD      .ohm.m       UNKNOWN        : ILD:Import:rC:NONE:v0 (auto-composite)
LLD      .ohm.m       UNKNOWN        : LLD:Import:rC:NONE:v0 (auto-composite)
LLS      .ohm.m       UNKNOWN        : LLS:Import:rC:NONE:v0 (auto-composite)
MSFL     .ohm.m       UNKNOWN        : MSFL:Import:rC:NONE:v0 (auto-composite)
NPHI     .v/v_decimal UNKNOWN        : NPHI:Import:rC:NONE:v0 (auto-composite)
RHOB     .g/cm3       UNKNOWN        : RHOB:Import:rC:NONE:v0 (auto-composite)
~A     DEPTH         CALI         DRHO           DT           GR          ILD          LLD          LLS         MSFL         NPHI         RHOB
# ...
    454.6728       0.0000       0.0000      40.0000      65.3386       0.9863       0.2000       0.2000       0.2000      -0.1500       2.0000
    454.8252       0.0000       0.0000      40.0000      64.6488       0.9933       0.2000       0.2000       0.2000      -0.1500       2.0000
    454.9776       0.0000       0.0000      40.0000      64.0059       1.0003       0.2000       0.2000       0.2000      -0.1500       2.0000
    455.1300       0.0000       0.0000      40.0000      63.4572       1.0073       0.2000       0.2000       0.2000      -0.1500       2.0000
    455.2824       0.0000       0.0000      40.0000      62.3209       1.0140       0.2000       0.2000       0.2000      -0.1500       2.0000
    455.4348       0.0000       0.0000      40.0000      59.9954       1.0200       0.2000       0.2000       0.2000      -0.1500       2.0000
    455.5872       0.0000       0.0000      40.0000      57.7777       1.0258       0.2000       0.2000       0.2000      -0.1500       2.0000
    455.7396       0.0000       0.0000      40.0000      55.7730       1.0313       0.2000       0.2000       0.2000      -0.1500       2.0000
    455.8920       0.0000       0.0000      40.0000      54.5111       1.0363       0.2000       0.2000       0.2000      -0.1500       2.0000
    456.0444       0.0000       0.0000      40.0000      54.7267       1.0404       0.2000       0.2000       0.2000      -0.1500       2.0000
    456.1968       0.0000       0.0000      40.0000      55.7411       1.0433       0.2000       0.2000       0.2000      -0.1500       2.0000
    456.3492       0.0000       0.0000      40.0000      58.3067       1.0443       0.2000       0.2000       0.2000      -0.1500       2.0000
    456.5016       0.0000       0.0000      40.0000      61.1852       1.0443       0.2000       0.2000       0.2000      -0.1500       2.0000
    456.6540       0.0000       0.0000      40.0000      64.6575       1.0423       0.2000       0.2000       0.2000      -0.1500       2.0000
    456.8064       0.0000       0.0000      40.0000      66.7878       1.0396       0.2000       0.2000       0.2000      -0.1500       2.0000
    456.9588       0.0000       0.0000      40.0000      66.3567       1.0356       0.2000       0.2000       0.2000      -0.1500       2.0000
    457.1112       0.0000       0.0000      40.0000      65.5328       1.0320       0.2000       0.2000       0.2000      -0.1500       2.0000
    457.2636       0.0000       0.0000      40.0000      63.9761       1.0289       0.2000       0.2000       0.2000      -0.1500       2.0000
    457.4160       0.0000       0.0000      40.0000      62.3273       1.0284       0.2000       0.2000       0.2000      -0.1500       2.0000
    457.5684       0.0000       0.0000      40.0000      60.5104       1.0324       0.2000       0.2000       0.2000      -0.1500       2.0000
    457.7208       0.0000       0.0000      40.0000      59.2423       1.0392       0.2000       0.2000       0.2000      -0.1500       2.0000
    457.8732       0.0000       0.0000      40.0000      58.9796       1.0513       0.2000       0.2000       0.2000      -0.1500       2.0000
    458.0256       0.0000       0.0000      40.0000      59.5828       1.0624       0.2000       0.2000       0.2000      -0.1500       2.0000
    458.1780       0.0000       0.0000      40.0000      61.7374       1.0719       0.2000       0.2000       0.2000      -0.1500       2.0000
    458.3304       0.0000       0.0000      40.0000      62.3523       1.0803       0.2000       0.2000       0.2000      -0.1500       2.0000
    458.4828       0.0000       0.0000      40.0000      60.1930       1.0868       0.2000       0.2000       0.2000      -0.1500       2.0000
    458.6352       0.0000       0.0000      40.0000      57.1805       1.0914       0.2000       0.2000       0.2000      -0.1500       2.0000
    458.7876       0.0000       0.0000      40.0000      52.6659       1.0924       0.2000       0.2000       0.2000      -0.1500       2.0000
    458.9400       0.0000       0.0000      40.0000      48.3242       1.0908       0.2000       0.2000       0.2000      -0.1500       2.0000
    459.0924       0.0000       0.0000      40.0000      44.2803       1.0848       0.2000       0.2000       0.2000      -0.1500       2.0000
    459.2448       0.0000       0.0000      40.0000      39.5457       1.0759       0.2000       0.2000       0.2000      -0.1500       2.0000
    459.3972       0.0000       0.0000      40.0000      33.6154       1.0618       0.2000       0.2000       0.2000      -0.1500       2.0000
    459.5496       0.0000       0.0000      40.0000      28.5670       1.0482       0.2000       0.2000       0.2000      -0.1500       2.0000
    459.7020       0.0000       0.0000      40.0000      25.0117       1.0352       0.2000       0.2000       0.2000      -0.1500       2.0000
    459.8544       0.0000       0.0000      40.0000      24.0051       1.0229       0.2000       0.2000       0.2000      -0.1500       2.0000
    460.0068       0.0000       0.0000      40.0000      27.3375       1.0119       0.2000       0.2000       0.2000      -0.1500       2.0000
    460.1592       0.0000       0.0000      40.0000      32.1967       1.0014       0.2000       0.2000       0.2000      -0.1500       2.0000
    460.3116       0.0000       0.0000      40.0000      39.5968       0.9919       0.2000       0.2000       0.2000      -0.1500       2.0000
    460.4640       0.0000       0.0000      40.0000      47.2810       0.9858       0.2000       0.2000       0.2000      -0.1500       2.0000
    460.6164       0.0000       0.0000      40.0000      55.4278       0.9853       0.2000       0.2000       0.2000      -0.1500       2.0000
    460.7688       0.0000       0.0000      40.0000      61.1264       0.9856       0.2000       0.2000       0.2000      -0.1500       2.0000
    460.9212       0.0000       0.0000      40.0000      62.8178       0.9871       0.2000       0.2000       0.2000      -0.1500       2.0000
    461.0736       0.0000       0.0000      40.0000      63.3258       0.9870       0.2000       0.2000       0.2000      -0.1500       2.0000
    461.2260       0.0000       0.0000      40.0000      61.9387       0.9845       0.2000       0.2000       0.2000      -0.1500       2.0000
    461.3784       0.0000       0.0000      40.0000      60.6305       0.9817       0.2000       0.2000       0.2000      -0.1500       2.0000
    461.5308       0.0000       0.0000      40.0000      59.4493       0.9781       0.2000       0.2000       0.2000      -0.1500       2.0000
    461.6832       0.0000       0.0000      40.0000      59.8960       0.9752       0.2000       0.2000       0.2000      -0.1500       2.0000
    461.8356       0.0000       0.0000      40.0000      62.9052       0.9732       0.2000       0.2000       0.2000      -0.1500       2.0000
    461.9880       0.0000       0.0000      40.0000      65.9467       0.9728       0.2000       0.2000       0.2000      -0.1500       2.0000
    462.1404       0.0000       0.0000      40.0000      69.0377       0.9748       0.2000       0.2000       0.2000      -0.1500       2.0000
    462.2928       0.0000       0.0000      40.0000      70.5472       0.9790       0.2000       0.2000       0.2000      -0.1500       2.0000
    462.4452       0.0000       0.0000      40.0000      69.6072       0.9865       0.2000       0.2000       0.2000      -0.1500       2.0000
    462.5976       0.0000       0.0000      40.0000      68.5470       1.0023       0.2000       0.2000       0.2000      -0.1500       2.0000
    462.7500       0.0000       0.0000      40.0000      67.3049       1.0308       0.2000       0.2000       0.2000      -0.1500       2.0000
    462.9024       0.0000       0.0000      40.0000      66.3272       1.0677       0.2000       0.2000       0.2000      -0.1500       2.0000
    463.0548       0.0000       0.0000      40.0000      65.7521       1.1173       0.2000       0.2000       0.2000      -0.1500       2.0000
