#------------------------------------------------------------------------------
#
#   Created by  : [OpenWorks] Log Export Utility (LEXP)
#   Created on  : 2016-05-23 11:57:02
#   Project     : CANT971
#   User        : R5K
#   Interpreter : PEP
#
#------------------------------------------------------------------------------
~VERSION INFORMATION
VERS. 2.0 : CWLS Log ASCII Standard - version 2.0
WRAP.  NO : One line per depth step
~WELL INFORMATION
#MNEMONIC   .UNIT                                           VALUE :DESCRIPTION
#------------------------------------------------------------------------------
STRT        .M                                           493.3184 :START DEPTH
STOP        .M                                          2467.0508 :STOP DEPTH
STEP        .M                                             0.1524 :STEP
NULL        .                                           -999.2500 :NULL VALUE
COMP        .                                   PEMEX EXPL & PROD :COMPANY
WELL        .                                                  63 :WELL
FLD         .                                           CANTARELL :FIELD
LOC         .                                             UNKNOWN :LOCATION
CNTY        .                                      CD. DEL CARMEN :COUNTY
STAT        .                                            CAMPECHE :STATE
CTRY        .                                              MEXICO :COUNTRY
SRVC        .                                             UNKNOWN :SERVICE COMPANY
DATE        .                                             UNKNOWN :LOG DATE
UWI         .                                          3060000615 :UNIQUE WELL ID
XCOORD      .                                       601716.240000 :SURFACE X
YCOORD      .                                      2142344.800000 :SURFACE Y
LAT         .                                           19.373792 :LATITUDE
LON         .                                          -92.031441 :LONGITUDE
ELEV        .M                                            24.0000 :SURFACE ELEV
ELEV_TYPE   .                                                  KB :ELEV TYPE
~CURVE INFORMATION
#MNEMONIC.UNIT        API CODE       : CURVE DESCRIPTION
#------------------------------------------------------------------------------
DEPTH    .M                          : Measured Depth
CALI     .inches      UNKNOWN        : CALI:Import:rC:NONE:v0 (auto-composite)
DRHO     .g/cm3       UNKNOWN        : DRHO:Import:rC:NONE:v0 (auto-composite)
DT       .us/ft       UNKNOWN        : DT:Import:rC:NONE:v0 (auto-composite)
GR       .API         UNKNOWN        : GR:Import:rC:NONE:v0 (auto-composite)
ILD      .ohm.m       UNKNOWN        : ILD:Import:rC:NONE:v0 (auto-composite)
ILM      .ohm.m       UNKNOWN        : ILM:Import:rC:NONE:v0 (auto-composite)
LLD      .ohm.m       UNKNOWN        : LLD:Import:rC:NONE:v0 (auto-composite)
LLS      .ohm.m       UNKNOWN        : LLS:Import:rC:NONE:v0 (auto-composite)
MSFL     .ohm.m       UNKNOWN        : MSFL:Import:rC:NONE:v0 (auto-composite)
NPHI     .v/v_decimal UNKNOWN        : NPHI:Import:rC:NONE:v0 (auto-composite)
PEF      .b/elec      UNKNOWN        : PEF:Import:rC:NONE:v0 (auto-composite)
RHOB     .g/cm3       UNKNOWN        : RHOB:Import:rC:NONE:v0 (auto-composite)
~A     DEPTH         CALI         DRHO           DT           GR          ILD          ILM          LLD          LLS         MSFL         NPHI          PEF         RHOB
# ...
   2205.0752       5.8440       0.0485      52.3375      36.2589    -999.2500    -999.2500     785.9956     379.9558     162.6718       0.0496       3.5074       2.7855
   2205.2275       5.8440       0.0530      51.7500      37.5160    -999.2500    -999.2500     833.1730     405.5040     125.4370       0.0462       3.5970       2.7980
   2205.3799       5.8730       0.0490      52.7740      38.4908    -999.2500    -999.2500     730.6376     361.4830     164.4636       0.0443       3.4207       2.7945
   2205.5325       5.9020       0.0450      53.8000      39.4690    -999.2500    -999.2500     627.9110     317.3800     203.5630       0.0445       3.2440       2.7910
   2205.6848       5.8730       0.0420      53.7250      35.2072    -999.2500    -999.2500     610.8839     310.5203     202.4396       0.0479       3.2935       2.7825
   2205.8372       5.8440       0.0390      53.6500      30.9300    -999.2500    -999.2500     593.8230     303.6470     201.3140       0.0535       3.3430       2.7740
   2205.9895       5.9169       0.0455      54.3998      31.1103    -999.2500    -999.2500     507.0333     259.1416     162.8697       0.0615       3.4454       2.7795
   2206.1418       5.9900       0.0520      55.1500      31.2910    -999.2500    -999.2500     420.0600     214.5420     124.3440       0.0709       3.5480       2.7850
   2206.2944       5.9426       0.0545      54.9491      32.6909    -999.2500    -999.2500     367.4279     187.4189     125.4707       0.0814       3.4186       2.7695
   2206.4468       5.8950       0.0570      54.7480      34.0940    -999.2500    -999.2500     314.6780     160.2350     126.6000       0.0871       3.2890       2.7540
   2206.5991       5.8950       0.0680      54.3382      31.3637    -999.2500    -999.2500     399.7233     198.9162     131.6690       0.0810       3.2925       2.7620
   2206.7515       5.8950       0.0790      53.9280      28.6270    -999.2500    -999.2500     484.9700     237.6890     136.7500       0.0700       3.2960       2.7700
   2206.9041       5.9515       0.0720      53.2893      27.5453    -999.2500    -999.2500     567.8182     274.0592     124.2251       0.0594       3.3160       2.7975
   2207.0564       6.0080       0.0650      52.6500      26.4610    -999.2500    -999.2500     650.7400     310.5200     111.6690       0.0517       3.3360       2.8250
   2207.2087       6.0045       0.0520      52.7500      29.1260    -999.2500    -999.2500     596.7614     284.7752     104.5703       0.0502       3.5119       2.8225
   2207.3611       6.0010       0.0390      52.8500      31.7980    -999.2500    -999.2500     542.7280     258.9630      97.4530       0.0516       3.6880       2.8200
   2207.5137       5.9625       0.0270      52.8500      33.4512    -999.2500    -999.2500     517.7927     250.8981      90.0902       0.0534       3.7779       2.7935
   2207.6660       5.9240       0.0150      52.8500      35.1090    -999.2500    -999.2500     492.8290     242.8240      82.7190       0.0545       3.8680       2.7670
   2207.8184       5.9630       0.0195      52.5252      32.7319    -999.2500    -999.2500     509.5290     249.7591      93.2668       0.0537       3.8225       2.7600
   2207.9707       6.0020       0.0240      52.2000      30.3480    -999.2500    -999.2500     526.2500     256.7030     103.8280       0.0517       3.7770       2.7530
   2208.1230       5.9530       0.0270      52.9310      27.7364    -999.2500    -999.2500     472.7607     228.3028      89.4590       0.0490       3.6401       2.7575
   2208.2756       5.9040       0.0300      53.6630      25.1170    -999.2500    -999.2500     419.1970     199.8630      75.0700       0.0469       3.5030       2.7620
   2208.4280       5.8805       0.0260      54.0162      25.1230    -999.2500    -999.2500     377.9223     182.1259      70.2577       0.0469       3.3581       2.7670
   2208.5803       5.8570       0.0220      54.3700      25.1290    -999.2500    -999.2500     336.5850     164.3620      65.4380       0.0481       3.2130       2.7720
   2208.7327       5.8505       0.0220      55.1094      25.7310    -999.2500    -999.2500     367.7394     176.5450      72.1355       0.0499       3.0996       2.7735
   2208.8853       5.8440       0.0220      55.8500      26.3350    -999.2500    -999.2500     398.9450     188.7480      78.8440       0.0516       2.9860       2.7750
   2209.0376       5.8440       0.0405      55.5003      27.7975    -999.2500    -999.2500     476.4011     226.2608      74.0667       0.0526       3.1494       2.7990
   2209.1899       5.8440       0.0590      55.1500      29.2650    -999.2500    -999.2500     553.9940     263.8400      69.2810       0.0531       3.3130       2.8230
   2209.3423       5.8445       0.0590      55.1805      31.5758    -999.2500    -999.2500     628.6493     285.5919     110.7887       0.0533       3.4589       2.8220
   2209.4949       5.8450       0.0590      55.2110      33.8910    -999.2500    -999.2500     703.4460     307.3850     152.3750       0.0534       3.6050       2.8210
   2209.6472       5.8500       0.0580      55.4515      33.8480    -999.2500    -999.2500     703.1383     307.2082     151.5084       0.0539       3.7449       2.8130
   2209.7996       5.8550       0.0570      55.6920      33.8050    -999.2500    -999.2500     702.8300     307.0310     150.6400       0.0551       3.8850       2.8050
   2209.9519       5.8740       0.0535      56.1459      32.8840    -999.2500    -999.2500     696.2725     303.2645     134.1971       0.0575       3.9364       2.7920
   2210.1042       5.8930       0.0500      56.6000      31.9610    -999.2500    -999.2500     689.7010     299.4900     117.7190       0.0599       3.9880       2.7790
   2210.2568       5.9115       0.0470      56.1896      32.1458    -999.2500    -999.2500     720.8527     310.2613     102.7984       0.0613       3.7533       2.7660
   2210.4092       5.9300       0.0440      55.7790      32.3310    -999.2500    -999.2500     752.0750     321.0570      87.8440       0.0618       3.5180       2.7530
   2210.5615       5.8871       0.0505      55.1897      34.2567    -999.2500    -999.2500     764.2464     323.5990      93.3244       0.0612       3.5030       2.7595
   2210.7139       5.8440       0.0570      54.6000      36.1870    -999.2500    -999.2500     776.4470     326.1470      98.8180       0.0609       3.4880       2.7660
   2210.8665       5.8440       0.0690      55.4246      34.8297    -999.2500    -999.2500     798.1030     340.1319     142.5229       0.0621       3.5340       2.7585
   2211.0188       5.8440       0.0810      56.2500      33.4690    -999.2500    -999.2500     819.7790     354.1520     186.3380       0.0637       3.5800       2.7510
   2211.1711       5.8630       0.0995      55.4754      35.1313    -999.2500    -999.2500     814.3049     351.4955     243.3435       0.0650       3.4915       2.7600
   2211.3235       5.8820       0.1180      54.7000      36.7980    -999.2500    -999.2500     808.8250     348.8320     300.5000       0.0645       3.4030       2.7690
   2211.4761       5.8875       0.1125      55.1567      37.5465    -999.2500    -999.2500     826.5856     357.8592     215.3313       0.0607       3.3240       2.8070
   2211.6284       5.8930       0.1070      55.6140      38.2970    -999.2500    -999.2500     844.3670     366.8970     130.0630       0.0567       3.2450       2.8450
   2211.7808       5.8910       0.0910      56.7987      37.7822    -999.2500    -999.2500     818.7286     360.9978     133.7791       0.0555       3.3334       2.8415
   2211.9331       5.8890       0.0750      57.9850      37.2660    -999.2500    -999.2500     793.0570     355.0910     137.5000       0.0558       3.4220       2.8380
   2212.0854       5.8890       0.0620      58.0924      40.7842    -999.2500    -999.2500     748.6161     346.6885     165.0744       0.0565       3.3366       2.8195
   2212.2380       5.8890       0.0490      58.2000      44.3130    -999.2500    -999.2500     704.1120     338.2740     192.6880       0.0572       3.2510       2.8010
