#------------------------------------------------------------------------------
#
#   Created by  : [OpenWorks] Log Export Utility (LEXP)
#   Created on  : 2016-05-23 11:56:24
#   Project     : CANT971
#   User        : R5K
#   Interpreter : PEP
#
#------------------------------------------------------------------------------
~VERSION INFORMATION
VERS. 2.0 : CWLS Log ASCII Standard - version 2.0
WRAP.  NO : One line per depth step
~WELL INFORMATION
#MNEMONIC   .UNIT                                           VALUE :DESCRIPTION
#------------------------------------------------------------------------------
STRT        .M                                           741.4294 :START DEPTH
STOP        .M                                          2768.5020 :STOP DEPTH
STEP        .M                                             0.1524 :STEP
NULL        .                                           -999.2500 :NULL VALUE
COMP        .                                             UNKNOWN :COMPANY
WELL        .                                                 470 :WELL
FLD         .                                             UNKNOWN :FIELD
LOC         .                                             UNKNOWN :LOCATION
CNTY        .                                             UNKNOWN :COUNTY
STAT        .                                             UNKNOWN :STATE
CTRY        .                                             UNKNOWN :COUNTRY
SRVC        .                                             UNKNOWN :SERVICE COMPANY
DATE        .                                             UNKNOWN :LOG DATE
UWI         .                                                 470 :UNIQUE WELL ID
XCOORD      .                                       598706.890000 :SURFACE X
YCOORD      .                                      2143306.000000 :SURFACE Y
LAT         .                                           19.382628 :LATITUDE
LON         .                                          -92.060044 :LONGITUDE
ELEV        .M                                             0.0000 :SURFACE ELEV
ELEV_TYPE   .                                                  NA :ELEV TYPE
~CURVE INFORMATION
#MNEMONIC.UNIT        API CODE       : CURVE DESCRIPTION
#------------------------------------------------------------------------------
DEPTH    .M                          : Measured Depth
CALI     .inches      UNKNOWN        : CALI:litodensidad:rC:NONE:v0 (auto-composite)
CGR      .API         UNKNOWN        : CGR:PETROWORKS:rC:NONE:v1 
DRHO     .g/cm3       UNKNOWN        : DRHO:litodensidad:rC:NONE:v0 (auto-composite)
DT       .us/ft       UNKNOWN        : DT:PETROWORKS:rC:NONE:v1 
GR       .API         UNKNOWN        : GR:PETROWORKS:rC:NONE:v8 
ILD      .ohm.m       UNKNOWN        : ILD:PETROWORKS:rC:NONE:v1 
ILM      .ohm.m       UNKNOWN        : ILM:PETROWORKS:rC:NONE:v1 
LLD      .ohm.m       UNKNOWN        : LLD:resistivos:rC:NONE:v0 (auto-composite)
LLS      .ohm.m       UNKNOWN        : LLS:resistivos:rC:NONE:v0 (auto-composite)
MSFL     .ohm.m       UNKNOWN        : MSFL:resistivos:rC:NONE:v0 (auto-composite)
NPHI     .v/v_decimal UNKNOWN        : NPHI:PETROWORKS:rC:NONE:v1 
PEF      .UNKNOWN     UNKNOWN        : PEF:litodensidad:rC:NONE:v0 (auto-composite)
POTA     .wtpercent   UNKNOWN        : POTA:PETROWORKS:rC:NONE:v1 
RHOB     .g/cm3       UNKNOWN        : RHOB:litodensidad:rC:NONE:v0 (auto-composite)
THOR     .ppm         UNKNOWN        : THOR:PETROWORKS:rC:NONE:v1 
URAN     .ppm         UNKNOWN        : URAN:PETROWORKS:rC:NONE:v1 
~A     DEPTH         CALI          CGR         DRHO           DT           GR          ILD          ILM          LLD          LLS         MSFL         NPHI          PEF         POTA         RHOB         THOR         URAN
# ...
   2495.0962       9.1902      11.6187       0.0122      49.2259      21.1104    -999.2500    -999.2500     736.5414     275.7404     123.7078       0.0273       5.0498       0.0045       2.7550       0.5532       0.9363
   2495.2485       9.1902       9.7994       0.0086      48.9441      17.6508    -999.2500    -999.2500    1011.8619     375.0244     526.3465       0.0225       4.9603       0.0043       2.7479       0.2433       0.7745
   2495.4011       9.1998       8.4200       0.0075      46.8629      16.4536    -999.2500    -999.2500    1836.7943     681.3818    1766.6915       0.0222       5.3685       0.0032       2.7471       0.4281       0.7924
   2495.5535       9.1998       8.1172       0.0053      47.9860      15.8992    -999.2500    -999.2500    1107.6881     411.4686    1859.5042       0.0221       5.1959       0.0031       2.7286       0.3937       0.7676
   2495.7058       9.2094       9.2865       0.0032      48.1491      18.3172    -999.2500    -999.2500     542.8347     197.1526    1855.4666       0.0232       5.1711       0.0032       2.7302       0.6087       0.8908
   2495.8582       9.1998      10.3640       0.0023      48.3959      19.7971    -999.2500    -999.2500     392.7397     143.3288    1865.8845       0.0222       4.9804       0.0036       2.7306       0.6767       0.9305
   2496.0107       9.1998       8.7080       0.0066      50.9682      18.0136    -999.2500    -999.2500     323.0181     118.6265    1655.2322       0.0225       4.9167       0.0027       2.7385       0.6716       0.9179
   2496.1631       9.2132       6.9058       0.0033      50.5942      15.6368    -999.2500    -999.2500     298.0254     109.3218     265.9215       0.0215       4.9905       0.0023       2.7349       0.4972       0.8612
   2496.3154       9.1998       7.1655       0.0044      50.0492      16.2269    -999.2500    -999.2500     341.8527     123.3683     260.3658       0.0225       4.5601       0.0022       2.7376       0.5603       0.8938
   2496.4678       9.2190       6.0086       0.0088      49.9171      14.5638    -999.2500    -999.2500     332.3215     117.7567     156.7788       0.0237       4.6426       0.0021       2.7497       0.3941       0.8439
   2496.6204       9.2382       5.1381       0.0133      51.0889      13.4679    -999.2500    -999.2500     261.2708      91.6075     152.4050       0.0242       4.5014       0.0016       2.7384       0.4091       0.8217
   2496.7727       9.2670       8.5807       0.0182      57.0427      16.9713    -999.2500    -999.2500     187.7275      64.0289     376.6948       0.0262       4.8222       0.0027       2.7207       0.6610       0.8277
   2496.9250       9.4052       6.5936       0.0149      57.6426      13.7863    -999.2500    -999.2500     147.8566      49.8152      28.7193       0.0311       4.8119       0.0014       2.6798       0.8053       0.7095
   2497.0774       9.6126       7.2185       0.0133      57.9643      13.7547    -999.2500    -999.2500     116.4245      39.3229      75.0503       0.0477       4.9243       0.0015       2.6509       0.8848       0.6447
   2497.2297       9.6990       8.4192       0.0136      56.8776      14.3044    -999.2500    -999.2500     114.1686      38.0061      75.0268       0.0557       5.0799       0.0020       2.6481       0.9050       0.5805
   2497.3823       9.4782       8.5794       0.0091      53.0336      13.8235    -999.2500    -999.2500     118.7552      39.2582     128.9479       0.0552       5.1844       0.0020       2.6556       0.9382       0.5173
   2497.5347       9.1806      10.0107       0.0053      51.6935      15.6254    -999.2500    -999.2500     150.2011      49.1530      55.5474       0.0485       5.0489       0.0025       2.6853       1.0565       0.5539
   2497.6870       9.1710       8.9429       0.0045      52.0677      12.5824    -999.2500    -999.2500     185.2831      60.9774     190.2337       0.0393       4.7370       0.0020       2.7000       1.0182       0.3590
   2497.8394       9.1806      10.0125       0.0040      51.0665      14.5918    -999.2500    -999.2500     200.9949      66.1545     710.0233       0.0351       4.6327       0.0022       2.7179       1.1805       0.4517
   2497.9919       9.1979      10.2545       0.0024      49.7959      15.8815    -999.2500    -999.2500     247.3394      80.0963     581.6174       0.0271       4.8927       0.0017       2.7305       1.4364       0.5551
   2498.1443       9.1902       9.8303       0.0059      49.8272      15.6198    -999.2500    -999.2500     270.3939      85.8316     511.4945       0.0248       5.2005       0.0019       2.7512       1.2388       0.5711
   2498.2966       9.1710       6.8730       0.0029      51.1210      11.5247    -999.2500    -999.2500     252.1584      78.1389     501.2089       0.0237       4.9525       0.0009       2.7560       1.0513       0.4589
   2498.4490       9.1422       7.4316       0.0039      55.3085      16.4475    -999.2500    -999.2500     241.5794      74.4679     726.4054       0.0249       4.6865       0.0020       2.7662       0.7117       0.8893
   2498.6016       9.1518       6.4687       0.0037      55.6110      15.7631    -999.2500    -999.2500     234.6678      70.6475     654.1217       0.0292       4.5695       0.0019       2.7534       0.5471       0.9168
   2498.7539       9.2056       5.2680       0.0028      56.6046      14.3264    -999.2500    -999.2500     218.7239      64.1954     182.7929       0.0312       4.7536       0.0021       2.7327       0.2375       0.8935
   2498.9062       9.1998       5.7375       0.0008      56.5111      15.9717    -999.2500    -999.2500     202.9107      58.5326      37.6144       0.0357       5.2948       0.0021       2.7003       0.3046       1.0095
   2499.0586       9.1998       5.6012       0.0065      61.7801      16.4746    -999.2500    -999.2500     178.8497      50.9812      20.0921       0.0376       5.4825       0.0021       2.6842       0.3091       1.0726
   2499.2109       9.1902       4.3205       0.0079      68.1459      15.8780    -999.2500    -999.2500     155.4982      43.9257      20.4846       0.0430       5.3218       0.0015       2.6910       0.2932       1.1401
   2499.3635       9.1902       1.9217       0.0047      64.6138      12.8302    -999.2500    -999.2500     148.7209      42.5020     136.4494       0.0456       4.9808       0.0007       2.6925       0.1076       1.0760
   2499.5159       9.1902       4.8268       0.0070      62.9712      16.2663    -999.2500    -999.2500     156.4491      44.6757     374.6898       0.0479       4.4593       0.0017       2.7108       0.3026       1.1284
   2499.6682       9.1902       3.3511       0.0079      58.4245      13.8160    -999.2500    -999.2500     177.0077      49.9410     269.1523       0.0475       4.4333       0.0014       2.7279       0.1076       1.0323
   2499.8206       9.1825       3.0111       0.0034      57.1475      13.7338    -999.2500    -999.2500     217.9898      60.5271     424.4008       0.0450       4.3850       0.0010       2.7295       0.2232       1.0577
   2499.9731       9.1806       3.9698       0.0018      59.2301      15.8756    -999.2500    -999.2500     259.8610      71.4942     157.6466       0.0416       4.5743       0.0009       2.7389       0.4386       1.1744
   2500.1255       9.2478       4.1549       0.0036      59.5756      15.8482    -999.2500    -999.2500     261.1057      71.3043      62.8135       0.0396       4.6412       0.0010       2.7334       0.4588       1.1535
   2500.2778       9.2670       3.6856       0.0035      59.6663      14.0990    -999.2500    -999.2500     251.8143      67.7675      30.9950       0.0422       4.7194       0.0009       2.7242       0.3844       1.0272
   2500.4302       9.3438       3.6381       0.0002      62.9749      12.8334    -999.2500    -999.2500     234.0779      61.2499      24.1939       0.0494       4.6904       0.0009       2.7018       0.4008       0.9070
   2500.5828       9.3438       4.9944       0.0004      66.5389      13.3045    -999.2500    -999.2500     218.9484      56.2581      31.6327       0.0546       4.4686       0.0012       2.6944       0.5315       0.8197
