#------------------------------------------------------------------------------
#
#   Created by  : [OpenWorks] Log Export Utility (LEXP)
#   Created on  : 2016-05-23 11:55:55
#   Project     : CANT971
#   User        : R5K
#   Interpreter : PEP
#
#------------------------------------------------------------------------------
~VERSION INFORMATION
VERS. 2.0 : CWLS Log ASCII Standard - version 2.0
WRAP.  NO : One line per depth step
~WELL INFORMATION
#MNEMONIC   .UNIT                                           VALUE :DESCRIPTION
#------------------------------------------------------------------------------
STRT        .M                                          2870.4541 :START DEPTH
STOP        .M                                          3966.9722 :STOP DEPTH
STEP        .M                                             0.1524 :STEP
NULL        .                                           -999.2500 :NULL VALUE
COMP        .                                             UNKNOWN :COMPANY
WELL        .                                            418D-ST1 :WELL
FLD         .                                             UNKNOWN :FIELD
LOC         .                                             UNKNOWN :LOCATION
CNTY        .                                             UNKNOWN :COUNTY
STAT        .                                             UNKNOWN :STATE
CTRY        .                                             UNKNOWN :COUNTRY
SRVC        .                                             UNKNOWN :SERVICE COMPANY
DATE        .                                             UNKNOWN :LOG DATE
UWI         .                                            418D-ST1 :UNIQUE WELL ID
XCOORD      .                                       597130.010000 :SURFACE X
YCOORD      .                                      2144879.410000 :SURFACE Y
LAT         .                                           19.396924 :LATITUDE
LON         .                                          -92.074978 :LONGITUDE
ELEV        .M                                             0.0000 :SURFACE ELEV
ELEV_TYPE   .                                                  NA :ELEV TYPE
~CURVE INFORMATION
#MNEMONIC.UNIT        API CODE       : CURVE DESCRIPTION
#------------------------------------------------------------------------------
DEPTH    .M                          : Measured Depth
CALI     .inches      UNKNOWN        : CALI:litodensidad:rC:NONE:v0 (auto-composite)
CGR      .API         UNKNOWN        : CGR:litodensidad:rC:NONE:v0 (auto-composite)
DRHO     .g/cm3       UNKNOWN        : DRHO:litodensidad:rC:NONE:v0 (auto-composite)
DT       .us/ft       UNKNOWN        : DT:DT-Load:rC:NONE:v0 (auto-composite)
GR       .API         UNKNOWN        : GR:litodensidad:rC:NONE:v0 (auto-composite)
LLD      .ohm.m       UNKNOWN        : LLD:PETROWORKS:rC:NONE:v1 
LLS      .ohm.m       UNKNOWN        : LLS:PETROWORKS:rC:NONE:v1 
MSFL     .ohm.m       UNKNOWN        : MSFL:resistivos:rC:NONE:v0 (auto-composite)
NPHI     .v/v_decimal UNKNOWN        : NPHI:litodensidad:rC:NONE:v0 (auto-composite)
PEF      .UNKNOWN     UNKNOWN        : PEF:litodensidad:rC:NONE:v0 (auto-composite)
POTA     .UNKNOWN     UNKNOWN        : POTA:litodensidad:rC:NONE:v0 (auto-composite)
RHOB     .g/cm3       UNKNOWN        : RHOB:litodensidad:rC:NONE:v0 (auto-composite)
THOR     .ppm         UNKNOWN        : THOR:litodensidad:rC:NONE:v0 (auto-composite)
URAN     .ppm         UNKNOWN        : URAN:litodensidad:rC:NONE:v0 (auto-composite)
~A     DEPTH         CALI          CGR         DRHO           DT           GR          LLD          LLS         MSFL         NPHI          PEF         POTA         RHOB         THOR         URAN
# ...
   3702.5581      16.0625      66.0602       0.0293    -999.2500      83.2028       8.0167       5.0822    -999.2500       0.1734       3.2031       0.0218       2.5501       8.4529       2.2032
   3702.7104      15.6250      65.7030       0.0113    -999.2500      83.3984       8.2290       5.0969    -999.2500       0.1498       4.3672       0.0216       2.5488       8.4564       2.2743
   3702.8628      13.9141      62.4161       0.0111    -999.2500      79.5445       8.5559       5.1157    -999.2500       0.1268       5.3438       0.0204       2.5457       8.1041       2.2014
   3703.0154      18.0938      60.1049       0.0059    -999.2500      76.0553       8.9071       5.1354    -999.2500       0.1048       6.3047       0.0195       2.4144       7.8410       2.0500
   3703.1677      20.7188      50.2713       0.0054    -999.2500      64.5876       9.2583       5.1551    -999.2500       0.0864       6.3906       0.0150       2.3471       7.1359       1.8400
   3703.3201      22.1875      49.5299       0.0082    -999.2500      64.1264       9.1196       5.0323    -999.2500       0.0518       6.3828       0.0148       2.3029       7.0049       1.8760
   3703.4724      24.6563      66.9453       0.0428    -999.2500      84.5678       8.2047       4.6835    -999.2500       0.0470       6.3633       0.0218       2.3737       8.7021       2.2649
   3703.6250      25.5938      69.2234       0.0638    -999.2500      87.9615       7.2898       4.3348    -999.2500       0.1027       6.2070       0.0226       2.4003       8.9950       2.4083
   3703.7773      23.5156      68.2374       0.0585    -999.2500      86.7311       6.3750       3.9860    -999.2500       0.2007       5.8477       0.0222       2.3931       8.8806       2.3769
   3703.9297      22.2031      66.1752       0.0572    -999.2500      83.8023       6.0022       3.9210    -999.2500       0.2842       5.4453       0.0216       2.4073       8.5839       2.2655
   3704.0820      23.6875      69.5927       0.0587    -999.2500      89.3840       5.6585       3.8711    -999.2500       0.2965       4.9219       0.0234       2.4392       8.7485       2.5436
   3704.2346      25.0625      67.8740       0.0424    -999.2500      86.7172       5.3147       3.8212    -999.2500       0.3137       4.8281       0.0229       2.4590       8.4992       2.4218
   3704.3870      25.9375      63.4464       0.0236    -999.2500      80.2171       5.2844       3.9351    -999.2500       0.2908       4.9102       0.0216       2.4547       7.8442       2.1554
   3704.5393      26.4531      59.3423       0.0150    -999.2500      68.6602       5.5556       4.2064    -999.2500       0.2926       5.2695       0.0190       2.4343       7.8399       1.1976
   3704.6917      23.2500      50.3276       0.0109    -999.2500      56.2234       5.8268       4.4778    -999.2500       0.2754       5.5586       0.0160       2.4881       6.7139       0.7577
   3704.8440      13.5938      38.8475       0.0097    -999.2500      43.2233       6.6967       5.0588    -999.2500       0.2450       5.8984       0.0109       2.5844       5.7842       0.5624
   3704.9966      13.3047      34.7516       0.0138    -999.2500      37.1567      15.3024       9.6418    -999.2500       0.1438       5.6211       0.0094       2.7341       5.3232       0.3091
   3705.1489      13.0859      32.9709       0.0072    -999.2500      34.8156      23.9082      14.2247    -999.2500       0.0483       5.6641       0.0093       2.7732       4.8999       0.2371
   3705.3013      13.0078      31.3275      -0.0032    -999.2500      33.5307      32.5139      18.8077    -999.2500       0.0133       5.3398       0.0093       2.7717       4.4564       0.2832
   3705.4536      13.0078      28.9502      -0.0059    -999.2500      31.0121      42.6683      25.8390    -999.2500       0.0078       5.2422       0.0086       2.7701       4.1287       0.2650
   3705.6062      13.1641      29.8907      -0.0056    -999.2500      35.2819      53.7167      34.2838    -999.2500       0.0078       5.3320       0.0090       2.7775       4.1907       0.6929
   3705.7585      13.2422      30.5955      -0.0038    -999.2500      37.3381      64.7651      42.7285    -999.2500       0.0071       5.5781       0.0093       2.7878       4.2739       0.8666
   3705.9109      13.4609      28.3459      -0.0029    -999.2500      35.0527      74.4775      50.3151    -999.2500       0.0065       6.0117       0.0087       2.7882       3.9090       0.8620
   3706.0632      13.6719      26.5749      -0.0072    -999.2500      33.3676      78.7149      54.3849    -999.2500       0.0050       6.0703       0.0081       2.7816       3.6744       0.8730
   3706.2158      13.6719      26.7004      -0.0090    -999.2500      33.7673      82.9523      58.4547    -999.2500       0.0046       5.9844       0.0085       2.7672       3.5585       0.9083
   3706.3682      13.4063      24.4440      -0.0100    -999.2500      30.7990      87.1898      62.5245    -999.2500       0.0047       5.9258       0.0078       2.7675       3.2553       0.8168
   3706.5205      13.0000      23.0982      -0.0103    -999.2500      28.8199      86.8745      63.3270    -999.2500       0.0034       5.8164       0.0072       2.7601       3.1489       0.7354
   3706.6729      12.8516      23.2250      -0.0114    -999.2500      28.7149      85.0957      63.0790    -999.2500       0.0032       5.6875       0.0074       2.7597       3.0758       0.7056
   3706.8252      12.8516      22.4700      -0.0085    -999.2500      27.9024      83.3169      62.8311    -999.2500       0.0020       5.6875       0.0068       2.7622       3.1595       0.6982
   3706.9778      12.8906      23.9694      -0.0069    -999.2500      30.3221      82.0281      63.0436    -999.2500       0.0027       5.7266       0.0068       2.7767       3.5545       0.8165
   3707.1301      13.0078      22.3661      -0.0030    -999.2500      27.8928      81.7856      64.2395    -999.2500       0.0031       5.7383       0.0058       2.7828       3.5509       0.7103
   3707.2825      13.1328      23.1525      -0.0013    -999.2500      28.5429      81.5431      65.4354    -999.2500       0.0032       5.5156       0.0063       2.7811       3.5225       0.6928
   3707.4348      13.2891      31.0213      -0.0005    -999.2500      35.4751      81.3006      66.6313    -999.2500       0.0031       5.8203       0.0124       2.7713       3.0551       0.5724
   3707.5874      13.3438      25.2039       0.0020    -999.2500      28.1729      76.2839      63.5078    -999.2500       0.0027       5.9219       0.0090       2.7759       2.9198       0.3816
   3707.7397      13.1953      24.3180       0.0030    -999.2500      27.1030      70.6226      59.8013    -999.2500       0.0033       5.6914       0.0086       2.7724       2.8790       0.3579
   3707.8921      13.0781      25.0415       0.0018    -999.2500      32.4317      64.9614      56.0947    -999.2500       0.0043       5.4023       0.0086       2.7693       3.0742       0.9498
   3708.0444      12.8438      23.6048       0.0039    -999.2500      30.1105      60.6541      53.3039    -999.2500       0.0058       5.1367       0.0084       2.7736       2.7826       0.8361
   3708.1970      12.9219      23.5602       0.0034    -999.2500      29.6379      58.0588      51.6709    -999.2500       0.0068       5.5156       0.0087       2.7706       2.6286       0.7811
   3708.3494      13.0000      22.6023       0.0037    -999.2500      28.0059      55.4635      50.0378    -999.2500       0.0068       5.5195       0.0085       2.7774       2.4590       0.6945
   3708.5017      13.1563      23.4156       0.0055    -999.2500      28.5314      52.8780      48.4110    -999.2500       0.0067       5.6680       0.0090       2.7752       2.4502       0.6575
   3708.6541      13.2813      22.3250       0.0032    -999.2500      26.3319      48.5705      44.5203    -999.2500       0.0067       5.6484       0.0089       2.7786       2.1873       0.5150
   3708.8064      13.3438      23.3483      -0.0020    -999.2500      27.2550      44.2792      40.6442    -999.2500       0.0083       5.4844       0.0097       2.7729       2.1458       0.5021
