#------------------------------------------------------------------------------
#
#   Created by  : [OpenWorks] Log Export Utility (LEXP)
#   Created on  : 2016-05-23 11:55:49
#   Project     : CANT971
#   User        : R5K
#   Interpreter : PEP
#
#------------------------------------------------------------------------------
~VERSION INFORMATION
VERS. 2.0 : CWLS Log ASCII Standard - version 2.0
WRAP.  NO : One line per depth step
~WELL INFORMATION
#MNEMONIC   .UNIT                                           VALUE :DESCRIPTION
#------------------------------------------------------------------------------
STRT        .M                                           773.4315 :START DEPTH
STOP        .M                                          2865.1216 :STOP DEPTH
STEP        .M                                             0.1524 :STEP
NULL        .                                           -999.2500 :NULL VALUE
COMP        .                                             UNKNOWN :COMPANY
WELL        .                                                408D :WELL
FLD         .                                             UNKNOWN :FIELD
LOC         .                                             UNKNOWN :LOCATION
CNTY        .                                             UNKNOWN :COUNTY
STAT        .                                             UNKNOWN :STATE
CTRY        .                                             UNKNOWN :COUNTRY
SRVC        .                                             UNKNOWN :SERVICE COMPANY
DATE        .                                             UNKNOWN :LOG DATE
UWI         .                                                408D :UNIQUE WELL ID
XCOORD      .                                       597130.770000 :SURFACE X
YCOORD      .                                      2144867.260000 :SURFACE Y
LAT         .                                           19.396814 :LATITUDE
LON         .                                          -92.074972 :LONGITUDE
ELEV        .M                                             0.0000 :SURFACE ELEV
ELEV_TYPE   .                                                  KB :ELEV TYPE
~CURVE INFORMATION
#MNEMONIC.UNIT        API CODE       : CURVE DESCRIPTION
#------------------------------------------------------------------------------
DEPTH    .M                          : Measured Depth
CALI     .inches      UNKNOWN        : CALI:litodensidad:rC:NONE:v0 (auto-composite)
CGR      .API         UNKNOWN        : CGR:PETROWORKS:rC:NONE:v1 
DRHO     .g/cm3       UNKNOWN        : DRHO:litodensidad:rC:NONE:v0 (auto-composite)
DT       .us/ft       UNKNOWN        : DT:PETROWORKS:rC:NONE:v1 
GR       .API         UNKNOWN        : GR:PETROWORKS:rC:NONE:v3 
GR-LWD   .UNKNOWN     UNKNOWN        : GR-LWD:resistivos-LWD:rC:NONE:v0 (auto-composite)
LLD      .ohm.m       UNKNOWN        : LLD:PETROWORKS:rC:NONE:v1 
LLD-LWD  .UNKNOWN     UNKNOWN        : LLD-LWD:resistivos-LWD:rC:NONE:v0 (auto-composite)
LLS      .UNKNOWN     UNKNOWN        : LLS:PETROWORKS:rC:NONE:v1 
LLS-LWD  .UNKNOWN     UNKNOWN        : LLS-LWD:resistivos-LWD:rC:NONE:v0 (auto-composite)
MSFL     .UNKNOWN     UNKNOWN        : MSFL:PETROWORKS:rC:NONE:v1 
MSFL-LWD .UNKNOWN     UNKNOWN        : MSFL-LWD:resistivos-LWD:rC:NONE:v0 (auto-composite)
NPHI     .v/v_decimal UNKNOWN        : NPHI:PETROWORKS:rC:NONE:v3 
PEF      .UNKNOWN     UNKNOWN        : PEF:litodensidad:rC:NONE:v0 (auto-composite)
POTA     .wtpercent   UNKNOWN        : POTA:PETROWORKS:rC:NONE:v1 
RHOB     .g/cm3       UNKNOWN        : RHOB:litodensidad:rC:NONE:v0 (auto-composite)
THOR     .ppm         UNKNOWN        : THOR:PETROWORKS:rC:NONE:v1 
URAN     .ppm         UNKNOWN        : URAN:PETROWORKS:rC:NONE:v1 
~A     DEPTH         CALI          CGR         DRHO           DT           GR       GR-LWD          LLD      LLD-LWD          LLS      LLS-LWD         MSFL     MSFL-LWD         NPHI          PEF         POTA         RHOB         THOR         URAN
# ...
   2785.1116       9.6886      13.2984       0.0028    -999.2500      34.0933    -999.2500     147.7494    -999.2500      56.8259    -999.2500      43.3606    -999.2500       0.1708       3.8114       0.0045       2.5833       1.6210       2.5942
   2785.2639       9.5867      12.5798      -0.0019    -999.2500      33.1384    -999.2500     175.4254    -999.2500      64.9892    -999.2500      40.0760    -999.2500       0.1777       3.8939       0.0042       2.5525       1.5733       2.5165
   2785.4163       9.8584      13.1204      -0.0006    -999.2500      32.8147    -999.2500     198.3885    -999.2500      71.9737    -999.2500      24.6474    -999.2500       0.1780       4.1030       0.0045       2.5570       1.5729       2.4707
   2785.5686       9.8924      12.6741       0.0029    -999.2500      31.9778    -999.2500     194.4971    -999.2500      70.3665    -999.2500      22.8245    -999.2500       0.1767       3.6730       0.0044       2.5659       1.4733       2.3418
   2785.7212      10.3271      12.9728       0.0021    -999.2500      32.5356    -999.2500     184.8755    -999.2500      66.9210    -999.2500      32.5953    -999.2500       0.1775       3.4086       0.0044       2.5805       1.5459       2.3834
   2785.8735      10.4901      13.6305       0.0034    -999.2500      34.6690    -999.2500     191.3709    -999.2500      69.2643    -999.2500      31.2187    -999.2500       0.1853       3.1644       0.0053       2.5729       1.2814       2.5247
   2786.0259       9.6546      14.1205       0.0046    -999.2500      36.2089    -999.2500     205.0954    -999.2500      75.0480    -999.2500      23.4457    -999.2500       0.1984       3.2946       0.0054       2.5730       1.3795       2.5913
   2786.1782       9.3082      14.0036       0.0004    -999.2500      35.0649    -999.2500     208.8232    -999.2500      77.8435    -999.2500      45.1384    -999.2500       0.2043       3.2926       0.0052       2.5666       1.4374       2.5616
   2786.3308       9.1927      11.5433      -0.0077    -999.2500      31.7305    -999.2500     219.0019    -999.2500      82.3941    -999.2500      62.2925    -999.2500       0.2000       3.2209       0.0042       2.5464       1.2441       2.4433
   2786.4832       9.2606      10.1178      -0.0085    -999.2500      29.0287    -999.2500     223.5237    -999.2500      84.6806    -999.2500      34.5521    -999.2500       0.1953       3.0322       0.0038       2.5317       1.0294       2.2749
   2786.6355       9.4373       8.6854      -0.0120    -999.2500      27.1739    -999.2500     192.7634    -999.2500      73.8714    -999.2500      34.9092    -999.2500       0.1934       2.8648       0.0033       2.5000       0.8237       2.2975
   2786.7878       9.6071       9.3820      -0.0110    -999.2500      28.2274    -999.2500     150.2444    -999.2500      59.3911    -999.2500      70.1370    -999.2500       0.1939       2.8443       0.0036       2.4881       0.9144       2.2585
   2786.9404       9.7565       9.8528      -0.0052    -999.2500      30.1432    -999.2500     132.5967    -999.2500      53.4309    -999.2500      36.6303    -999.2500       0.1933       2.9075       0.0040       2.4959       0.8129       2.5183
   2787.0928       9.2403      11.3140      -0.0017    -999.2500      32.7606    -999.2500     126.6638    -999.2500      51.5863    -999.2500      22.7142    -999.2500       0.1832       3.1146       0.0047       2.5278       0.8468       2.6467
   2787.2451       9.1655      13.1136       0.0036    -999.2500      35.1908    -999.2500     142.4875    -999.2500      57.1017    -999.2500      45.2581    -999.2500       0.1576       3.2004       0.0053       2.5933       1.1146       2.8110
   2787.3975       8.9278      13.5189       0.0076    -999.2500      36.8170    -999.2500     180.4548    -999.2500      70.4944    -999.2500      57.6859    -999.2500       0.1234       3.2733       0.0055       2.6625       1.1274       2.9950
   2787.5498       8.9120      13.3111       0.0048    -999.2500      37.9894    -999.2500     257.0699    -999.2500      99.1504    -999.2500      55.3114    -999.2500       0.0939       3.5053       0.0049       2.7189       1.3675       3.2508
   2787.7024       8.9101      13.8049      -0.0015    -999.2500      37.0774    -999.2500     314.2558    -999.2500     122.4550    -999.2500      52.2304    -999.2500       0.0745       3.6368       0.0052       2.7373       1.3646       3.1084
   2787.8547       8.9210      13.6229      -0.0025    -999.2500      36.9788    -999.2500     319.2330    -999.2500     125.9056    -999.2500      51.4769    -999.2500       0.0642       3.7148       0.0052       2.7592       1.2918       3.2127
   2788.0071       9.0206      14.2514      -0.0100    -999.2500      35.2647    -999.2500     317.9026    -999.2500     125.7234    -999.2500      65.1246    -999.2500       0.0610       3.3697       0.0052       2.7566       1.4890       2.9128
   2788.1594       9.0840      15.1064      -0.0092    -999.2500      33.6989    -999.2500     328.2252    -999.2500     128.4922    -999.2500      83.9627    -999.2500       0.0622       3.2189       0.0054       2.7622       1.6512       2.6479
   2788.3120       9.1859      14.8519      -0.0073    -999.2500      31.7324    -999.2500     330.7898    -999.2500     128.7315    -999.2500     140.7041    -999.2500       0.0645       3.1664       0.0054       2.7395       1.5869       2.3320
   2788.4644       9.1384      15.3912      -0.0031    -999.2500      32.0058    -999.2500     338.5829    -999.2500     131.4969    -999.2500     138.2063    -999.2500       0.0671       3.1271       0.0056       2.7181       1.6212       2.3005
   2788.6167       9.0569      17.1516      -0.0081    -999.2500      33.4454    -999.2500     343.9533    -999.2500     133.3266    -999.2500     109.3560    -999.2500       0.0674       3.0764       0.0063       2.6982       1.7920       2.2514
   2788.7690       9.0976      17.0436      -0.0019    -999.2500      35.6872    -999.2500     320.0835    -999.2500     125.4018    -999.2500      86.3457    -999.2500       0.0637       3.1296       0.0062       2.7220       1.8100       2.6141
   2788.9216       9.1452      16.3166      -0.0011    -999.2500      35.9192    -999.2500     302.0037    -999.2500     119.2543    -999.2500      90.6088    -999.2500       0.0549       3.3110       0.0059       2.7440       1.7477       2.5885
   2789.0740       9.1384      16.2010      -0.0001    -999.2500      34.7597    -999.2500     298.4755    -999.2500     120.5211    -999.2500      89.2538    -999.2500       0.0444       3.6282       0.0058       2.7664       1.7642       2.4355
   2789.2263       9.1384      15.9712      -0.0021    -999.2500      32.6801    -999.2500     311.9825    -999.2500     129.9279    -999.2500     161.7480    -999.2500       0.0361       3.5250       0.0061       2.7792       1.5548       2.1261
   2789.3787       8.9346      15.0265       0.0012    -999.2500      31.5027    -999.2500     354.8502    -999.2500     151.1532    -999.2500     265.6298    -999.2500       0.0328       3.5796       0.0053       2.7791       1.7197       2.0071
   2789.5310       8.9142      14.0346      -0.0060    -999.2500      30.0927    -999.2500     402.7218    -999.2500     175.3269    -999.2500     223.8040    -999.2500       0.0354       3.4706       0.0047       2.7414       1.7514       1.9134
   2789.6836       9.1112      13.3187      -0.0076    -999.2500      29.9689    -999.2500     408.9048    -999.2500     184.1412    -999.2500     176.3517    -999.2500       0.0420       3.4455       0.0045       2.7136       1.6528       1.9468
   2789.8359       9.1588      12.9108      -0.0081    -999.2500      30.6454    -999.2500     375.0767    -999.2500     172.9291    -999.2500     127.7208    -999.2500       0.0522       3.5005       0.0045       2.7046       1.5235       2.1138
   2789.9883       9.1248      12.8312      -0.0100    -999.2500      32.1298    -999.2500     343.1949    -999.2500     160.6693    -999.2500     127.2129    -999.2500       0.0631       3.4222       0.0044       2.7054       1.5181       2.3396
