#------------------------------------------------------------------------------
#
#   Created by  : [OpenWorks] Log Export Utility (LEXP)
#   Created on  : 2016-05-23 11:52:25
#   Project     : CANT971
#   User        : R5K
#   Interpreter : PEP
#
#------------------------------------------------------------------------------
~VERSION INFORMATION
VERS. 2.0 : CWLS Log ASCII Standard - version 2.0
WRAP.  NO : One line per depth step
~WELL INFORMATION
#MNEMONIC   .UNIT                                           VALUE :DESCRIPTION
#------------------------------------------------------------------------------
STRT        .M                                           940.1293 :START DEPTH
STOP        .M                                          2672.0029 :STOP DEPTH
STEP        .M                                             0.1524 :STEP
NULL        .                                           -999.2500 :NULL VALUE
COMP        .                                   PEMEX EXPL & PROD :COMPANY
WELL        .                                               2071D :WELL
FLD         .                                           CANTARELL :FIELD
LOC         .                                             UNKNOWN :LOCATION
CNTY        .                                      CD. DEL CARMEN :COUNTY
STAT        .                                            CAMPECHE :STATE
CTRY        .                                              MEXICO :COUNTRY
SRVC        .                                             UNKNOWN :SERVICE COMPANY
DATE        .                                             UNKNOWN :LOG DATE
UWI         .                                          3060000679 :UNIQUE WELL ID
XCOORD      .                                       601713.940000 :SURFACE X
YCOORD      .                                      2142372.000000 :SURFACE Y
LAT         .                                           19.374038 :LATITUDE
LON         .                                          -92.031462 :LONGITUDE
ELEV        .M                                            30.0000 :SURFACE ELEV
ELEV_TYPEF  .b/elec                                            KB :ELEV TYPE
~CURVE INFORMATION
#MNEMONIC.UNIT        API CODE       : CURVE DESCRIPTION
#------------------------------------------------------------------------------
DEPTH    .M                          : Measured Depth
CALI     .in          UNKNOWN        : CALI:UNKNOWN:rC:NONE:v0 (auto-composite)
DRHO     .g/cm3       UNKNOWN        : DRHO:UNKNOWN:rC:NONE:v0 (auto-composite)
DT       .us/ft       UNKNOWN        : DT:DT:rC:NONE:v0 (auto-composite)
GR       .API         UNKNOWN        : GR:UNKNOWN:rC:NONE:v0 (auto-composite)
ILD      .ohmm        UNKNOWN        : ILD:UNKNOWN:rC:NONE:v0 (auto-composite)
ILM      .ohmm        UNKNOWN        : ILM:UNKNOWN:rC:NONE:v0 (auto-composite)
LLD      .ohmm        UNKNOWN        : LLD:UNKNOWN:rC:NONE:v0 (auto-composite)
LLS      .ohmm        UNKNOWN        : LLS:UNKNOWN:rC:NONE:v0 (auto-composite)
MSFL     .ohmm        UNKNOWN        : MSFL:UNKNOWN:rC:NONE:v0 (auto-composite)
NPHI     .v/v_decimal UNKNOWN        : NPHI:UNKNOWN:rC:NONE:v0 (auto-composite)
PEF      .b/elec      UNKNOWN        : PEF:UNKNOWN:rC:NONE:v0 (auto-composite)
RHOB     .g/cm3       UNKNOWN        : RHOB:UNKNOWN:rC:NONE:v0 (auto-composite)
~A     DEPTH         CALI         DRHO           DT           GR          ILD          ILM          LLD          LLS         MSFL         NPHI          PEF         RHOB
# ...
   2308.0718      10.8670       0.0415      59.4747      47.2971    -999.2500    -999.2500     450.1310     234.8242       0.4370       0.0585       3.2300       2.7285
   2308.2241      10.8520       0.0420      57.9950      45.8720    -999.2500    -999.2500     497.3090     262.3580       0.4590       0.0618       3.2390       2.7310
   2308.3765      10.8155       0.0445      55.6214      40.5904    -999.2500    -999.2500     583.5538     300.9960       0.4245       0.0573       3.2750       2.7285
   2308.5291      10.7790       0.0470      53.2500      35.3050    -999.2500    -999.2500     669.8590     339.6610       0.3900       0.0528       3.3110       2.7260
   2308.6814      10.7855       0.0480      54.6630      33.4578    -999.2500    -999.2500     728.9507     360.6017       0.3980       0.0443       3.2754       2.7345
   2308.8337      10.7920       0.0490      56.0750      31.6180    -999.2500    -999.2500     787.8070     381.4590       0.4060       0.0357       3.2400       2.7430
   2308.9861      10.8251       0.0480      58.6438      30.0221    -999.2500    -999.2500     778.7469     372.6736       0.3653       0.0334       3.2576       2.7661
   2309.1384      10.8580       0.0470      61.2110      28.4400    -999.2500    -999.2500     769.7650     363.9640       0.3250       0.0311       3.2750       2.7890
   2309.2910      10.8460       0.0475      60.1867      26.8458    -999.2500    -999.2500     791.1017     361.4042       0.3771       0.0374       3.2138       2.7835
   2309.4434      10.8340       0.0480      59.1630      25.2600    -999.2500    -999.2500     812.3250     358.8580       0.4290       0.0437       3.1530       2.7780
   2309.5957      10.8380       0.0445      58.5829      24.8626    -999.2500    -999.2500     804.5482     364.6673       0.4175       0.0536       3.1220       2.7525
   2309.7480      10.8420       0.0410      58.0030      24.4660    -999.2500    -999.2500     796.7870     370.4650       0.4060       0.0634       3.0910       2.7270
   2309.9006      10.8300       0.0390      62.7792      24.7440    -999.2500    -999.2500     744.0643     356.5626       0.4005       0.0706       3.0950       2.7060
   2310.0530      10.8180       0.0370      67.5540      25.0220    -999.2500    -999.2500     691.3560     342.6640       0.3950       0.0777       3.0990       2.6850
   2310.2053      10.8105       0.0405      62.7876      25.8809    -999.2500    -999.2500     682.0608     337.0846       0.4145       0.0791       3.1195       2.6745
   2310.3577      10.8030       0.0440      58.0220      26.7410    -999.2500    -999.2500     672.7520     331.4970       0.4340       0.0806       3.1400       2.6640
   2310.5103      10.8475       0.0415      59.4290      25.5335    -999.2500    -999.2500     706.8011     348.8216       0.4145       0.0766       3.1780       2.6720
   2310.6626      10.8920       0.0390      60.8360      24.3280    -999.2500    -999.2500     740.7950     366.1180       0.3950       0.0725       3.2160       2.6800
   2310.8149      10.9070       0.0425      58.3186      24.6548    -999.2500    -999.2500     747.3358     379.9008       0.3775       0.0756       3.1924       2.6910
   2310.9673      10.9220       0.0460      55.8010      24.9800    -999.2500    -999.2500     753.8460     393.6190       0.3600       0.0785       3.1690       2.7020
   2311.1196      10.9020       0.0405      60.7309      25.8358    -999.2500    -999.2500     707.4656     377.8706       0.4186       0.0839       3.1500       2.6830
   2311.2722      10.8820       0.0350      65.6620      26.6890    -999.2500    -999.2500     661.2230     362.1690       0.4770       0.0892       3.1310       2.6640
   2311.4246      10.9180       0.0355      63.0050      27.9138    -999.2500    -999.2500     566.1588     317.4622       0.4440       0.0812       3.1365       2.6605
   2311.5769      10.9540       0.0360      60.3470      29.1370    -999.2500    -999.2500     471.2130     272.8110       0.4110       0.0733       3.1420       2.6570
   2311.7292      10.8926       0.0400      59.1473      31.2338    -999.2500    -999.2500     403.7253     231.7378       0.4265       0.0644       3.1670       2.6815
   2311.8818      10.8310       0.0440      57.9490      33.3350    -999.2500    -999.2500     336.0970     190.5790       0.4420       0.0556       3.1920       2.7060
   2312.0342      10.8170       0.0460      57.6368      33.7342    -999.2500    -999.2500     373.9534     214.0052       0.4465       0.0545       3.2070       2.7170
   2312.1865      10.8030       0.0480      57.3250      34.1330    -999.2500    -999.2500     411.7720     237.4080       0.4510       0.0535       3.2220       2.7280
   2312.3389      10.8266       0.0410      55.5412      31.0011    -999.2500    -999.2500     524.3765     294.5221       0.4866       0.0549       3.2411       2.7170
   2312.4915      10.8500       0.0340      53.7590      27.8870    -999.2500    -999.2500     636.3440     351.3130       0.5220       0.0563       3.2600       2.7060
   2312.6438      10.8144       0.0335      56.7971      26.2673    -999.2500    -999.2500     672.1349     331.1157       0.4474       0.0567       3.2299       2.7160
   2312.7961      10.7790       0.0330      59.8330      24.6540    -999.2500    -999.2500     707.7850     310.9980       0.3730       0.0570       3.2000       2.7260
   2312.9485      10.7950       0.0395      57.5753      24.6955    -999.2500    -999.2500     610.5399     281.2353       0.4395       0.0602       3.2530       2.7285
   2313.1008      10.8110       0.0460      55.3190      24.7370    -999.2500    -999.2500     513.3550     251.4910       0.5060       0.0634       3.3060       2.7310
   2313.2534      10.8265       0.0425      55.3615      25.0581    -999.2500    -999.2500     502.9716     252.2170       0.4426       0.0665       3.2800       2.7180
   2313.4058      10.8420       0.0390      55.4040      25.3800    -999.2500    -999.2500     492.5600     252.9450       0.3790       0.0697       3.2540       2.7050
   2313.5581      10.8065       0.0445      54.9064      25.4791    -999.2500    -999.2500     555.7789     283.2469       0.3650       0.0636       3.2905       2.7135
   2313.7104      10.7710       0.0500      54.4090      25.5780    -999.2500    -999.2500     618.8730     313.4890       0.3510       0.0575       3.3270       2.7220
   2313.8630      10.7670       0.0460      53.8349      26.0982    -999.2500    -999.2500     677.7641     339.1269       0.3846       0.0571       3.2884       2.7245
   2314.0154      10.7630       0.0420      53.2610      26.6150    -999.2500    -999.2500     736.2650     364.5950       0.4180       0.0566       3.2500       2.7270
   2314.1677      10.7910       0.0435      53.4250      27.2706    -999.2500    -999.2500     662.9702     334.3394       0.3995       0.0530       3.2735       2.7310
   2314.3201      10.8190       0.0450      53.5890      27.9240    -999.2500    -999.2500     589.9180     304.1840       0.3810       0.0494       3.2970       2.7350
   2314.4724      10.7870       0.0440      53.2360      27.0000    -999.2500    -999.2500     474.4530     246.8717       0.3585       0.0443       3.3485       2.7365
   2314.6250      10.7550       0.0430      52.8830      26.0760    -999.2500    -999.2500     358.9870     189.5590       0.3360       0.0391       3.4000       2.7380
   2314.7773      10.7430       0.0480      53.4575      25.2132    -999.2500    -999.2500     330.4008     172.9539       0.3375       0.0344       3.4535       2.7545
   2314.9297      10.7310       0.0530      54.0320      24.3490    -999.2500    -999.2500     301.7650     156.3200       0.3390       0.0296       3.5070       2.7710
   2315.0820      10.7390       0.0525      52.0178      25.9794    -999.2500    -999.2500     366.2906     197.4456       0.3630       0.0278       3.5135       2.7920
   2315.2346      10.7470       0.0520      50.0030      27.6050    -999.2500    -999.2500     430.6260     238.4500       0.3870       0.0259       3.5200       2.8130
