#------------------------------------------------------------------------------
#
#   Created by  : [OpenWorks] Log Export Utility (LEXP)
#   Created on  : 2016-05-23 11:57:24
#   Project     : CANT971
#   User        : R5K
#   Interpreter : PEP
#
#------------------------------------------------------------------------------
~VERSION INFORMATION
VERS. 2.0 : CWLS Log ASCII Standard - version 2.0
WRAP.  NO : One line per depth step
~WELL INFORMATION
#MNEMONIC   .UNIT                                           VALUE :DESCRIPTION
#------------------------------------------------------------------------------
STRT        .M                                           648.1292 :START DEPTH
STOP        .M                                          2685.5647 :STOP DEPTH
STEP        .M                                             0.1524 :STEP
NULL        .                                           -999.2500 :NULL VALUE
COMP        .                                   PEMEX EXPL & PROD :COMPANY
WELL        .                                                 81D :WELL
FLD         .                                           CANTARELL :FIELD
LOC         .                                             UNKNOWN :LOCATION
CNTY        .                                      CD. DEL CARMEN :COUNTY
STAT        .                                            CAMPECHE :STATE
CTRY        .                                              MEXICO :COUNTRY
SRVC        .                                             UNKNOWN :SERVICE COMPANY
DATE        .                                             UNKNOWN :LOG DATE
UWI         .                                          3060000666 :UNIQUE WELL ID
XCOORD      .                                       601717.100000 :SURFACE X
YCOORD      .                                      2142375.260000 :SURFACE Y
LAT         .                                           19.374067 :LATITUDE
LON         .                                          -92.031430 :LONGITUDE
ELEV        .M                                            30.0000 :SURFACE ELEV
ELEV_TYPEF  .b/elec                                            KB :ELEV TYPE
~CURVE INFORMATION
#MNEMONIC.UNIT        API CODE       : CURVE DESCRIPTION
#------------------------------------------------------------------------------
DEPTH    .M                          : Measured Depth
CALI     .in          UNKNOWN        : CALI:UNKNOWN:rC:NONE:v0 (auto-composite)
CGR      .API         UNKNOWN        : CGR:UNKNOWN:rC:NONE:v0 (auto-composite)
DRHO     .g/cm3       UNKNOWN        : DRHO:UNKNOWN:rC:NONE:v0 (auto-composite)
DT       .us/ft       UNKNOWN        : DT:DT:rC:NONE:v0 (auto-composite)
GR       .API         UNKNOWN        : GR:UNKNOWN:rC:NONE:v0 (auto-composite)
ILD      .ohmm        UNKNOWN        : ILD:UNKNOWN:rC:NONE:v0 (auto-composite)
ILM      .ohmm        UNKNOWN        : ILM:UNKNOWN:rC:NONE:v0 (auto-composite)
LLD      .ohmm        UNKNOWN        : LLD:UNKNOWN:rC:NONE:v0 (auto-composite)
LLS      .ohmm        UNKNOWN        : LLS:UNKNOWN:rC:NONE:v0 (auto-composite)
NPHI     .v/v_decimal UNKNOWN        : NPHI:NPHI:rC:NONE:v0 (auto-composite)
PEF      .b/elec      UNKNOWN        : PEF:UNKNOWN:rC:NONE:v0 (auto-composite)
POTA     .%           UNKNOWN        : POTA:UNKNOWN:rC:NONE:v0 (auto-composite)
RHOB     .g/cm3       UNKNOWN        : RHOB:UNKNOWN:rC:NONE:v0 (auto-composite)
THOR     .ppm         UNKNOWN        : THOR:UNKNOWN:rC:NONE:v0 (auto-composite)
URAN     .ppm         UNKNOWN        : URAN:UNKNOWN:rC:NONE:v0 (auto-composite)
~A     DEPTH         CALI          CGR         DRHO           DT           GR          ILD          ILM          LLD          LLS         NPHI          PEF         POTA         RHOB         THOR         URAN
# ...
   1474.2896    -484.5278    -999.2500    -492.1956     112.8955      43.9089       0.7870       0.8895    -999.2500    -999.2500  -49206.4727    -488.3188    -999.2500    -490.9511    -999.2500    -999.2500
   1474.4420    -187.5510    -999.2500    -199.6428     114.0286      41.8721       0.7965       0.8975    -999.2500    -999.2500  -19943.6250    -193.5287    -999.2500    -197.6806    -999.2500    -999.2500
   1474.5944      15.1280    -999.2500       0.0170     115.0994      41.6935       0.8016       0.9014    -999.2500    -999.2500   -2134.8643       7.6580    -999.2500       2.4690    -999.2500    -999.2500
   1474.7468      15.1280    -999.2500       0.0170     116.0848      45.5091       0.7971       0.8964    -999.2500    -999.2500      27.5170       7.6580    -999.2500       2.4690    -999.2500    -999.2500
   1474.8992      15.1280    -999.2500       0.0170     116.4002      47.6690       0.7913       0.8912    -999.2500    -999.2500      27.5172       7.6580    -999.2500       2.4690    -999.2500    -999.2500
   1475.0516      15.1280    -999.2500       0.0170     115.3361      46.3596       0.7828       0.8857    -999.2500    -999.2500      27.5177       7.6580    -999.2500       2.4690    -999.2500    -999.2500
   1475.2040      15.1280    -999.2500       0.0170     115.1077      44.5463       0.7764       0.8830    -999.2500    -999.2500      27.5178       7.6580    -999.2500       2.4690    -999.2500    -999.2500
   1475.3564      15.1280    -999.2500       0.0170     116.0113      41.6694       0.7743       0.8860    -999.2500    -999.2500      27.5174       7.6580    -999.2500       2.4690    -999.2500    -999.2500
   1475.5088      15.1280    -999.2500       0.0170     117.1490      40.1678       0.7745       0.8885    -999.2500    -999.2500      27.5170       7.6580    -999.2500       2.4690    -999.2500    -999.2500
   1475.6613      15.1280    -999.2500       0.0170     118.4519      41.4977       0.7790       0.8900    -999.2500    -999.2500      27.5170       7.6580    -999.2500       2.4690    -999.2500    -999.2500
   1475.8136      15.1280    -999.2500       0.0170     119.9851      42.5000       0.7846       0.8930    -999.2500    -999.2500      27.5176       7.6580    -999.2500       2.4690    -999.2500    -999.2500
   1475.9661      15.1280    -999.2500       0.0170     121.8813      42.8229       0.7926       0.8990    -999.2500    -999.2500      27.5190       7.6580    -999.2500       2.4690    -999.2500    -999.2500
   1476.1184      15.1280    -999.2500       0.0170     122.9661      42.4838       0.7987       0.9038    -999.2500    -999.2500      27.5194       7.6580    -999.2500       2.4690    -999.2500    -999.2500
   1476.2708      15.1280    -999.2500       0.0170     122.5749      40.8057       0.8007       0.9063    -999.2500    -999.2500      27.5180       7.6580    -999.2500       2.4690    -999.2500    -999.2500
   1476.4232      15.1280    -999.2500       0.0170     121.9078      40.5598       0.8013       0.9063    -999.2500    -999.2500      27.5167       7.6580    -999.2500       2.4690    -999.2500    -999.2500
   1476.5756      15.1280    -999.2500       0.0170     120.7952      43.1396       0.7993       0.9013    -999.2500    -999.2500      27.5157       7.6580    -999.2500       2.4690    -999.2500    -999.2500
   1476.7280      15.1280    -999.2500       0.0170     119.0986      45.0780       0.7948       0.8936    -999.2500    -999.2500      27.5152       7.6580    -999.2500       2.4690    -999.2500    -999.2500
   1476.8804      15.1280    -999.2500       0.0170     116.6037      45.7414       0.7853       0.8806    -999.2500    -999.2500      27.5157       7.6580    -999.2500       2.4690    -999.2500    -999.2500
   1477.0328      15.1280    -999.2500       0.0170     114.5405      45.1540       0.7785       0.8712    -999.2500    -999.2500      27.5155       7.6580    -999.2500       2.4690    -999.2500    -999.2500
   1477.1852      15.1280    -999.2500       0.0170     113.5278      42.1415       0.7770       0.8687    -999.2500    -999.2500      27.5140       7.6580    -999.2500       2.4690    -999.2500    -999.2500
   1477.3376      15.1280    -999.2500       0.0170     114.5186      40.6052       0.7806       0.8726    -999.2500    -999.2500      27.5138       7.6580    -999.2500       2.4690    -999.2500    -999.2500
   1477.4900      15.1280    -999.2500       0.0170     118.0554      41.9524       0.7941       0.8891    -999.2500    -999.2500      27.5150       7.6580    -999.2500       2.4690    -999.2500    -999.2500
   1477.6425      15.1280    -999.2500       0.0170     121.0998      43.4017       0.8063       0.9057    -999.2500    -999.2500      27.5162       7.6580    -999.2500       2.4690    -999.2500    -999.2500
   1477.7948      15.1280    -999.2500       0.0170     122.5462      45.0456       0.8158       0.9222    -999.2500    -999.2500      27.5166       7.6580    -999.2500       2.4690    -999.2500    -999.2500
   1477.9473      15.1280    -999.2500       0.0170     122.2520      45.5758       0.8225       0.9344    -999.2500    -999.2500      27.5166       7.6580    -999.2500       2.4690    -999.2500    -999.2500
   1478.0996      15.1280    -999.2500       0.0170     119.5935      44.0275       0.8240       0.9384    -999.2500    -999.2500      27.5157       7.6580    -999.2500       2.4690    -999.2500    -999.2500
   1478.2520      15.1280    -999.2500       0.0170     117.0379      42.7450       0.8245       0.9396    -999.2500    -999.2500      27.5147       7.6580    -999.2500       2.4690    -999.2500    -999.2500
   1478.4044      15.1280    -999.2500       0.0170     115.0011      41.9607       0.8230       0.9356    -999.2500    -999.2500      27.5136       7.6580    -999.2500       2.4690    -999.2500    -999.2500
   1478.5568      15.1280    -999.2500       0.0170     113.9459      40.8701       0.8220       0.9318    -999.2500    -999.2500      27.5132       7.6580    -999.2500       2.4690    -999.2500    -999.2500
   1478.7092      15.1280    -999.2500       0.0170     114.5329      39.2179       0.8220       0.9283    -999.2500    -999.2500      27.5137       7.6580    -999.2500       2.4690    -999.2500    -999.2500
   1478.8616      15.1280    -999.2500       0.0170     114.6005      38.0563       0.8227       0.9267    -999.2500    -999.2500      27.5138       7.6580    -999.2500       2.4690    -999.2500    -999.2500
   1479.0140      15.1280    -999.2500       0.0170     113.8780      37.7987       0.8247       0.9287    -999.2500    -999.2500      27.5134       7.6580    -999.2500       2.4690    -999.2500    -999.2500
   1479.1664      15.1280    -999.2500       0.0170     113.1336      38.7298       0.8278       0.9343    -999.2500    -999.2500      27.5141       7.6580    -999.2500       2.4690    -999.2500    -999.2500
   1479.3188      15.1280    -999.2500       0.0170     112.4568      41.8054       0.8328       0.9463    -999.2500    -999.2500      27.5171       7.6580    -999.2500       2.4690    -999.2500    -999.2500
   1479.4712      15.1280    -999.2500       0.0170     113.5187      43.6662       0.8376       0.9582    -999.2500    -999.2500      27.5180       7.6580    -999.2500       2.4690    -999.2500    -999.2500
   1479.6237      15.1280    -999.2500       0.0170     116.7183      43.3878       0.8421       0.9697    -999.2500    -999.2500      27.5163       7.6580    -999.2500       2.4690    -999.2500    -999.2500
   1479.7760      15.1280    -999.2500       0.0170     119.3694      42.8853       0.8468       0.9766    -999.2500    -999.2500      27.5157       7.6580    -999.2500       2.4690    -999.2500    -999.2500
   1479.9285      15.1280    -999.2500       0.0170     120.7431      41.9867       0.8518       0.9756    -999.2500    -999.2500      27.5177       7.6580    -999.2500       2.4690    -999.2500    -999.2500
   1480.0808      15.1280    -999.2500       0.0170     120.8691      41.8451       0.8566       0.9766    -999.2500    -999.2500      27.5191       7.6580    -999.2500       2.4690    -999.2500    -999.2500
