#------------------------------------------------------------------------------
#
#   Created by  : [OpenWorks] Log Export Utility (LEXP)
#   Created on  : 2016-05-23 11:50:56
#   Project     : CANT971
#   User        : R5K
#   Interpreter : PEP
#
#------------------------------------------------------------------------------
~VERSION INFORMATION
VERS. 2.0 : CWLS Log ASCII Standard - version 2.0
WRAP.  NO : One line per depth step
~WELL INFORMATION
#MNEMONIC   .UNIT                                           VALUE :DESCRIPTION
#------------------------------------------------------------------------------
STRT        .M                                           679.7040 :START DEPTH
STOP        .M                                          2836.1641 :STOP DEPTH
STEP        .M                                             0.1524 :STEP
NULL        .                                           -999.2500 :NULL VALUE
COMP        .                                   PEMEX EXPL & PROD :COMPANY
WELL        .                                                1044 :WELL
FLD         .                                           CANTARELL :FIELD
LOC         .                                             UNKNOWN :LOCATION
CNTY        .                                      CD. DEL CARMEN :COUNTY
STAT        .                                            CAMPECHE :STATE
CTRY        .                                              MEXICO :COUNTRY
SRVC        .                                             UNKNOWN :SERVICE COMPANY
DATE        .                                             UNKNOWN :LOG DATE
UWI         .                                          3060000497 :UNIQUE WELL ID
XCOORD      .                                       596164.320000 :SURFACE X
YCOORD      .                                      2150609.730000 :SURFACE Y
LAT         .                                           19.448753 :LATITUDE
LON         .                                          -92.083884 :LONGITUDE
ELEV        .M                                            30.0000 :SURFACE ELEV
ELEV_TYPE   .                                                  KB :ELEV TYPE
~CURVE INFORMATION
#MNEMONIC.UNIT        API CODE       : CURVE DESCRIPTION
#------------------------------------------------------------------------------
DEPTH    .M                          : Measured Depth
CALI     .inches      UNKNOWN        : CALI:litodensidad:rC:NONE:v0 (auto-composite)
DRHO     .g/cm3       UNKNOWN        : DRHO:litodensidad:rC:NONE:v0 (auto-composite)
DT       .us/ft       UNKNOWN        : DT:DT:rC:NONE:v0 (auto-composite)
GR       .API         UNKNOWN        : GR:UNKNOWN:rC:NONE:v0 (auto-composite)
ILD      .ohm.m       UNKNOWN        : ILD:UNKNOWN:rC:NONE:v0 (auto-composite)
ILM      .ohm.m       UNKNOWN        : ILM:UNKNOWN:rC:NONE:v0 (auto-composite)
LLD      .ohm.m       UNKNOWN        : LLD:UNKNOWN:rC:NONE:v0 (auto-composite)
LLS      .ohm.m       UNKNOWN        : LLS:UNKNOWN:rC:NONE:v0 (auto-composite)
MSFL     .ohm.m       UNKNOWN        : MSFL:UNKNOWN:rC:NONE:v0 (auto-composite)
NPHI     .v/v_decimal UNKNOWN        : NPHI:NPHI:rC:NONE:v0 (auto-composite)
PEF      .b/elec      UNKNOWN        : PEF:UNKNOWN:rC:NONE:v0 (auto-composite)
RHOB     .g/cm3       UNKNOWN        : RHOB:UNKNOWN:rC:NONE:v0 (auto-composite)
~A     DEPTH         CALI         DRHO           DT           GR          ILD          ILM          LLD          LLS         MSFL         NPHI          PEF         RHOB
# ...
   2603.6016       8.5040       0.0350      58.6550      35.2310    -999.2500    -999.2500      72.4828      67.5426     110.1308       0.1350       3.6150       2.6250
   2603.7539       8.4591       0.0315      58.4118      35.8638    -999.2500    -999.2500      71.4204      66.5882     114.7788       0.1267       3.4357       2.6290
   2603.9065       8.4140       0.0280      58.1680      36.4950    -999.2500    -999.2500      70.3557      65.6317     119.4372       0.1183       3.2560       2.6330
   2604.0588       8.4295       0.0220      55.8038      41.4996    -999.2500    -999.2500      65.9192      61.6022     117.9479       0.1052       3.2615       2.6730
   2604.2112       8.4450       0.0160      53.4340      46.4920    -999.2500    -999.2500      61.4722      57.5631     116.4550       0.0920       3.2670       2.7130
   2604.3635       8.5529       0.0165      53.6148      57.1813    -999.2500    -999.2500      54.5079      51.2154     110.1611       0.0941       3.2535       2.7115
   2604.5159       8.6610       0.0170      53.7960      67.8460    -999.2500    -999.2500      47.5262      44.8518     103.8516       0.0961       3.2400       2.7100
   2604.6685       8.6495       0.0190      54.6818      72.9361    -999.2500    -999.2500      39.8499      37.8102      90.6392       0.1099       3.1621       2.7000
   2604.8208       8.6380       0.0210      55.5700      78.0150    -999.2500    -999.2500      32.1534      30.7502      77.3921       0.1236       3.0840       2.6900
   2604.9731       8.6520       0.0285      56.3819     100.1758    -999.2500    -999.2500      27.2784      26.1905      66.6965       0.1221       2.9727       2.6655
   2605.1255       8.6660       0.0360      57.1960     122.2910    -999.2500    -999.2500      22.3900      21.6181      55.9714       0.1205       2.8610       2.6410
   2605.2781       8.7415       0.0540      59.2297     121.1209    -999.2500    -999.2500      20.5692      19.8792      47.2047       0.1321       2.8041       2.4972
   2605.4304       8.8170       0.0720      61.2660     119.9530    -999.2500    -999.2500      18.7431      18.1352      38.4129       0.1437       2.7470       2.3530
   2605.5828       9.0403       0.1195      73.8597     111.1545    -999.2500    -999.2500      20.7166      19.8438      35.2568       0.2297       2.7670       2.3535
   2605.7351       9.2640       0.1670      86.4710     102.3720    -999.2500    -999.2500      22.6961      21.5575      32.0912       0.3159       2.7870       2.3540
   2605.8877       9.2130       0.1650      84.8288      84.1802    -999.2500    -999.2500      28.6535      26.8785      37.8976       0.3022       2.9509       2.3750
   2606.0400       9.1620       0.1630      83.1840      66.0190    -999.2500    -999.2500      34.6200      32.2075      43.7128       0.2885       3.1150       2.3960
   2606.1924       8.9667       0.1480      68.8843      58.2665    -999.2500    -999.2500      43.1220      39.5622      56.1021       0.2308       3.0885       2.5379
   2606.3447       8.7710       0.1330      54.5610      50.5260    -999.2500    -999.2500      51.6380      46.9290      68.5118       0.1730       3.0620       2.6800
   2606.4971       8.7580       0.1000      54.6609      43.4880    -999.2500    -999.2500      61.5104      54.8310      83.7317       0.1503       3.0685       2.6670
   2606.6497       8.7450       0.0670      54.7610      36.4600    -999.2500    -999.2500      71.4003      62.7470      98.9786       0.1276       3.0750       2.6540
   2606.8020       8.7020       0.0535      55.5692      36.5827    -999.2500    -999.2500      77.4485      67.3559     110.2642       0.1228       3.1195       2.6545
   2606.9543       8.6590       0.0400      56.3790      36.7050    -999.2500    -999.2500      83.5082      71.9735     121.5713       0.1179       3.1640       2.6550
   2607.1067       8.6155       0.0330      58.7686      37.4991    -999.2500    -999.2500      86.3491      73.8891     125.7982       0.1005       3.3518       2.6625
   2607.2593       8.5720       0.0260      61.1630      38.2910    -999.2500    -999.2500      89.1958      75.8085     130.0337       0.0830       3.5400       2.6700
   2607.4116       8.5695       0.0135      64.7247      39.8345    -999.2500    -999.2500      89.1000      75.7589     122.0268       0.0843       3.5010       2.6875
   2607.5640       8.5670       0.0010      68.2940      41.3740    -999.2500    -999.2500      89.0039      75.7091     114.0028       0.0856       3.4620       2.7050
   2607.7163       8.5545       0.0010      61.7749      40.7502    -999.2500    -999.2500      90.1998      77.0567     112.1605       0.0920       3.4880       2.7110
   2607.8689       8.5420       0.0010      55.2410      40.1280    -999.2500    -999.2500      91.3985      78.4073     110.3140       0.0984       3.5140       2.7170
   2608.0212       8.5115       0.0005      55.9986      36.0626    -999.2500    -999.2500     100.7480      86.5691     125.7906       0.1055       3.5000       2.7150
   2608.1736       8.4810       0.0000      56.7580      32.0070    -999.2500    -999.2500     110.1199      94.7505     141.3045       0.1126       3.4860       2.7130
   2608.3259       8.5329      -0.0005      60.7210      33.5943    -999.2500    -999.2500     127.0225     109.4229     163.2211       0.1125       3.3242       2.7015
   2608.4783       8.5850      -0.0010      64.6940      35.1780    -999.2500    -999.2500     143.9679     124.1325     185.1932       0.1123       3.1620       2.6900
   2608.6309       8.5730      -0.0030      63.9245      34.7931    -999.2500    -999.2500     158.7699     137.4816     215.1230       0.1086       3.4067       2.6720
   2608.7832       8.5610      -0.0050      63.1530      34.4090    -999.2500    -999.2500     173.6112     150.8660     245.1323       0.1048       3.6520       2.6540
   2608.9355       8.4916      -0.0040      60.1182      34.5291    -999.2500    -999.2500     180.7863     158.7154     249.6145       0.0879       3.6320       2.6610
   2609.0879       8.4220      -0.0030      57.0750      34.6490    -999.2500    -999.2500     187.9813     166.5865     254.1092       0.0710       3.6120       2.6680
   2609.2405       8.4220       0.0015      55.7783      35.4713    -999.2500    -999.2500     180.9725     163.0751     241.2445       0.0714       3.5181       2.7054
   2609.3928       8.4220       0.0060      54.4800      36.2920    -999.2500    -999.2500     173.9433     159.5535     228.3424       0.0717       3.4240       2.7430
   2609.5452       8.4220       0.0060      53.5681      38.5285    -999.2500    -999.2500     159.0652     149.5954     214.3348       0.0744       3.2927       2.7420
   2609.6975       8.4220       0.0060      52.6550      40.7610    -999.2500    -999.2500     144.1420     139.6071     200.2846       0.0771       3.1610       2.7410
   2609.8501       8.4220       0.0065      52.8094      40.6834    -999.2500    -999.2500     128.7159     128.5105     184.5430       0.0818       3.1805       2.7300
   2610.0024       8.4220       0.0070      52.9640      40.6060    -999.2500    -999.2500     113.2659     117.3966     168.7769       0.0865       3.2000       2.7190
   2610.1548       8.4230       0.0090      54.1915      40.2627    -999.2500    -999.2500     100.4094     107.2473     170.6258       0.0882       3.4028       2.7220
   2610.3071       8.4240       0.0110      55.4210      39.9200    -999.2500    -999.2500      87.5314      97.0811     172.4778       0.0899       3.6060       2.7250
   2610.4595       8.4385       0.0105      55.3011      39.5202    -999.2500    -999.2500      78.4267      89.0511     170.0353       0.0928       3.5910       2.7225
   2610.6121       8.4530       0.0100      55.1810      39.1210    -999.2500    -999.2500      69.3055      81.0066     167.5883       0.0957       3.5760       2.7200
   2610.7644       8.5444       0.0075      55.2290      41.5089    -999.2500    -999.2500      64.4791      76.4614     156.6439       0.1158       3.4906       2.7085
