#------------------------------------------------------------------------------
#
#   Created by  : [OpenWorks] Log Export Utility (LEXP)
#   Created on  : 2016-05-23 11:57:01
#   Project     : CANT971
#   User        : R5K
#   Interpreter : PEP
#
#------------------------------------------------------------------------------
~VERSION INFORMATION
VERS. 2.0 : CWLS Log ASCII Standard - version 2.0
WRAP.  NO : One line per depth step
~WELL INFORMATION
#MNEMONIC   .UNIT                                           VALUE :DESCRIPTION
#------------------------------------------------------------------------------
STRT        .M                                           485.8514 :START DEPTH
STOP        .M                                          3526.5361 :STOP DEPTH
STEP        .M                                             0.1524 :STEP
NULL        .                                           -999.2500 :NULL VALUE
COMP        .                                   PEMEX EXPL & PROD :COMPANY
WELL        .                                                  62 :WELL
FLD         .                                           CANTARELL :FIELD
LOC         .                                             UNKNOWN :LOCATION
CNTY        .                                      CD. DEL CARMEN :COUNTY
STAT        .                                            CAMPECHE :STATE
CTRY        .                                              MEXICO :COUNTRY
SRVC        .                                             UNKNOWN :SERVICE COMPANY
DATE        .                                             UNKNOWN :LOG DATE
UWI         .                                          3060000468 :UNIQUE WELL ID
XCOORD      .                                       601711.280000 :SURFACE X
YCOORD      .                                      2142346.320000 :SURFACE Y
LAT         .                                           19.373806 :LATITUDE
LON         .                                          -92.031488 :LONGITUDE
ELEV        .M                                            24.0000 :SURFACE ELEV
ELEV_TYPE   .                                                  KB :ELEV TYPE
~CURVE INFORMATION
#MNEMONIC.UNIT        API CODE       : CURVE DESCRIPTION
#------------------------------------------------------------------------------
DEPTH    .M                          : Measured Depth
CALI     .inches      UNKNOWN        : CALI:editado:rC:NONE:v0 (auto-composite)
DRHO     .g/cm3       UNKNOWN        : DRHO:editado:rC:NONE:v0 (auto-composite)
DT       .us/ft       UNKNOWN        : DT:editado:rC:NONE:v0 (auto-composite)
GR       .API         UNKNOWN        : GR:editado:rC:NONE:v0 (auto-composite)
ILD      .ohm.m       UNKNOWN        : ILD:editado:rC:NONE:v0 (auto-composite)
ILM      .ohm.m       UNKNOWN        : ILM:editado:rC:NONE:v0 (auto-composite)
LLD      .ohm.m       UNKNOWN        : LLD:editado:rC:NONE:v0 (auto-composite)
LLS      .ohm.m       UNKNOWN        : LLS:editado:rC:NONE:v0 (auto-composite)
MSFL     .ohm.m       UNKNOWN        : MSFL:editado:rC:NONE:v0 (auto-composite)
NPHI     .v/v_decimal UNKNOWN        : NPHI:editado:rC:NONE:v0 (auto-composite)
PEF      .b/elec      UNKNOWN        : PEF:editado:rC:NONE:v0 (auto-composite)
RHOB     .g/cm3       UNKNOWN        : RHOB:editado:rC:NONE:v0 (auto-composite)
~A     DEPTH         CALI         DRHO           DT           GR          ILD          ILM          LLD          LLS         MSFL         NPHI          PEF         RHOB
# ...
   3404.6162       7.4940       0.0370      72.9350      99.9790    -999.2500    -999.2500       4.0200       3.8930       1.0640       0.1607       4.8890       2.5830
   3404.7686       7.3507       0.0541      74.1448      87.1048    -999.2500    -999.2500       3.7885       3.6871       1.0580       0.1803       4.8554       2.5645
   3404.9209       7.2080       0.0710      75.3440      74.2810    -999.2500    -999.2500       3.5580       3.4820       1.0520       0.2059       4.8220       2.5460
   3405.0735       6.9724       0.0635      74.1860      78.6959    -999.2500    -999.2500       3.3050       3.2801       1.3488       0.2361       4.6031       2.5090
   3405.2258       6.7380       0.0560      73.0380      83.0940    -999.2500    -999.2500       3.0530       3.0790       1.6440       0.2564       4.3850       2.4720
   3405.3782       6.7490       0.0600      69.6452      81.3348    -999.2500    -999.2500       3.4267       3.3861       2.8015       0.2517       4.4842       2.4405
   3405.5305       6.7600       0.0640      66.2810      79.5820    -999.2500    -999.2500       3.7990       3.6920       3.9530       0.2419       4.5830       2.4090
   3405.6831       6.7535       0.0816      66.4382      73.2443    -999.2500    -999.2500       4.9585       4.6861       5.2473       0.2463       4.5509       2.3475
   3405.8354       6.7470       0.0990      66.5940      66.9290    -999.2500    -999.2500       6.1120       5.6750       6.5350       0.2603       4.5190       2.2860
   3405.9878       6.7385       0.0849      66.4529      62.0031    -999.2500    -999.2500       6.0408       5.6048       6.0784       0.2800       4.2641       2.2900
   3406.1401       6.7300       0.0710      66.3130      57.0940    -999.2500    -999.2500       5.9700       5.5350       5.6240       0.2931       4.0100       2.2940
   3406.2927       6.7325       0.0519      66.9636      62.3829    -999.2500    -999.2500       5.6061       5.1786       4.8100       0.2869       3.6219       2.3215
   3406.4451       6.7350       0.0330      67.6090      67.6460    -999.2500    -999.2500       5.2440       4.8240       4.0000       0.2675       3.2350       2.3490
   3406.5974       6.7390       0.0219      68.8605      76.5472    -999.2500    -999.2500       4.6521       4.3313       4.0912       0.2397       3.0402       2.3955
   3406.7498       6.7430       0.0110      70.1020      85.4060    -999.2500    -999.2500       4.0630       3.8410       4.1820       0.2106       2.8460       2.4420
   3406.9021       6.7540       0.0110      71.4628      82.4146    -999.2500    -999.2500       3.7628       3.6185       3.8071       0.1871       2.7653       2.4830
   3407.0547       6.7650       0.0110      72.8130      79.4370    -999.2500    -999.2500       3.4640       3.3970       3.4340       0.1658       2.6850       2.5240
   3407.2070       6.7876       0.0110      71.8874      83.7011    -999.2500    -999.2500       3.3928       3.3324       2.7941       0.1431       2.7316       2.5520
   3407.3594       6.8100       0.0110      70.9690      87.9460    -999.2500    -999.2500       3.3220       3.2680       2.1570       0.1255       2.7780       2.5800
   3407.5117       6.8476       0.0110      71.5256      96.9773    -999.2500    -999.2500       3.5560       3.4534       2.2021       0.1199       2.7705       2.5910
   3407.6643       6.8850       0.0110      72.0780     105.9690    -999.2500    -999.2500       3.7890       3.6380       2.2470       0.1222       2.7630       2.6020
   3407.8167       6.8549       0.0115      72.8394     104.8311    -999.2500    -999.2500       4.2350       4.0283       2.7576       0.1291       2.6878       2.5860
   3407.9690       6.8250       0.0120      73.5940     103.6980    -999.2500    -999.2500       4.6790       4.4170       3.2660       0.1355       2.6130       2.5700
   3408.1213       6.7463       0.0165      72.5895      98.6791    -999.2500    -999.2500       4.4826       4.2351       2.8667       0.1362       2.6180       2.5225
   3408.2739       6.6680       0.0210      71.5940      93.6810    -999.2500    -999.2500       4.2870       4.0540       2.4690       0.1322       2.6230       2.4750
   3408.4263       6.6855       0.0260      72.1012      88.6274    -999.2500    -999.2500       3.8702       3.6652       2.0998       0.1241       2.8159       2.5015
   3408.5786       6.7030       0.0310      72.6040      83.5940    -999.2500    -999.2500       3.4550       3.2780       1.7320       0.1185       3.0080       2.5280
   3408.7310       6.6474       0.0320      74.5760      87.7736    -999.2500    -999.2500       3.5261       3.3572       1.7826       0.1222       3.3862       2.5275
   3408.8833       6.5920       0.0330      76.5310      91.9370    -999.2500    -999.2500       3.5970       3.4360       1.8330       0.1311       3.7630       2.5270
   3409.0359       6.5303       0.0335      76.2875      85.9888    -999.2500    -999.2500       3.7359       3.5914       2.3434       0.1413       4.5029       2.5120
   3409.1882       6.4690       0.0340      76.0460      80.0630    -999.2500    -999.2500       3.8740       3.7460       2.8510       0.1455       5.2400       2.4970
   3409.3406       6.4690       0.0380      75.4013      80.3691    -999.2500    -999.2500       3.7407       3.6352       2.6866       0.1356       5.1538       2.4720
   3409.4929       6.4690       0.0420      74.7620      80.6740    -999.2500    -999.2500       3.6080       3.5250       2.5230       0.1241       5.0680       2.4470
   3409.6455       6.4690       0.0490      72.6066      82.1676    -999.2500    -999.2500       3.3579       3.2984       2.6498       0.1236       4.6623       2.4135
   3409.7979       6.4690       0.0560      70.4690      83.6560    -999.2500    -999.2500       3.1090       3.0730       2.7760       0.1293       4.2580       2.3800
   3409.9502       6.4690       0.0500      70.9394      81.3786    -999.2500    -999.2500       2.9827       2.9497       2.6778       0.1376       3.7822       2.3880
   3410.1025       6.4690       0.0440      71.4060      79.1090    -999.2500    -999.2500       2.8570       2.8270       2.5800       0.1463       3.3080       2.3960
   3410.2551       6.4690       0.0324      71.2710      76.7673    -999.2500    -999.2500       2.9542       2.9042       2.6868       0.1534       2.9870       2.4120
   3410.4075       6.4690       0.0210      71.1370      74.4370    -999.2500    -999.2500       3.0510       2.9810       2.7930       0.1556       2.6670       2.4280
   3410.5598       6.4690       0.0109      70.9181      75.8784    -999.2500    -999.2500       3.3091       3.2070       2.9474       0.1489       2.6795       2.4430
   3410.7122       6.4690       0.0010      70.7010      77.3130    -999.2500    -999.2500       3.5660       3.4320       3.1010       0.1410       2.6920       2.4580
   3410.8645       6.4785       0.0030      69.9777      75.6406    -999.2500    -999.2500       4.4450       4.2584       3.5576       0.1391       2.7201       2.4720
   3411.0171       6.4880       0.0050      69.2600      73.9760    -999.2500    -999.2500       5.3200       5.0810       4.0120       0.1390       2.7480       2.4860
   3411.1694       6.5085       0.0206      66.1024      71.7410    -999.2500    -999.2500       7.0654       6.9497       7.0323       0.1370       2.8131       2.5060
   3411.3218       6.5290       0.0360      62.9690      69.5160    -999.2500    -999.2500       8.8030       8.8100      10.0390       0.1339       2.8780       2.5260
   3411.4741       6.5270       0.0335      63.4418      85.5901    -999.2500    -999.2500       7.8138       7.8123       8.4976       0.1306       2.9326       2.5260
   3411.6267       6.5250       0.0310      63.9110     101.5940    -999.2500    -999.2500       6.8290       6.8190       6.9630       0.1275       2.9870       2.5260
   3411.7791       6.5125       0.0209      66.5032     100.1895    -999.2500    -999.2500       5.5077       5.5152       5.5415       0.1247       2.9935       2.5175
