#------------------------------------------------------------------------------
#
#   Created by  : [OpenWorks] Log Export Utility (LEXP)
#   Created on  : 2016-05-23 11:52:56
#   Project     : CANT971
#   User        : R5K
#   Interpreter : PEP
#
#------------------------------------------------------------------------------
~VERSION INFORMATION
VERS. 2.0 : CWLS Log ASCII Standard - version 2.0
WRAP.  NO : One line per depth step
~WELL INFORMATION
#MNEMONIC   .UNIT                                           VALUE :DESCRIPTION
#------------------------------------------------------------------------------
STRT        .M                                           340.6189 :START DEPTH
STOP        .M                                          3243.0769 :STOP DEPTH
STEP        .M                                             0.1524 :STEP
NULL        .                                           -999.2500 :NULL VALUE
COMP        .                                   PEMEX EXPL & PROD :COMPANY
WELL        .                                                2098 :WELL
FLD         .                                           CANTARELL :FIELD
LOC         .                                             UNKNOWN :LOCATION
CNTY        .                                      CD. DEL CARMEN :COUNTY
STAT        .                                            CAMPECHE :STATE
CTRY        .                                              MEXICO :COUNTRY
SRVC        .                                             UNKNOWN :SERVICE COMPANY
DATE        .                                             UNKNOWN :LOG DATE
UWI         .                                          3060000229 :UNIQUE WELL ID
XCOORD      .                                       599692.800000 :SURFACE X
YCOORD      .                                      2143031.510000 :SURFACE Y
LAT         .                                           19.380099 :LATITUDE
LON         .                                          -92.050671 :LONGITUDE
ELEV        .M                                            26.7400 :SURFACE ELEV
ELEV_TYPE   .                                                  KB :ELEV TYPE
~CURVE INFORMATION
#MNEMONIC.UNIT        API CODE       : CURVE DESCRIPTION
#------------------------------------------------------------------------------
DEPTH    .M                          : Measured Depth
CALI     .inches      UNKNOWN        : CALI:litodensidad:rC:NONE:v0 (auto-composite)
CGR      .API         UNKNOWN        : CGR:Espectrometria:rC:NONE:v0 (auto-composite)
DRHO     .g/cm3       UNKNOWN        : DRHO:litodensidad:rC:NONE:v0 (auto-composite)
DT       .us/ft       UNKNOWN        : DT:DT-Load:rC:NONE:v0 (auto-composite)
GR       .API         UNKNOWN        : GR:GR-load:rC:NONE:v0 (auto-composite)
ILD      .UNKNOWN     UNKNOWN        : ILD:resistivos:rC:NONE:v0 (auto-composite)
LLD      .ohm.m       UNKNOWN        : LLD:resistivos:rC:NONE:v0 (auto-composite)
LLS      .UNKNOWN     UNKNOWN        : LLS:resistivos:rC:NONE:v0 (auto-composite)
MSFL     .UNKNOWN     UNKNOWN        : MSFL:resistivos:rC:NONE:v0 (auto-composite)
NPHI     .v/v_decimal UNKNOWN        : NPHI:porosidad:rC:NONE:v0 (auto-composite)
PEF      .UNKNOWN     UNKNOWN        : PEF:litodensidad:rC:NONE:v0 (auto-composite)
POTA     .UNKNOWN     UNKNOWN        : POTA:Espectrometria:rC:NONE:v0 (auto-composite)
RHOB     .UNKNOWN     UNKNOWN        : RHOB:litodensidad:rC:NONE:v0 (auto-composite)
THOR     .ppm         UNKNOWN        : THOR:Espectrometria:rC:NONE:v0 (auto-composite)
URAN     .ppm         UNKNOWN        : URAN:Espectrometria:rC:NONE:v0 (auto-composite)
~A     DEPTH         CALI          CGR         DRHO           DT           GR          ILD          LLD          LLS         MSFL         NPHI          PEF         POTA         RHOB         THOR         URAN
# ...
   2593.2432      14.7708    -999.2500       0.1361      86.4728      59.9413    -999.2500       0.9330       1.3874       2.7299       0.3036    -999.2500    -999.2500       2.4853    -999.2500    -999.2500
   2593.3958      15.3626    -999.2500       0.1721      84.8237      60.4216    -999.2500       0.9320       1.4895       3.3491       0.2915    -999.2500    -999.2500       2.4943    -999.2500    -999.2500
   2593.5481      15.9500    -999.2500       0.2058      83.1923      60.8663    -999.2500       0.9308       1.5880       3.9455       0.2791    -999.2500    -999.2500       2.5047    -999.2500    -999.2500
   2593.7004      16.4259    -999.2500       0.1648      82.1207      60.1181    -999.2500       0.9263       1.5870       3.8701       0.2587    -999.2500    -999.2500       2.5622    -999.2500    -999.2500
   2593.8528      16.8827    -999.2500       0.1250      81.0815      59.3236    -999.2500       0.9218       1.5858       3.7853       0.2389    -999.2500    -999.2500       2.6178    -999.2500    -999.2500
   2594.0054      16.6469    -999.2500       0.1265      81.0995      57.0216    -999.2500       0.9168       1.5803       3.4181       0.2399    -999.2500    -999.2500       2.6113    -999.2500    -999.2500
   2594.1577      16.3943    -999.2500       0.1280      81.1195      54.7665    -999.2500       0.9113       1.5733       3.0697       0.2407    -999.2500    -999.2500       2.6044    -999.2500    -999.2500
   2594.3101      15.5246    -999.2500       0.1275      81.2031      54.0918    -999.2500       0.8908       1.5248       3.2762       0.2345    -999.2500    -999.2500       2.5834    -999.2500    -999.2500
   2594.4624      14.6642    -999.2500       0.1261      81.2970      53.4385    -999.2500       0.8710       1.4782       3.4722       0.2284    -999.2500    -999.2500       2.5629    -999.2500    -999.2500
   2594.6147      14.1416    -999.2500       0.0976      81.7154      53.4885    -999.2500       0.8715       1.4832       3.3537       0.2286    -999.2500    -999.2500       2.5584    -999.2500    -999.2500
   2594.7673      13.6328    -999.2500       0.0702      82.1620      53.5219    -999.2500       0.8722       1.4890       3.2229       0.2290    -999.2500    -999.2500       2.5538    -999.2500    -999.2500
   2594.9197      13.5882    -999.2500       0.0762      83.5155      52.9967    -999.2500       0.8772       1.5175       2.7286       0.2326    -999.2500    -999.2500       2.5452    -999.2500    -999.2500
   2595.0720      13.5419    -999.2500       0.0835      84.8211      52.4911    -999.2500       0.8804       1.5440       2.2339       0.2366    -999.2500    -999.2500       2.5364    -999.2500    -999.2500
   2595.2244      13.4233    -999.2500       0.1325      84.6317      52.6291    -999.2500       0.8355       1.5155       1.7262       0.2486    -999.2500    -999.2500       2.5159    -999.2500    -999.2500
   2595.3770      13.3084    -999.2500       0.1796      84.4080      52.7760    -999.2500       0.7921       1.4883       1.2378       0.2606    -999.2500    -999.2500       2.4950    -999.2500    -999.2500
   2595.5293      13.3239    -999.2500       0.1671      83.0825      53.2068    -999.2500       0.7941       1.4983       1.3248       0.2723    -999.2500    -999.2500       2.4615    -999.2500    -999.2500
   2595.6816      13.3425    -999.2500       0.1555      81.8065      53.6348    -999.2500       0.7962       1.5092       1.4197       0.2836    -999.2500    -999.2500       2.4290    -999.2500    -999.2500
   2595.8340      13.4761    -999.2500       0.1735      82.0814      53.9679    -999.2500       0.8032       1.5452       1.7583       0.2814    -999.2500    -999.2500       2.4300    -999.2500    -999.2500
   2595.9866      13.6135    -999.2500       0.1906      82.3099      54.3225    -999.2500       0.8105       1.5810       2.0922       0.2785    -999.2500    -999.2500       2.4324    -999.2500    -999.2500
   2596.1389      13.8938    -999.2500       0.1761      81.0419      55.3701    -999.2500       0.8250       1.6115       2.2836       0.2535    -999.2500    -999.2500       2.4820    -999.2500    -999.2500
   2596.2913      14.1646    -999.2500       0.1601      79.8331      56.3865    -999.2500       0.8409       1.6460       2.4672       0.2291    -999.2500    -999.2500       2.5298    -999.2500    -999.2500
   2596.4436      14.1105    -999.2500       0.0956      80.4843      56.3680    -999.2500       0.8964       1.7909       2.4097       0.2298    -999.2500    -999.2500       2.5233    -999.2500    -999.2500
   2596.5959      14.0525    -999.2500       0.0330      81.1098      56.3476    -999.2500       0.9499       1.9308       2.3472       0.2304    -999.2500    -999.2500       2.5159    -999.2500    -999.2500
   2596.7485      13.8487    -999.2500       0.0340      80.9027      56.2661    -999.2500       0.9469       1.9238       2.1358       0.2296    -999.2500    -999.2500       2.4799    -999.2500    -999.2500
   2596.9009      13.6515    -999.2500       0.0358      80.6829      56.1877    -999.2500       0.9435       1.9160       1.9315       0.2287    -999.2500    -999.2500       2.4450    -999.2500    -999.2500
   2597.0532      13.6695    -999.2500       0.0633      80.0617      56.2133    -999.2500       0.9280       1.8875       1.9475       0.2234    -999.2500    -999.2500       2.4455    -999.2500    -999.2500
   2597.2056      13.6899    -999.2500       0.0900      79.4451      56.2410    -999.2500       0.9122       1.8585       1.9673       0.2179    -999.2500    -999.2500       2.4464    -999.2500    -999.2500
   2597.3582      13.8006    -999.2500       0.0900      78.9789      56.3409    -999.2500       0.8882       1.8140       2.0998       0.2050    -999.2500    -999.2500       2.4589    -999.2500    -999.2500
   2597.5105      13.9061    -999.2500       0.0897      78.5290      56.4283    -999.2500       0.8643       1.7686       2.2413       0.1926    -999.2500    -999.2500       2.4721    -999.2500    -999.2500
   2597.6628      13.8376    -999.2500       0.0782      78.5945      56.0947    -999.2500       0.8438       1.6997       2.6472       0.1974    -999.2500    -999.2500       2.5096    -999.2500    -999.2500
   2597.8152      13.7618    -999.2500       0.0673      78.6574      55.7277    -999.2500       0.8236       1.6308       3.0639       0.2021    -999.2500    -999.2500       2.5460    -999.2500    -999.2500
   2597.9678      13.4159    -999.2500       0.0758      78.6379      54.2708    -999.2500       0.8121       1.5648       3.8107       0.2014    -999.2500    -999.2500       2.5445    -999.2500    -999.2500
   2598.1201      13.0807    -999.2500       0.0848      78.5836      52.7951    -999.2500       0.8015       1.5017       4.5315       0.2007    -999.2500    -999.2500       2.5433    -999.2500    -999.2500
   2598.2725      13.1057    -999.2500       0.1133      77.4237      50.6848    -999.2500       0.8176       1.5212       4.4865       0.1959    -999.2500    -999.2500       2.5523    -999.2500    -999.2500
   2598.4248      13.1333    -999.2500       0.1419      76.3025      48.6374    -999.2500       0.8359       1.5454       4.4284       0.1909    -999.2500    -999.2500       2.5619    -999.2500    -999.2500
   2598.5771      13.2585    -999.2500       0.1719      76.3814      48.6499    -999.2500       0.9178       1.6993       3.9692       0.1781    -999.2500    -999.2500       2.5929    -999.2500    -999.2500
   2598.7297      13.3780    -999.2500       0.2010      76.4702      48.6603    -999.2500       0.9957       1.8475       3.5277       0.1657    -999.2500    -999.2500       2.6241    -999.2500    -999.2500
   2598.8821      13.3029    -999.2500       0.2000      76.8718      48.6003    -999.2500       0.9567       1.8325       3.6117       0.1661    -999.2500    -999.2500       2.6621    -999.2500    -999.2500
   2599.0344      13.2303    -999.2500       0.1987      77.2834      48.5196    -999.2500       0.9190       1.8162       3.7066       0.1665    -999.2500    -999.2500       2.6988    -999.2500    -999.2500
