#------------------------------------------------------------------------------
#
#   Created by  : [OpenWorks] Log Export Utility (LEXP)
#   Created on  : 2016-05-23 11:56:16
#   Project     : CANT971
#   User        : R5K
#   Interpreter : PEP
#
#------------------------------------------------------------------------------
~VERSION INFORMATION
VERS. 2.0 : CWLS Log ASCII Standard - version 2.0
WRAP.  NO : One line per depth step
~WELL INFORMATION
#MNEMONIC   .UNIT                                           VALUE :DESCRIPTION
#------------------------------------------------------------------------------
STRT        .M                                           785.0543 :START DEPTH
STOP        .M                                          3464.0940 :STOP DEPTH
STEP        .M                                             0.1524 :STEP
NULL        .                                           -999.2500 :NULL VALUE
COMP        .                                   PEMEX EXPL & PROD :COMPANY
WELL        .                                                448D :WELL
FLD         .                                           CANTARELL :FIELD
LOC         .                                             UNKNOWN :LOCATION
CNTY        .                                      CD. DEL CARMEN :COUNTY
STAT        .                                            CAMPECHE :STATE
CTRY        .                                              MEXICO :COUNTRY
SRVC        .                                             UNKNOWN :SERVICE COMPANY
DATE        .                                             UNKNOWN :LOG DATE
UWI         .                                          3060000822 :UNIQUE WELL ID
XCOORD      .                                       598710.240000 :SURFACE X
YCOORD      .                                      2143307.000000 :SURFACE Y
LAT         .                                           19.382637 :LATITUDE
LON         .                                          -92.060012 :LONGITUDE
ELEV        .M                                            28.0000 :SURFACE ELEV
ELEV_TYPE   .                                                  KB :ELEV TYPE
~CURVE INFORMATION
#MNEMONIC.UNIT        API CODE       : CURVE DESCRIPTION
#------------------------------------------------------------------------------
DEPTH    .M                          : Measured Depth
CALI     .inches      UNKNOWN        : CALI:registros:rC:NONE:v0 (auto-composite)
DRHO     .g/cm3       UNKNOWN        : DRHO:registros:rC:NONE:v0 (auto-composite)
DT       .us/ft       UNKNOWN        : DT:registros:rC:NONE:v0 (auto-composite)
GR       .API         UNKNOWN        : GR:registros:rC:NONE:v0 (auto-composite)
LLD      .ohm.m       UNKNOWN        : LLD:registros:rC:NONE:v0 (auto-composite)
LLS      .ohm.m       UNKNOWN        : LLS:registros:rC:NONE:v0 (auto-composite)
MSFL     .ohm.m       UNKNOWN        : MSFL:registros:rC:NONE:v0 (auto-composite)
NPHI     .v/v_decimal UNKNOWN        : NPHI:registros:rC:NONE:v0 (auto-composite)
PEF      .b/elec      UNKNOWN        : PEF:registros:rC:NONE:v0 (auto-composite)
RHOB     .g/cm3       UNKNOWN        : RHOB:registros:rC:NONE:v0 (auto-composite)
~A     DEPTH         CALI         DRHO           DT           GR          LLD          LLS         MSFL         NPHI          PEF         RHOB
# ...
   3388.0464      14.3246       0.0978      79.8273      72.6452     288.3390     252.8569     355.2279       0.2258       4.2857       2.4844
   3388.1987      14.3336       0.0925      84.7070      71.8402     267.3217     239.2261     302.9820       0.2038       4.5168       2.5202
   3388.3511      14.3116       0.1018      85.1482      80.0015     229.7239     211.6848      93.1991       0.1736       4.2714       2.5588
   3388.5034      14.3066       0.1000      80.9932      92.5405     220.7853     206.2250     340.2682       0.1606       4.1527       2.5131
   3388.6560      14.3310       0.0720      79.0877      91.3014     215.0866     201.4330     707.0301       0.1731       4.0898       2.4385
   3388.8083      14.3702       0.0747      76.7079      87.6363     222.9085     205.5392     446.9060       0.1961       4.0703       2.4105
   3388.9607      14.3135       0.0791      73.1970      87.4415     277.6478     245.9764     546.0478       0.2169       4.0706       2.4153
   3389.1130      14.1967       0.0642      73.4120      89.6884     313.8679     274.3529     433.9802       0.2164       4.2281       2.4110
   3389.2656      14.2727       0.0324      72.5798      92.6294     365.1026     311.7304     222.0486       0.2156       4.5890       2.4158
   3389.4180      14.3903       0.0406      72.0625      91.8674     407.3396     339.6111     799.4969       0.2087       4.7470       2.4824
   3389.5703      14.3188       0.0414      73.1691      90.6614     480.9855     382.6743    1844.2449       0.1978       4.8941       2.5182
   3389.7227      14.3068       0.0375      75.3868      88.9356     608.5085     458.7564    1541.5635       0.1779       4.9226       2.5273
   3389.8750      14.2769       0.0291      77.7594      87.4886     643.5569     479.5372     540.6910       0.1616       4.9426       2.5050
   3390.0276      14.2802       0.0278      76.6196      85.3584     662.9532     486.9804     666.7574       0.1452       4.8707       2.5002
   3390.1799      14.2840       0.0243      75.2076      80.0490     713.7134     509.3499    1853.3768       0.1364       4.5156       2.4995
   3390.3323      14.2862       0.0210      74.7933      78.0525     904.0200     597.2927    1907.2709       0.1317       4.2114       2.5074
   3390.4846      14.2695       0.0244      72.7965      82.8846     994.2591     641.1155    1935.2948       0.1368       4.0837       2.5153
   3390.6372      14.2384       0.0195      71.0079      90.8173     852.6452     578.4406    1871.1653       0.1453       4.1806       2.5136
   3390.7896      14.1971       0.0235      66.9899      94.6481     743.9341     528.8707    1830.1147       0.1635       4.1560       2.5151
   3390.9419      14.2099       0.0318      63.6618      98.1456     728.6625     523.0920    1867.2327       0.1764       4.1097       2.5257
   3391.0942      14.2172       0.0399      65.4689     101.9918     955.9025     620.6232    1878.1665       0.1863       4.1131       2.5387
   3391.2468      14.2107       0.0401      67.4278     103.7905    1353.2314     783.8878    1878.6288       0.1795       4.2189       2.5363
   3391.3992      14.2339       0.0445      66.5599     102.3350    1163.6895     694.7712    1443.0685       0.1664       4.3131       2.5356
   3391.5515      14.2945       0.0403      52.6217      99.4492     719.0024     489.5271     305.4449       0.1477       4.1460       2.5414
   3391.7039      14.3076       0.0336      25.3198     100.0112     524.2060     386.5661     335.1848       0.1307       4.1129       2.5641
   3391.8562      14.2989       0.0411      22.3775      89.3429     460.9828     352.0804     830.5673       0.1211       4.1726       2.6154
   3392.0088      14.3016       0.0424      23.0317      75.7855     506.9550     381.0226    1610.0701       0.1145       4.3648       2.6315
   3392.1611      14.3009       0.0395      22.7674      62.2627     687.1637     482.4435    1870.9379       0.1132       4.5885       2.6173
   3392.3135      14.3025       0.0387      22.1575      63.0027     847.1194     566.6808    1888.0918       0.1154       4.6597       2.5951
   3392.4658      14.3025       0.0473      36.8068      70.2340     655.9819     470.4418    1365.5942       0.1268       4.8354       2.5775
   3392.6184      14.3185       0.0551      64.9079      81.7540     410.1238     323.8415     191.6792       0.1470       4.8619       2.5607
   3392.7708      14.2885       0.0606      71.4761      89.2551     280.3586     233.4785     202.9556       0.1624       4.6161       2.5458
   3392.9231      14.2756       0.0626      74.6157      92.8480     227.7883     194.9514     204.2362       0.1725       4.3968       2.5398
   3393.0754      14.2634       0.0635      74.0299      94.2293     206.5495     178.1648     152.8175       0.1686       4.2242       2.5467
   3393.2280      14.2329       0.0561      71.9280      95.2695     205.5038     177.9191     200.3526       0.1706       4.1549       2.5477
   3393.3804      14.2250       0.0447      70.9497      98.1796     223.1244     192.5283     649.5173       0.1727       4.0168       2.5471
   3393.5327      14.2604       0.0302      72.8638     101.6209     291.8087     245.5672    1669.6500       0.1671       4.0515       2.5448
   3393.6851      14.2692       0.0242      75.4392     103.6117     391.3062     316.5923    1783.6948       0.1565       4.2759       2.5536
   3393.8374      14.3054       0.0188      73.7756     104.8227     441.2252     344.0221    1304.9000       0.1439       4.6051       2.5559
   3393.9900      14.3165       0.0217      70.9394     103.4255     445.5019     340.0054     261.8183       0.1392       4.3953       2.5521
   3394.1423      14.3031       0.0265      69.2470     101.6258     428.8179     329.1266     539.7526       0.1400       4.2367       2.5336
   3394.2947      14.2858       0.0278      68.4298     101.0162     435.3079     337.5586    1321.4851       0.1490       4.1977       2.5272
   3394.4470      14.3009       0.0246      64.1456     101.0506     524.8915     396.2257    1716.8278       0.1643       4.4581       2.5246
   3394.5996      14.3528       0.0274      61.5293     102.6299     579.0591     428.5192    1715.1921       0.1724       4.6069       2.5378
   3394.7520      14.4274       0.0241      62.0631     104.1820     568.8819     419.7118    1231.1426       0.1737       4.5019       2.5381
   3394.9043      14.3004       0.0172      63.4661     100.4301     307.2271     264.9543     116.2287       0.1712       4.4692       2.5436
   3395.0566      14.2792       0.0231      63.4829      91.8576     149.3271     144.8690      86.8597       0.1710       4.6455       2.5830
   3395.2092      14.3163       0.0419      61.5606      76.7148     109.7545     109.4351     316.7455       0.1567       4.9539       2.6296
   3395.3616      14.3143       0.0555      61.5898      67.5891     103.2085     102.2660     866.4449       0.1283       5.1232       2.6437
   3395.5139      14.3144       0.0547      63.9412      69.7732     145.4614     138.3779    1100.7346       0.1013       5.1661       2.6182
   3395.6663      14.3088       0.0522      61.1413      79.1213     237.2384     217.4116     721.3226       0.0800       5.0232       2.5955
   3395.8186      14.3004       0.0554      55.5233      76.3316     321.4513     283.4691     527.4670       0.0625       4.5004       2.5949
   3395.9712      14.2902       0.0478      54.7976      61.0566     427.9134     357.2914     675.4905       0.0446       4.3033       2.6007
   3396.1235      14.2862       0.0465      54.9846      42.7314     543.3363     425.5149    1014.0300       0.0321       4.3718       2.6385
   3396.2759      14.2873       0.0485      61.3029      38.5962     691.6548     500.2260    1753.4727       0.0323       4.7348       2.6716
   3396.4282      14.3046       0.0441      71.6536      42.4534     989.8228     625.7418    1802.3688       0.0376       4.8842       2.6854
