#------------------------------------------------------------------------------
#
#   Created by  : [OpenWorks] Log Export Utility (LEXP)
#   Created on  : 2016-05-23 11:52:51
#   Project     : CANT971
#   User        : R5K
#   Interpreter : PEP
#
#------------------------------------------------------------------------------
~VERSION INFORMATION
VERS. 2.0 : CWLS Log ASCII Standard - version 2.0
WRAP.  NO : One line per depth step
~WELL INFORMATION
#MNEMONIC   .UNIT                                           VALUE :DESCRIPTION
#------------------------------------------------------------------------------
STRT        .M                                           691.4386 :START DEPTH
STOP        .M                                          2836.4685 :STOP DEPTH
STEP        .M                                             0.1524 :STEP
NULL        .                                           -999.2500 :NULL VALUE
COMP        .                                   PEMEX EXPL & PROD :COMPANY
WELL        .                                                2094 :WELL
FLD         .                                           CANTARELL :FIELD
LOC         .                                             UNKNOWN :LOCATION
CNTY        .                                      CD. DEL CARMEN :COUNTY
STAT        .                                            CAMPECHE :STATE
CTRY        .                                              MEXICO :COUNTRY
SRVC        .                                             UNKNOWN :SERVICE COMPANY
DATE        .                                             UNKNOWN :LOG DATE
UWI         .                                          3060000525 :UNIQUE WELL ID
XCOORD      .                                       601711.170000 :SURFACE X
YCOORD      .                                      2142342.970000 :SURFACE Y
LAT         .                                           19.373776 :LATITUDE
LON         .                                          -92.031490 :LONGITUDE
ELEV        .M                                            24.0000 :SURFACE ELEV
ELEV_TYPE   .                                                  KB :ELEV TYPE
~CURVE INFORMATION
#MNEMONIC.UNIT        API CODE       : CURVE DESCRIPTION
#------------------------------------------------------------------------------
DEPTH    .M                          : Measured Depth
CALI     .in          UNKNOWN        : CALI:registros:rC:NONE:v0 (auto-composite)
DRHO     .g/cm3       UNKNOWN        : DRHO:registros:rC:NONE:v0 (auto-composite)
DT       .us/ft       UNKNOWN        : DT:registros:rC:NONE:v0 (auto-composite)
GR       .API         UNKNOWN        : GR:registros:rC:NONE:v0 (auto-composite)
ILD      .ohm.m       UNKNOWN        : ILD:registros:rC:NONE:v0 (auto-composite)
ILM      .ohm.m       UNKNOWN        : ILM:registros:rC:NONE:v0 (auto-composite)
LLD      .ohm.m       UNKNOWN        : LLD:registros:rC:NONE:v0 (auto-composite)
LLS      .ohm.m       UNKNOWN        : LLS:registros:rC:NONE:v0 (auto-composite)
MSFL     .ohm.m       UNKNOWN        : MSFL:registros:rC:NONE:v0 (auto-composite)
NPHI     .v/v_decimal UNKNOWN        : NPHI:registros:rC:NONE:v0 (auto-composite)
PEF      .b/elec      UNKNOWN        : PEF:registros:rC:NONE:v0 (auto-composite)
RHOB     .g/cm3       UNKNOWN        : RHOB:registros:rC:NONE:v0 (auto-composite)
~A     DEPTH         CALI         DRHO           DT           GR          ILD          ILM          LLD          LLS         MSFL         NPHI          PEF         RHOB
# ...
   2256.8914      10.1071       0.0215      79.7606      67.7836    -999.2500    -999.2500       2.9285       2.7625       5.2126       0.1723       3.7616       2.5900
   2257.0437      10.0728       0.0209      80.5339      67.6620    -999.2500    -999.2500       2.9370       2.7680       5.3830       0.1781       3.7245       2.5917
   2257.1963      10.0366       0.0200      81.4111      65.7467    -999.2500    -999.2500       3.1137       2.8448       6.2855       0.1811       3.8477       2.5915
   2257.3486      10.0103       0.0189      82.1969      63.8440    -999.2500    -999.2500       3.2890       2.9210       7.1820       0.1852       3.9774       2.5898
   2257.5010      10.0529       0.0175      82.2885      63.8952    -999.2500    -999.2500       3.2880       3.0028       6.9783       0.1956       3.9900       2.5800
   2257.6533      10.1031       0.0157      82.2046      63.9460    -999.2500    -999.2500       3.2870       3.0840       6.7760       0.2052       3.9916       2.5687
   2257.8059      10.1345       0.0115      81.6369      66.4515    -999.2500    -999.2500       3.2483       3.1176       5.6319       0.2060       4.0374       2.5550
   2257.9583      10.1609       0.0075      81.0773      68.9370    -999.2500    -999.2500       3.2100       3.1510       4.4950       0.2018       4.0833       2.5427
   2258.1106      10.1735       0.0070      81.0240      68.7949    -999.2500    -999.2500       3.2160       3.1575       4.5261       0.1903       4.0855       2.5415
   2258.2629      10.1826       0.0077      81.0937      68.6540    -999.2500    -999.2500       3.2220       3.1640       4.5570       0.1792       4.0725       2.5432
   2258.4153      10.1825       0.0130      81.4612      66.4987    -999.2500    -999.2500       3.3204       3.2443       5.0706       0.1769       4.0042       2.5525
   2258.5679      10.1788       0.0208      81.9763      64.3600    -999.2500    -999.2500       3.4180       3.3240       5.5810       0.1783       3.9094       2.5645
   2258.7202      10.1610       0.0400      83.1640      61.2070    -999.2500    -999.2500       3.6132       3.5077       6.3543       0.1828       3.6994       2.5865
   2258.8726      10.1644       0.0603      84.2713      58.0780    -999.2500    -999.2500       3.8070       3.6900       7.1230       0.1929       3.4650       2.6025
   2259.0249      10.3180       0.0760      84.2450      56.7164    -999.2500    -999.2500       3.8602       3.7226       7.4816       0.2173       3.1894       2.5706
   2259.1775      10.5340       0.0888      83.8434      55.3650    -999.2500    -999.2500       3.9130       3.7550       7.8380       0.2422       2.9287       2.5226
   2259.3298      10.9927       0.0880      82.1930      52.3043    -999.2500    -999.2500       4.1167       3.9437       7.5873       0.2536       2.8097       2.4208
   2259.4822      11.4139       0.0866      80.7587      49.2660    -999.2500    -999.2500       4.3190       4.1310       7.3380       0.2557       2.7664       2.3299
   2259.6345      11.3473       0.0950      81.8792      51.1242    -999.2500    -999.2500       4.2688       4.0899       7.6223       0.2403       3.0580       2.3634
   2259.7871      11.1961       0.1026      83.2927      52.9690    -999.2500    -999.2500       4.2190       4.0490       7.9050       0.2201       3.3887       2.4200
   2259.9395      11.0063       0.0955      84.0362      52.3654    -999.2500    -999.2500       3.9611       3.9050       8.5719       0.2017       3.6287       2.4959
   2260.0918      10.8187       0.0873      84.6333      51.7660    -999.2500    -999.2500       3.7050       3.7620       9.2340       0.1877       3.8248       2.5603
   2260.2441      10.6828       0.0870      85.0265      51.8834    -999.2500    -999.2500       3.9420       3.8735       8.6996       0.1863       3.8435       2.5346
   2260.3965      10.5893       0.0964      85.3849      52.0000    -999.2500    -999.2500       4.1770       3.9840       8.1690       0.1884       3.8183       2.5047
   2260.5491      10.7037       0.1575      85.7432      51.8901    -999.2500    -999.2500       4.2664       4.0523       7.8288       0.1897       3.7033       2.5399
   2260.7014      10.8371       0.2182      86.0904      51.7810    -999.2500    -999.2500       4.3550       4.1200       7.4910       0.1913       3.5958       2.5801
   2260.8538      10.8765       0.2260      86.3831      53.1501    -999.2500    -999.2500       4.1788       3.9734       7.3937       0.1950       3.6239       2.5850
   2261.0061      10.9184       0.2234      87.1670      54.5100    -999.2500    -999.2500       4.0040       3.8280       7.2970       0.2001       3.6935       2.5833
   2261.1587      11.0705       0.2110      90.9432      55.7120    -999.2500    -999.2500       3.8554       3.7401       7.2343       0.2077       3.8740       2.5775
   2261.3110      11.2006       0.1958      94.1867      56.9060    -999.2500    -999.2500       3.7080       3.6530       7.1720       0.2157       4.0208       2.5687
   2261.4634      11.0874       0.1730      91.4773      59.5175    -999.2500    -999.2500       3.4836       3.4316       5.0652       0.2230       3.8546       2.5460
   2261.6157      10.9175       0.1513      88.1849      62.1080    -999.2500    -999.2500       3.2610       3.2120       2.9720       0.2310       3.6691       2.5217
   2261.7683      10.6620       0.1430      87.3322      62.3987    -999.2500    -999.2500       3.2434       3.1738       3.2002       0.2418       3.6879       2.5015
   2261.9207      10.4297       0.1388      87.0943      62.6870    -999.2500    -999.2500       3.2260       3.1360       3.4270       0.2507       3.7280       2.4831
   2262.0730      10.4185       0.1450      87.9772      62.0089    -999.2500    -999.2500       3.2526       3.1812       6.3847       0.2503       3.6871       2.4705
   2262.2253      10.4990       0.1517      88.9055      61.3360    -999.2500    -999.2500       3.2790       3.2260       9.3240       0.2483       3.6244       2.4611
   2262.3777      10.8843       0.1510      89.0115      59.5562    -999.2500    -999.2500       3.3538       3.3394       8.3922       0.2501       3.5173       2.4640
   2262.5303      11.2923       0.1453      88.2321      57.7900    -999.2500    -999.2500       3.4280       3.4520       7.4660       0.2518       3.4131       2.4663
   2262.6826      11.5175       0.1185      83.2529      53.8019    -999.2500    -999.2500       3.6448       3.6814       7.1325       0.2494       3.3715       2.4530
   2262.8350      11.6468       0.0929      79.1343      49.8440    -999.2500    -999.2500       3.8600       3.9090       6.8010       0.2482       3.3588       2.4334
   2262.9873      11.4165       0.0950      83.9121      51.4515    -999.2500    -999.2500       4.2349       4.2031       7.3621       0.2554       3.4458       2.3936
   2263.1399      11.1624       0.1077      89.3987      53.0470    -999.2500    -999.2500       4.6070       4.4950       7.9200       0.2632       3.5365       2.3561
   2263.2922      11.1365       0.1525      90.1874      52.0167    -999.2500    -999.2500       4.6848       4.5512       8.0514       0.2646       3.5470       2.3525
   2263.4446      11.1655       0.2028      89.9649      50.9940    -999.2500    -999.2500       4.7620       4.6070       8.1820       0.2630       3.5327       2.3621
   2263.5969      11.2693       0.2525      88.8604      48.7234    -999.2500    -999.2500       4.8996       4.7280       8.5355       0.2568       3.4612       2.4109
   2263.7495      11.3268       0.2898      87.6650      46.4690    -999.2500    -999.2500       5.0360       4.8480       8.8870       0.2480       3.3904       2.4651
   2263.9019      11.0546       0.2605      86.8234      46.1122    -999.2500    -999.2500       5.2339       5.0238       9.5002       0.2347       3.3815       2.5089
   2264.0542      10.7538       0.2167      86.1690      45.7580    -999.2500    -999.2500       5.4300       5.1980      10.1090       0.2232       3.4217       2.5457
