#------------------------------------------------------------------------------
#
#   Created by  : [OpenWorks] Log Export Utility (LEXP)
#   Created on  : 2016-05-23 11:56:14
#   Project     : CANT971
#   User        : R5K
#   Interpreter : PEP
#
#------------------------------------------------------------------------------
~VERSION INFORMATION
VERS. 2.0 : CWLS Log ASCII Standard - version 2.0
WRAP.  NO : One line per depth step
~WELL INFORMATION
#MNEMONIC   .UNIT                                           VALUE :DESCRIPTION
#------------------------------------------------------------------------------
STRT        .M                                          2395.2905 :START DEPTH
STOP        .M                                          2859.1960 :STOP DEPTH
STEP        .M                                             0.1524 :STEP
NULL        .                                           -999.2500 :NULL VALUE
COMP        .                                             UNKNOWN :COMPANY
WELL        .                                               446-V :WELL
FLD         .                                             UNKNOWN :FIELD
LOC         .                                             UNKNOWN :LOCATION
CNTY        .                                             UNKNOWN :COUNTY
STAT        .                                             UNKNOWN :STATE
CTRY        .                                             UNKNOWN :COUNTRY
SRVC        .                                             UNKNOWN :SERVICE COMPANY
DATE        .                                             UNKNOWN :LOG DATE
UWI         .                                               446-V :UNIQUE WELL ID
XCOORD      .                                       596708.730000 :SURFACE X
YCOORD      .                                      2143311.960000 :SURFACE Y
LAT         .                                           19.382780 :LATITUDE
LON         .                                          -92.079070 :LONGITUDE
ELEV        .M                                             0.0000 :SURFACE ELEV
ELEV_TYPE   .                                                  NA :ELEV TYPE
~CURVE INFORMATION
#MNEMONIC.UNIT        API CODE       : CURVE DESCRIPTION
#------------------------------------------------------------------------------
DEPTH    .M                          : Measured Depth
CALI     .inches      UNKNOWN        : CALI:litodensidad:rC:NONE:v0 (auto-composite)
CGR      .API         UNKNOWN        : CGR:Espectrometria:rC:NONE:v0 (auto-composite)
DRHO     .g/cm3       UNKNOWN        : DRHO:litodensidad:rC:NONE:v0 (auto-composite)
DT       .us/ft       UNKNOWN        : DT:sonico:rC:NONE:v0 (auto-composite)
GR       .API         UNKNOWN        : GR:GR-Load:rC:NONE:v0 (auto-composite)
GR-LWD   .API         UNKNOWN        : GR-LWD:resistivos-LWD:rC:NONE:v0 (auto-composite)
ILD-LWD  .ohm.m       UNKNOWN        : ILD-LWD:resistivos-LWD:rC:NONE:v0 (auto-composite)
ILM-LWD  .UNKNOWN     UNKNOWN        : ILM-LWD:resistivos-LWD:rC:NONE:v0 (auto-composite)
LLD      .ohm.m       UNKNOWN        : LLD:resistivos:rC:NONE:v0 (auto-composite)
LLS      .ohm.m       UNKNOWN        : LLS:resistivos:rC:NONE:v0 (auto-composite)
MSFL     .ohm.m       UNKNOWN        : MSFL:resistivos:rC:NONE:v0 (auto-composite)
NPHI     .UNKNOWN     UNKNOWN        : NPHI:porosidad:rC:NONE:v0 (auto-composite)
PEF      .UNKNOWN     UNKNOWN        : PEF:litodensidad:rC:NONE:v0 (auto-composite)
POTA     .wtpercent   UNKNOWN        : POTA:Espectrometria:rC:NONE:v0 (auto-composite)
RHOB     .g/cm3       UNKNOWN        : RHOB:litodensidad:rC:NONE:v0 (auto-composite)
THOR     .ppm         UNKNOWN        : THOR:Espectrometria:rC:NONE:v0 (auto-composite)
URAN     .ppm         UNKNOWN        : URAN:Espectrometria:rC:NONE:v0 (auto-composite)
~A     DEPTH         CALI          CGR         DRHO           DT           GR       GR-LWD      ILD-LWD      ILM-LWD          LLD          LLS         MSFL         NPHI          PEF         POTA         RHOB         THOR         URAN
# ...
   2704.6626       9.8814      15.6524       0.0558      71.8202      18.5346    -999.2500    -999.2500    -999.2500      31.8498      22.8247      16.1142       0.1232       3.4261       0.0060       2.6313       2.0580       0.3209
   2704.8149       9.9094      15.4342       0.0834      72.5953      18.3311    -999.2500    -999.2500    -999.2500      30.6171      21.8606       6.0367       0.1159       3.5173       0.0054       2.6475       2.2491       0.3225
   2704.9673      10.0494      13.6650       0.0903      72.8367      18.3813    -999.2500    -999.2500    -999.2500      29.7134      21.0639       3.0909       0.1122       3.5556       0.0048       2.6502       1.9585       0.5251
   2705.1196      10.2077      10.2650       0.0778      73.1334      18.6203    -999.2500    -999.2500    -999.2500      29.1045      20.7686       1.9297       0.1136       3.5296       0.0042       2.6435       1.2489       0.9302
   2705.2722      10.3977       6.9426       0.0418      72.4318      19.6923    -999.2500    -999.2500    -999.2500      29.3206      21.4261       3.0479       0.1035       3.3998       0.0040       2.6299       0.4002       1.4195
   2705.4246      10.4391       8.1915       0.0244      71.7833      21.6023    -999.2500    -999.2500    -999.2500      29.8041      22.5529       4.5618       0.1016       3.2787       0.0052       2.6373       0.2724       1.4931
   2705.5769      10.4250      11.7344       0.0201      71.4928      24.5220    -999.2500    -999.2500    -999.2500      30.1118      23.8110       6.0421       0.0985       3.1828       0.0077       2.6515       0.2562       1.4237
   2705.7292      10.1979      14.6749       0.0457      72.3000      26.8418    -999.2500    -999.2500    -999.2500      29.4774      23.9313       5.0319       0.0971       3.3168       0.0094       2.6707       0.4406       1.3546
   2705.8818       9.9668      17.2482       0.1126      74.3721      28.7655    -999.2500    -999.2500    -999.2500      27.0022      22.3080       3.8214       0.1023       3.8026       0.0102       2.7057       0.8418       1.2823
   2706.0342       9.9153      18.9479       0.1777      74.4248      30.5915    -999.2500    -999.2500    -999.2500      24.7811      19.9814       2.3334       0.1048       4.3192       0.0102       2.7446       1.3139       1.2963
   2706.1865      10.0433      20.9942       0.2063      72.5953      34.8061    -999.2500    -999.2500    -999.2500      22.5449      17.8025       0.7195       0.1135       4.5751       0.0111       2.7730       1.5676       1.5377
   2706.3389      10.1734      23.8210       0.1574      63.7598      41.0330    -999.2500    -999.2500    -999.2500      22.6282      17.7908       0.7424       0.1139       4.1926       0.0134       2.7642       1.4500       1.9163
   2706.4912      10.2511      24.6308       0.0878      60.5568      46.6442    -999.2500    -999.2500    -999.2500      23.8625      18.7946       0.7985       0.1080       3.6477       0.0155       2.7302       0.8466       2.4509
   2706.6438      10.2418      22.0808       0.0603      56.0685      46.4463    -999.2500    -999.2500    -999.2500      25.3707      20.0487       0.8080       0.1103       3.4452       0.0143       2.7061       0.5725       2.7127
   2706.7961      10.0767      15.7596       0.0477      54.2338      38.3205    -999.2500    -999.2500    -999.2500      27.1257      21.0352       1.4825       0.1163       3.4085       0.0095       2.6761       0.7054       2.5118
   2706.9485       9.9669      12.5152       0.0500      53.6131      32.2690    -999.2500    -999.2500    -999.2500      27.9604      21.8817       1.7182       0.1089       3.4548       0.0067       2.6751       0.8934       2.1993
   2707.1008       9.7479      13.1943       0.0533      52.0400      29.0697    -999.2500    -999.2500    -999.2500      30.4689      24.1310       1.4503       0.1045       3.5504       0.0066       2.7005       1.1279       1.7675
   2707.2534       9.6425      15.7300       0.0435      50.7906      32.8987    -999.2500    -999.2500    -999.2500      32.6440      25.7049       1.0905       0.0896       3.6300       0.0087       2.7151       1.0024       1.9114
   2707.4058       9.5832      23.8411       0.0111      50.0001      43.5732    -999.2500    -999.2500    -999.2500      37.0240      29.1950       0.9602       0.0730       3.7073       0.0136       2.7091       1.3658       2.1969
   2707.5581       9.6685      30.8094      -0.0006      49.9095      47.9807    -999.2500    -999.2500    -999.2500      40.2168      31.9325       1.5961       0.0727       3.6729       0.0156       2.6967       2.5480       1.9118
   2707.7104       9.8445      40.2234       0.0040      50.2251      48.9614    -999.2500    -999.2500    -999.2500      40.6566      32.9641       3.5536       0.0784       3.4867       0.0175       2.6913       4.4522       0.9728
   2707.8630       9.9267      40.1367       0.0120      52.4597      46.0238    -999.2500    -999.2500    -999.2500      38.0362      31.3961       3.8158       0.0897       3.3599       0.0165       2.6813       4.8289       0.6555
   2708.0154       9.8504      30.7826       0.0292      53.8829      39.3756    -999.2500    -999.2500    -999.2500      30.4303      25.3825       1.8851       0.0993       3.2954       0.0138       2.6420       3.2651       0.9567
   2708.1677       9.7028      23.6331       0.0510      56.3066      34.6572    -999.2500    -999.2500    -999.2500      26.7305      21.4821       0.9454       0.0971       3.3736       0.0117       2.6311       2.0659       1.2273
   2708.3201       9.5779      16.9233       0.0741      57.6832      28.8062    -999.2500    -999.2500    -999.2500      25.4107      20.3735       0.7144       0.0976       3.4910       0.0092       2.6462       1.1452       1.3229
   2708.4724       9.5215      12.1147       0.0757      57.8125      22.3423    -999.2500    -999.2500    -999.2500      27.6909      22.1673       0.5480       0.0985       3.5695       0.0067       2.6672       0.7699       1.1387
   2708.6250       9.5655      12.4795       0.0549      58.1022      19.8307    -999.2500    -999.2500    -999.2500      34.6285      29.7012       0.8260       0.0916       3.5015       0.0063       2.6635       1.0285       0.8184
   2708.7773       9.6534      13.7450       0.0350      58.5435      19.5044    -999.2500    -999.2500    -999.2500      51.2237      46.5955       2.8361       0.0956       3.3659       0.0067       2.6609       1.2210       0.6412
   2708.9297       9.6999      13.7833       0.0345      58.8031      20.6364    -999.2500    -999.2500    -999.2500      69.4334      61.9346       5.5015       0.0929       3.3205       0.0066       2.6743       1.2948       0.7630
   2709.0820       9.6781      12.6959       0.0410      59.1812      21.8179    -999.2500    -999.2500    -999.2500      88.1022      75.1529       7.7307       0.0863       3.3250       0.0065       2.7014       1.0065       1.0156
   2709.2346       9.5818      13.4238       0.0448      59.4866      23.6185    -999.2500    -999.2500    -999.2500      85.2448      72.4141       6.9468       0.0848       3.3336       0.0059       2.7224       1.4753       1.1350
   2709.3870       9.4258      16.5853       0.0468      59.7237      27.0625    -999.2500    -999.2500    -999.2500      72.9587      61.1156       4.1142       0.0830       3.3236       0.0064       2.7391       2.1581       1.1665
   2709.5393       9.3481      20.2361       0.0514      59.4475      31.4815    -999.2500    -999.2500    -999.2500      64.4584      53.5673       2.1158       0.0786       3.3121       0.0077       2.7542       2.6873       1.2520
   2709.6917       9.3394      24.2667       0.0615      58.7374      37.7101    -999.2500    -999.2500    -999.2500      58.5122      47.7031       1.0939       0.0713       3.3155       0.0093       2.7769       3.1872       1.4967
   2709.8442       9.3712      25.1334       0.0662      57.1833      41.5520    -999.2500    -999.2500    -999.2500      57.5022      46.5689       1.2384       0.0713       3.3224       0.0108       2.7816       2.8592       1.8279
