#------------------------------------------------------------------------------
#
#   Created by  : [OpenWorks] Log Export Utility (LEXP)
#   Created on  : 2015-10-01 09:49:56
#   Project     : CANT971
#   User        : R5K
#   Interpreter : PEP
#
#------------------------------------------------------------------------------
~VERSION INFORMATION
VERS. 2.0 : CWLS Log ASCII Standard - version 2.0
WRAP.  NO : One line per depth step
~WELL INFORMATION
#MNEMONIC   .UNIT                                           VALUE :DESCRIPTION
#------------------------------------------------------------------------------
STRT        .M                                           799.8710 :START DEPTH
STOP        .M                                          1367.5610 :STOP DEPTH
STEP        .M                                             0.1524 :STEP
NULL        .                                           -999.2500 :NULL VALUE
COMP        .                                   PEMEX EXPL & PROD :COMPANY
WELL        .                                        CANTARELL-1A :WELL
FLD         .                                           CANTARELL :FIELD
LOC         .                                             UNKNOWN :LOCATION
CNTY        .                                      CD. DEL CARMEN :COUNTY
STAT        .                                            CAMPECHE :STATE
CTRY        .                                              MEXICO :COUNTRY
SRVC        .                                             UNKNOWN :SERVICE COMPANY
DATE        .                                             UNKNOWN :LOG DATE
UWI         .                                          3060000138 :UNIQUE WELL ID
XCOORD      .                                       600823.080000 :SURFACE X
YCOORD      .                                      2145118.550000 :SURFACE Y
LAT         .                                           19.398902 :LATITUDE
LON         .                                          -92.039798 :LONGITUDE
ELEV        .M                                            27.7000 :SURFACE ELEV
ELEV_TYPE   .                                                  KB :ELEV TYPE
~CURVE INFORMATION
#MNEMONIC.UNIT        API CODE       : CURVE DESCRIPTION
#------------------------------------------------------------------------------
DEPTH    .M                          : Measured Depth
CALI     .inches      UNKNOWN        : CALI:UNKNOWN:rC:NONE:v0 (auto-composite)
DRHO     .g/cm3       UNKNOWN        : DRHO:UNKNOWN:rC:NONE:v0 (auto-composite)
DT       .us/ft       UNKNOWN        : DT:DT:rC:NONE:v0 (auto-composite)
ILD      .ohm.m       UNKNOWN        : ILD:UNKNOWN:rC:NONE:v0 (auto-composite)
LLD      .ohm.m       UNKNOWN        : LLD:UNKNOWN:rC:NONE:v0 (auto-composite)
LLS      .ohm.m       UNKNOWN        : LLS:UNKNOWN:rC:NONE:v0 (auto-composite)
MSFL     .ohm.m       UNKNOWN        : MSFL:UNKNOWN:rC:NONE:v0 (auto-composite)
NPHI     .v/v_decimal UNKNOWN        : NPHI:NPHI:rC:NONE:v0 (auto-composite)
GR       .API         UNKNOWN        : RG:UNKNOWN:rC:NONE:v0 (auto-composite)
RHOB     .g/cm3       UNKNOWN        : RHOB:UNKNOWN:rC:NONE:v0 (auto-composite)
~A     DEPTH         CALI         DRHO           DT          ILD          LLD          LLS         MSFL         NPHI           GR         RHOB
# ...
   1064.4374      16.5089       0.0053    -999.2500       0.8694       0.2000       0.2000       0.2000      41.3068      27.0708       2.2545
   1064.5898      16.5976       0.0113    -999.2500       0.8759       0.2000       0.2000       0.2000      42.4618      27.1686       2.2711
   1064.7422      16.6585       0.0173    -999.2500       0.8784       0.2000       0.2000       0.2000      43.4473      27.2017       2.2825
   1064.8947      16.6194       0.0233    -999.2500       0.8663       0.2000       0.2000       0.2000      44.2622      27.0032       2.2755
   1065.0470      16.5119       0.0265    -999.2500       0.8560       0.2000       0.2000       0.2000      46.0323      26.7827       2.2671
   1065.1995      16.1659       0.0200    -999.2500       0.8515       0.2000       0.2000       0.2000      48.7633      26.4854       2.2541
   1065.3518      15.8810       0.0133    -999.2500       0.8521       0.2000       0.2000       0.2000      50.1048      26.1957       2.2447
   1065.5043      15.8023       0.0058    -999.2500       0.8702       0.2000       0.2000       0.2000      50.0523      25.9315       2.2477
   1065.6566      15.7674       0.0006    -999.2500       0.8862       0.2000       0.2000       0.2000      49.8466      25.7594       2.2472
   1065.8091      15.8762       0.0031    -999.2500       0.8957       0.2000       0.2000       0.2000      49.4871      25.8898       2.2352
   1065.9614      15.9142       0.0038    -999.2500       0.9043       0.2000       0.2000       0.2000      48.9577      25.9965       2.2255
   1066.1139      15.7267      -0.0012    -999.2500       0.9098       0.2000       0.2000       0.2000      48.2577      26.0281       2.2235
   1066.2662      15.5344      -0.0055    -999.2500       0.9138       0.2000       0.2000       0.2000      47.5417      26.1000       2.2257
   1066.4186      15.3274      -0.0075    -999.2500       0.9128       0.2000       0.2000       0.2000      46.8098      26.2965       2.2407
   1066.5710      15.2286      -0.0074    -999.2500       0.9055       0.2000       0.2000       0.2000      46.4864      26.7139       2.2501
   1066.7234      15.4557      -0.0009    -999.2500       0.8794       0.2000       0.2000       0.2000      46.5734      27.7980       2.2426
   1066.8759      15.6024       0.0030    -999.2500       0.8508       0.2000       0.2000       0.2000      46.8121      28.6812       2.2336
   1067.0282      15.5137      -0.0010    -999.2500       0.8147       0.2000       0.2000       0.2000      47.2030      28.9765       2.2200
   1067.1807      15.4480      -0.0054    -999.2500       0.7854       0.2000       0.2000       0.2000      47.6377      29.1946       2.2070
   1067.3330      15.4480      -0.0109    -999.2500       0.7754       0.2000       0.2000       0.2000      48.1162      29.1931       2.1955
   1067.4855      15.4350      -0.0141    -999.2500       0.7664       0.2000       0.2000       0.2000      48.3380      29.4009       2.1859
   1067.6378      15.3858      -0.0106    -999.2500       0.7604       0.2000       0.2000       0.2000      48.3020      30.1896       2.1819
   1067.7903      15.3687      -0.0069    -999.2500       0.7548       0.2000       0.2000       0.2000      48.1501      31.0848       2.1768
   1067.9426      15.4379      -0.0029    -999.2500       0.7503       0.2000       0.2000       0.2000      47.8816      32.2676       2.1688
   1068.0951      15.4663      -0.0008    -999.2500       0.7516       0.2000       0.2000       0.2000      47.8549      33.3143       2.1662
   1068.2474      15.3876      -0.0038    -999.2500       0.7681       0.2000       0.2000       0.2000      48.0714      34.0039       2.1777
   1068.3998      15.3725      -0.0056    -999.2500       0.7848       0.2000       0.2000       0.2000      48.6982      34.0564       2.1878
   1068.5522      15.5204      -0.0041    -999.2500       0.8018       0.2000       0.2000       0.2000      49.7377      32.4760       2.1943
   1068.7046      15.5865      -0.0021    -999.2500       0.8164       0.2000       0.2000       0.2000      50.1546      31.0652       2.2037
   1068.8571      15.4487       0.0009    -999.2500       0.8250       0.2000       0.2000       0.2000      49.9451      30.0774       2.2203
   1069.0094      15.4603       0.0037    -999.2500       0.8325       0.2000       0.2000       0.2000      49.2773      29.2619       2.2391
   1069.1619      15.8358       0.0062    -999.2500       0.8375       0.2000       0.2000       0.2000      48.1484      28.8663       2.2637
   1069.3142      16.1263       0.0086    -999.2500       0.8465       0.2000       0.2000       0.2000      47.6367      28.3534       2.2828
   1069.4667      16.2151       0.0106    -999.2500       0.8651       0.2000       0.2000       0.2000      47.7442      27.5622       2.2888
   1069.6190      16.2561       0.0135    -999.2500       0.8794       0.2000       0.2000       0.2000      47.6523      26.8607       2.2947
   1069.7715      16.1869       0.0185    -999.2500       0.8839       0.2000       0.2000       0.2000      47.3603      26.3666       2.3002
   1069.9238      16.1482       0.0206    -999.2500       0.8867       0.2000       0.2000       0.2000      47.2657      26.2960       2.3018
   1070.0762      16.1783       0.0161    -999.2500       0.8857       0.2000       0.2000       0.2000      47.3691      27.1824       2.2948
   1070.2286      16.1805       0.0111    -999.2500       0.8800       0.2000       0.2000       0.2000      47.8773      27.8842       2.2862
   1070.3810      16.1214       0.0051    -999.2500       0.8639       0.2000       0.2000       0.2000      48.7918      28.1796       2.2742
   1070.5334      16.0287       0.0000    -999.2500       0.8444       0.2000       0.2000       0.2000      49.1387      28.3807       2.2652
   1070.6858      15.8644      -0.0030    -999.2500       0.8173       0.2000       0.2000       0.2000      48.9158      28.3797       2.2627
   1070.8383      15.7381      -0.0039    -999.2500       0.7885       0.2000       0.2000       0.2000      48.2286      28.8243       2.2531
   1070.9906      15.6920      -0.0004    -999.2500       0.7559       0.2000       0.2000       0.2000      47.0751      30.2047       2.2285
   1071.1431      15.6427       0.0012    -999.2500       0.7238       0.2000       0.2000       0.2000      45.8421      31.4230       2.2122
   1071.2954      15.5871      -0.0013    -999.2500       0.6927       0.2000       0.2000       0.2000      44.5291      32.3096       2.2127
   1071.4479      15.5467      -0.0015    -999.2500       0.6710       0.2000       0.2000       0.2000      43.7880      32.7035       2.2105
   1071.6002      15.5366       0.0030    -999.2500       0.6680       0.2000       0.2000       0.2000      43.6215      32.1104       2.2030
   1071.7527      15.4465       0.0035    -999.2500       0.6723       0.2000       0.2000       0.2000      42.7379      31.6508       2.1944
   1071.9050      15.1998      -0.0041    -999.2500       0.6908       0.2000       0.2000       0.2000      41.1335      31.4522       2.1839
   1072.0574      15.0958      -0.0081    -999.2500       0.7101       0.2000       0.2000       0.2000      40.4546      31.4910       2.1991
   1072.2098      15.2637      -0.0056    -999.2500       0.7306       0.2000       0.2000       0.2000      40.7066      31.9821       2.2632
   1072.3622      15.4557      -0.0028    -999.2500       0.7555       0.2000       0.2000       0.2000      41.3241      32.0262       2.3038
   1072.5146      15.6929       0.0007    -999.2500       0.7886       0.2000       0.2000       0.2000      42.3090      31.2355       2.3003
   1072.6670      15.8705       0.0034    -999.2500       0.8219       0.2000       0.2000       0.2000      43.2095      30.8994       2.2943
   1072.8195      15.9397       0.0044    -999.2500       0.8555       0.2000       0.2000       0.2000      44.0250      31.3918       2.2837
