#------------------------------------------------------------------------------
#
#   Created by  : [OpenWorks] Log Export Utility (LEXP)
#   Created on  : 2016-05-23 11:50:37
#   Project     : CANT971
#   User        : R5K
#   Interpreter : PEP
#
#------------------------------------------------------------------------------
~VERSION INFORMATION
VERS. 2.0 : CWLS Log ASCII Standard - version 2.0
WRAP.  NO : One line per depth step
~WELL INFORMATION
#MNEMONIC   .UNIT                                           VALUE :DESCRIPTION
#------------------------------------------------------------------------------
STRT        .M                                           690.6770 :START DEPTH
STOP        .M                                          3400.6538 :STOP DEPTH
STEP        .M                                             0.1524 :STEP
NULL        .                                           -999.2500 :NULL VALUE
COMP        .                                   PEMEX EXPL & PROD :COMPANY
WELL        .                                                1024 :WELL
FLD         .                                           CANTARELL :FIELD
LOC         .                                             UNKNOWN :LOCATION
CNTY        .                                      CD. DEL CARMEN :COUNTY
STAT        .                                            CAMPECHE :STATE
CTRY        .                                              MEXICO :COUNTRY
SRVC        .                                             UNKNOWN :SERVICE COMPANY
DATE        .                                             UNKNOWN :LOG DATE
UWI         .                                          3060000490 :UNIQUE WELL ID
XCOORD      .                                       596162.640000 :SURFACE X
YCOORD      .                                      2150611.280000 :SURFACE Y
LAT         .                                           19.448767 :LATITUDE
LON         .                                          -92.083900 :LONGITUDE
ELEV        .M                                            30.0000 :SURFACE ELEV
ELEV_TYPE   .                                                  KB :ELEV TYPE
~CURVE INFORMATION
#MNEMONIC.UNIT        API CODE       : CURVE DESCRIPTION
#------------------------------------------------------------------------------
DEPTH    .M                          : Measured Depth
CALI     .inches      UNKNOWN        : CALI:registros:rC:NONE:v0 (auto-composite)
DRHO     .g/cm3       UNKNOWN        : DRHO:registros:rC:NONE:v0 (auto-composite)
DT       .us/ft       UNKNOWN        : DT:registros:rC:NONE:v0 (auto-composite)
GR       .API         UNKNOWN        : GR:registros:rC:NONE:v0 (auto-composite)
ILD      .ohm.m       UNKNOWN        : ILD:registros:rC:NONE:v0 (auto-composite)
ILM      .ohm.m       UNKNOWN        : ILM:registros:rC:NONE:v0 (auto-composite)
LLD      .ohm.m       UNKNOWN        : LLD:registros:rC:NONE:v0 (auto-composite)
LLS      .ohm.m       UNKNOWN        : LLS:registros:rC:NONE:v0 (auto-composite)
MSFL     .ohm.m       UNKNOWN        : MSFL:registros:rC:NONE:v0 (auto-composite)
NPHI     .v/v_decimal UNKNOWN        : NPHI:registros:rC:NONE:v0 (auto-composite)
PEF      .b/elec      UNKNOWN        : PEF:registros:rC:NONE:v0 (auto-composite)
RHOB     .g/cm3       UNKNOWN        : RHOB:registros:rC:NONE:v0 (auto-composite)
~A     DEPTH         CALI         DRHO           DT           GR          ILD          ILM          LLD          LLS         MSFL         NPHI          PEF         RHOB
# ...
   3243.6819       8.5520      -0.0110      53.4520      56.2440    -999.2500    -999.2500     296.6670     278.1540     192.4890       0.0770       3.6890       2.7130
   3243.8342       8.5380      -0.0105      54.0544      52.0533    -999.2500    -999.2500     300.8614     280.2843     199.4378       0.0784       3.6805       2.7070
   3243.9866       8.5240      -0.0100      54.6580      47.8880    -999.2500    -999.2500     305.0640     282.4120     206.3890       0.0798       3.6720       2.7010
   3244.1389       8.5280      -0.0090      55.5041      45.9463    -999.2500    -999.2500     297.5813     274.6231     222.4692       0.0809       3.6066       2.7025
   3244.2915       8.5320      -0.0080      56.3520      44.0160    -999.2500    -999.2500     290.0830     266.8430     238.5570       0.0820       3.5410       2.7040
   3244.4438       8.5415      -0.0060      56.9798      44.1870    -999.2500    -999.2500     286.8231     262.6659     213.0027       0.0865       3.4721       2.7070
   3244.5962       8.5510      -0.0040      57.6090      44.3570    -999.2500    -999.2500     283.5560     258.4930     187.4330       0.0911       3.4030       2.7100
   3244.7485       8.5405      -0.0025      57.8607      45.4676    -999.2500    -999.2500     281.0709     255.9584     172.3400       0.0972       3.3561       2.7020
   3244.9011       8.5300      -0.0010      58.1130      46.5720    -999.2500    -999.2500     278.5800     253.4260     157.2360       0.1033       3.3090       2.6940
   3245.0535       8.5350      -0.0000      58.9675      46.3018    -999.2500    -999.2500     269.3503     245.5030     167.8560       0.1020       3.3215       2.6885
   3245.2058       8.5400       0.0010      59.8240      46.0330    -999.2500    -999.2500     260.0980     237.5860     178.4850       0.1005       3.3340       2.6830
   3245.3582       8.5505       0.0030      61.2631      44.1991    -999.2500    -999.2500     243.0171     222.4678     196.3328       0.0928       3.4104       2.6990
   3245.5105       8.5610       0.0050      62.7060      42.3780    -999.2500    -999.2500     225.8920     207.3590     214.1980       0.0852       3.4870       2.7150
   3245.6631       8.5635       0.0105      64.9160      40.5843    -999.2500    -999.2500     215.7148     198.1597     196.7506       0.0823       3.5365       2.7220
   3245.8154       8.5660       0.0160      67.1320      38.8030    -999.2500    -999.2500     205.5100     188.9650     179.2840       0.0797       3.5860       2.7290
   3245.9678       8.5820       0.0200      69.4717      37.6466    -999.2500    -999.2500     226.1632     206.2617     151.1593       0.0858       3.5570       2.7095
   3246.1201       8.5980       0.0240      71.8180      36.4980    -999.2500    -999.2500     246.8750     223.5520     123.0000       0.0921       3.5280       2.6900
   3246.2727       8.6175       0.0220      71.4066      36.7428    -999.2500    -999.2500     284.7265     254.4115     157.5686       0.0983       3.4476       2.6740
   3246.4250       8.6370       0.0200      70.9940      36.9860    -999.2500    -999.2500     322.6900     285.2140     192.1840       0.1046       3.3670       2.6580
   3246.5774       8.6220       0.0185      69.0215      38.9504    -999.2500    -999.2500     310.6031     275.0477     179.3645       0.1039       3.3875       2.6705
   3246.7297       8.6070       0.0170      67.0430      40.9020    -999.2500    -999.2500     298.4790     264.8990     166.5260       0.1031       3.4080       2.6830
   3246.8821       8.5780       0.0165      64.5575      42.6461    -999.2500    -999.2500     271.4124     241.5818     152.0886       0.1010       3.5104       2.6840
   3247.0347       8.5490       0.0160      62.0640      44.3790    -999.2500    -999.2500     244.2590     218.3020     137.6280       0.0989       3.6130       2.6850
   3247.1870       8.5610       0.0210      64.2064      44.8796    -999.2500    -999.2500     234.5971     210.1820     138.2675       0.0962       3.6680       2.6850
   3247.3394       8.5730       0.0260      66.3560      45.3770    -999.2500    -999.2500     224.9030     202.0740     138.9080       0.0935       3.7230       2.6850
   3247.4917       8.5795       0.0265      67.2102      46.1298    -999.2500    -999.2500     231.8501     208.8246     144.0612       0.0938       3.5896       2.6715
   3247.6443       8.5860       0.0270      68.0660      46.8780    -999.2500    -999.2500     238.8100     215.5660     149.2240       0.0942       3.4560       2.6580
   3247.7966       8.5910       0.0230      67.5515      48.2602    -999.2500    -999.2500     253.7917     229.1128     157.7809       0.0919       3.3566       2.6670
   3247.9490       8.5960       0.0190      67.0360      49.6340    -999.2500    -999.2500     268.8030     242.6430     166.3410       0.0896       3.2570       2.6760
   3248.1013       8.6115       0.0150      68.9650      50.5968    -999.2500    -999.2500     285.4779     257.4786     178.3900       0.0855       3.3010       2.6920
   3248.2539       8.6270       0.0110      70.8980      51.5540    -999.2500    -999.2500     302.1880     272.2980     190.4450       0.0815       3.3450       2.7080
   3248.4062       8.6195       0.0100      68.2619      51.7210    -999.2500    -999.2500     315.0636     284.3859     197.1604       0.0788       3.4214       2.7130
   3248.5586       8.6120       0.0090      65.6200      51.8870    -999.2500    -999.2500     327.9680     296.4620     203.8800       0.0761       3.4980       2.7180
   3248.7109       8.5880       0.0095      61.5318      51.9206    -999.2500    -999.2500     340.5516     307.8053     171.4278       0.0771       3.4965       2.7115
   3248.8633       8.5640       0.0100      57.4340      51.9540    -999.2500    -999.2500     353.1650     319.1390     138.9510       0.0781       3.4950       2.7050
   3249.0159       8.5460       0.0080      56.1056      50.9337    -999.2500    -999.2500     350.4169     316.4710     152.8499       0.0814       3.4326       2.7000
   3249.1682       8.5280       0.0060      54.7740      49.9190    -999.2500    -999.2500     347.6620     313.8050     166.7610       0.0846       3.3700       2.6950
   3249.3206       8.5315       0.0035      54.7950      47.8337    -999.2500    -999.2500     312.9389     284.4167     197.9463       0.0873       3.3845       2.6960
   3249.4729       8.5350       0.0010      54.8160      45.7630    -999.2500    -999.2500     278.1250     255.0460     229.1630       0.0900       3.3990       2.6970
   3249.6255       8.5340      -0.0010      54.9548      44.1118    -999.2500    -999.2500     270.5863     250.2384     212.2646       0.0924       3.4100       2.6955
   3249.7778       8.5330      -0.0030      55.0940      42.4720    -999.2500    -999.2500     263.0270     245.4330     195.3470       0.0948       3.4210       2.6940
   3249.9302       8.5190      -0.0000      55.0556      43.0404    -999.2500    -999.2500     308.2422     288.1908     232.4901       0.0920       3.4685       2.7085
   3250.0825       8.5050       0.0030      55.0170      43.6050    -999.2500    -999.2500     353.5870     330.9340     269.6800       0.0893       3.5160       2.7230
   3250.2351       8.5245       0.0050      55.4888      45.1576    -999.2500    -999.2500     362.4333     341.7353     298.0109       0.0843       3.5550       2.7390
   3250.3875       8.5440       0.0070      55.9620      46.7000    -999.2500    -999.2500     371.3060     352.5170     326.3810       0.0793       3.5940       2.7550
   3250.5398       8.5405       0.0065      57.6259      47.5232    -999.2500    -999.2500     348.7462     331.9596     269.3806       0.0778       3.6020       2.7570
   3250.6921       8.5370       0.0060      59.2950      48.3410    -999.2500    -999.2500     326.1160     311.4370     212.2940       0.0765       3.6100       2.7590
   3250.8445       8.5050       0.0060      60.4871      48.7744    -999.2500    -999.2500     316.3613     300.4919     172.1778       0.0793       3.6210       2.7475
