#------------------------------------------------------------------------------
#
#   Created by  : [OpenWorks] Log Export Utility (LEXP)
#   Created on  : 2016-05-12 17:01:19
#   Project     : CANT971
#   User        : R5K
#   Interpreter : PEP
#
#------------------------------------------------------------------------------
~VERSION INFORMATION
VERS. 2.0 : CWLS Log ASCII Standard - version 2.0
WRAP.  NO : One line per depth step
~WELL INFORMATION
#MNEMONIC   .UNIT                                           VALUE :DESCRIPTION
#------------------------------------------------------------------------------
STRT        .M                                           300.0760 :START DEPTH
STOP        .M                                          2081.9368 :STOP DEPTH
STEP        .M                                             0.1524 :STEP
NULL        .                                           -999.2500 :NULL VALUE
COMP        .                                   PEMEX EXPL & PROD :COMPANY
WELL        .                                                  37 :WELL
FLD         .                                           CANTARELL :FIELD
LOC         .                                             UNKNOWN :LOCATION
CNTY        .                                      CD. DEL CARMEN :COUNTY
STAT        .                                            CAMPECHE :STATE
CTRY        .                                              MEXICO :COUNTRY
SRVC        .                                             UNKNOWN :SERVICE COMPANY
DATE        .                                             UNKNOWN :LOG DATE
UWI         .                                          3060000160 :UNIQUE WELL ID
XCOORD      .                                       602154.560000 :SURFACE X
YCOORD      .                                      2147169.070000 :SURFACE Y
LAT         .                                           19.417364 :LATITUDE
LON         .                                          -92.027009 :LONGITUDE
ELEV        .M                                            28.1700 :SURFACE ELEV
ELEV_TYPE   .                                                  KB :ELEV TYPE
~CURVE INFORMATION
#MNEMONIC.UNIT        API CODE       : CURVE DESCRIPTION
#------------------------------------------------------------------------------
DEPTH    .M                          : Measured Depth
CALI     .inches      UNKNOWN        : CALI:Import:rC:NONE:v0 (auto-composite)
DRHO     .g/cm3       UNKNOWN        : DRHO:Import:rC:NONE:v0 (auto-composite)
DT       .us/ft       UNKNOWN        : DT:Import:rC:NONE:v0 (auto-composite)
GR       .API         UNKNOWN        : GR:Import:rC:NONE:v0 (auto-composite)
ILD      .ohm.m       UNKNOWN        : ILD:Import:rC:NONE:v0 (auto-composite)
NPHI     .v/v_decimal UNKNOWN        : NPHI:Import:rC:NONE:v0 (auto-composite)
RHOB     .g/cm3       UNKNOWN        : RHOB:Import:rC:NONE:v0 (auto-composite)
~A     DEPTH         CALI         DRHO           DT           GR          ILD         NPHI         RHOB
# ...
   2072.0308       6.1909       0.0115      62.7015      34.3817    1576.1760       8.8885       2.6640
   2072.1831       6.1390       0.0050      65.3060      33.5830    1576.1760       8.3770       2.6790
   2072.3357       6.1910       0.0065      62.8632      31.3820    1576.1760       7.5477       2.7045
   2072.4880       6.2430       0.0080      60.4210      29.1850    1576.1760       6.7200       2.7300
   2072.6404       6.1910       0.0030      58.1189      29.2861    1590.8110       7.2219       2.7085
   2072.7927       6.1390      -0.0020      55.8170      29.3870    1605.4210       7.7230       2.6870
   2072.9451       6.1910      -0.0150      56.3670      31.7919    1590.7870       9.3833       2.6049
   2073.0977       6.2430      -0.0280      56.9170      34.1930    1576.1760      11.0410       2.5230
   2073.2500       6.1910      -0.0125      56.8135      36.8890    1590.8092      10.9910       2.5285
   2073.4023       6.1390       0.0030      56.7100      39.5810    1605.4210      10.9410       2.5340
   2073.5547       6.1395      -0.0015      56.7100      40.4326    1590.7888      11.0611       2.5880
   2073.7073       6.1400      -0.0060      56.7100      41.2830    1576.1760      11.1810       2.6420
   2073.8596       6.1915      -0.0120      56.7100      41.9814    1082.5243      10.0493       2.6405
   2074.0120       6.2430      -0.0180      56.7100      42.6790     589.4660       8.9190       2.6390
   2074.1643       6.2430      -0.0180    -999.2500      39.7289     589.7006       8.2897       2.6360
   2074.3169       6.2430      -0.0180    -999.2500      36.7820     589.9350       7.6610       2.6330
   2074.4692       6.1910      -0.0115    -999.2500      36.8820     690.5399       8.6215       2.6135
   2074.6216       6.1390      -0.0050    -999.2500      36.9820     791.0490       9.5810       2.5940
   2074.7739       6.1910      -0.0130    -999.2500      38.7317     806.5464       9.4795       2.5565
   2074.9263       6.2430      -0.0210    -999.2500      40.4800     822.0310       9.3780       2.5190
   2075.0789       6.1909      -0.0080    -999.2500      40.0795    1185.1653       8.8769       2.5465
   2075.2312       6.1390       0.0050    -999.2500      39.6800    1547.4640       8.3770       2.5740
   2075.3835       6.1911      -0.0035    -999.2500      40.4323     918.2009       7.2568       2.6241
   2075.5359       6.2430      -0.0120    -999.2500      41.1830     290.3060       6.1390       2.6740
   2075.6885       6.1909      -0.0075    -999.2500      42.5319     245.6052       5.5789       2.7100
   2075.8408       6.1390      -0.0030    -999.2500      43.8780     200.9960       5.0200       2.7460
   2075.9932       6.1390       0.0005    -999.2500      43.3280     170.0798       5.0705       2.7350
   2076.1455       6.1390       0.0040    -999.2500      42.7790     139.2230       5.1210       2.7240
   2076.2981       6.1390      -0.0060    -999.2500      42.2230     137.3283       5.2306       2.7090
   2076.4504       6.1390      -0.0160    -999.2500      41.6680     135.4370       5.3400       2.6940
   2076.6028       6.1910      -0.0110    -999.2500      40.4230     144.0742       5.3705       2.7170
   2076.7551       6.2430      -0.0060    -999.2500      39.1800     152.6970       5.4010       2.7400
   2076.9075       6.1910       0.0100    -999.2500      39.8305     212.5704       6.1531       2.7200
   2077.0601       6.1390       0.0260    -999.2500      40.4800     272.3510       6.9040       2.7000
   2077.2124       6.1390       0.0150    -999.2500      39.9321     267.4320       8.1349       2.6475
   2077.3647       6.1390       0.0040    -999.2500      39.3850     262.5200       9.3640       2.5950
   2077.5171       6.1390      -0.0060    -999.2500      41.9332     272.6676       9.9829       2.5950
   2077.6697       6.1390      -0.0160    -999.2500      44.4780     282.8020      10.6010       2.5950
   2077.8220       6.1390      -0.0160    -999.2500      44.4775     403.4131      10.3403       2.5765
   2077.9744       6.1390      -0.0160    -999.2500      44.4770     523.8830      10.0800       2.5580
   2078.1267       6.1910      -0.0085    -999.2500      41.8271    1064.9352      10.0005       2.5040
   2078.2793       6.2430      -0.0010    -999.2500      39.1800    1605.4210       9.9210       2.4500
   2078.4316       6.1910      -0.0070    -999.2500      40.7302    1590.7917      10.0611       2.4275
   2078.5840       6.1390      -0.0130    -999.2500      42.2790    1576.1760      10.2010       2.4050
   2078.7363       6.1390      -0.0170    -999.2500      40.9290    1576.1760      10.0109       2.4205
   2078.8887       6.1390      -0.0210    -999.2500      39.5800    1576.1760       9.8210       2.4360
   2079.0413       6.1390      -0.0210    -999.2500      41.2314    1576.1760       9.8911       2.4560
   2079.1936       6.1390      -0.0210    -999.2500      42.8790    1576.1760       9.9610       2.4760
   2079.3459       6.1911      -0.0145    -999.2500      42.9786    1576.1760      10.0511       2.4895
   2079.4983       6.2430      -0.0080    -999.2500      43.0780    1576.1760      10.1410       2.5030
   2079.6509       6.2430      -0.0095    -999.2500      42.7767    1576.1760      10.2011       2.5055
   2079.8032       6.2430      -0.0110    -999.2500      42.4760    1576.1760      10.2610       2.5080
   2079.9556       6.1910      -0.0130    -999.2500      41.1768    1576.1760      10.2009       2.5125
   2080.1079       6.1390      -0.0150    -999.2500      39.8800    1576.1760      10.1410       2.5170
   2080.2605       6.1395      -0.0040    -999.2500      40.3809    1561.8073      10.1710       2.5345
   2080.4128       6.1400       0.0070    -999.2500      40.8810    1547.4640      10.2010       2.5520
   2080.5652       6.1915      -0.0000    -999.2500      41.0807    1561.8318      10.2310       2.5370
   2080.7175       6.2430      -0.0070    -999.2500      41.2800    1576.1760      10.2610       2.5220
   2080.8699       6.1910      -0.0065    -999.2500      41.5802    1576.1760      10.3411       2.5065
   2081.0225       6.1390      -0.0060    -999.2500      41.8800    1576.1760      10.4210       2.4910
   2081.1748       6.1910      -0.0045    -999.2500      42.6806    1561.8101      10.4010       2.4995
   2081.3271       6.2430      -0.0030    -999.2500      43.4800    1547.4640      10.3810       2.5080
   2081.4795       6.1655      -0.0045    -999.2500      43.8793    1547.4640      10.4616       2.4995
   2081.6321       6.0880      -0.0060    -999.2500      44.2780    1547.4640      10.5420       2.4910
   2081.7844       5.9844       0.0090    -999.2500      42.9778    1547.4640      10.7416       2.5235
   2081.9368       5.8810       0.0240    -999.2500      41.6790    1547.4640      10.9410       2.5560
