#------------------------------------------------------------------------------
#
#   Created by  : [OpenWorks] Log Export Utility (LEXP)
#   Created on  : 2016-05-23 11:57:24
#   Project     : CANT971
#   User        : R5K
#   Interpreter : PEP
#
#------------------------------------------------------------------------------
~VERSION INFORMATION
VERS. 2.0 : CWLS Log ASCII Standard - version 2.0
WRAP.  NO : One line per depth step
~WELL INFORMATION
#MNEMONIC   .UNIT                                           VALUE :DESCRIPTION
#------------------------------------------------------------------------------
STRT        .M                                           648.1292 :START DEPTH
STOP        .M                                          2685.5647 :STOP DEPTH
STEP        .M                                             0.1524 :STEP
NULL        .                                           -999.2500 :NULL VALUE
COMP        .                                   PEMEX EXPL & PROD :COMPANY
WELL        .                                                 81D :WELL
FLD         .                                           CANTARELL :FIELD
LOC         .                                             UNKNOWN :LOCATION
CNTY        .                                      CD. DEL CARMEN :COUNTY
STAT        .                                            CAMPECHE :STATE
CTRY        .                                              MEXICO :COUNTRY
SRVC        .                                             UNKNOWN :SERVICE COMPANY
DATE        .                                             UNKNOWN :LOG DATE
UWI         .                                          3060000666 :UNIQUE WELL ID
XCOORD      .                                       601717.100000 :SURFACE X
YCOORD      .                                      2142375.260000 :SURFACE Y
LAT         .                                           19.374067 :LATITUDE
LON         .                                          -92.031430 :LONGITUDE
ELEV        .M                                            30.0000 :SURFACE ELEV
ELEV_TYPEF  .b/elec                                            KB :ELEV TYPE
~CURVE INFORMATION
#MNEMONIC.UNIT        API CODE       : CURVE DESCRIPTION
#------------------------------------------------------------------------------
DEPTH    .M                          : Measured Depth
CALI     .in          UNKNOWN        : CALI:UNKNOWN:rC:NONE:v0 (auto-composite)
CGR      .API         UNKNOWN        : CGR:UNKNOWN:rC:NONE:v0 (auto-composite)
DRHO     .g/cm3       UNKNOWN        : DRHO:UNKNOWN:rC:NONE:v0 (auto-composite)
DT       .us/ft       UNKNOWN        : DT:DT:rC:NONE:v0 (auto-composite)
GR       .API         UNKNOWN        : GR:UNKNOWN:rC:NONE:v0 (auto-composite)
ILD      .ohmm        UNKNOWN        : ILD:UNKNOWN:rC:NONE:v0 (auto-composite)
ILM      .ohmm        UNKNOWN        : ILM:UNKNOWN:rC:NONE:v0 (auto-composite)
LLD      .ohmm        UNKNOWN        : LLD:UNKNOWN:rC:NONE:v0 (auto-composite)
LLS      .ohmm        UNKNOWN        : LLS:UNKNOWN:rC:NONE:v0 (auto-composite)
NPHI     .v/v_decimal UNKNOWN        : NPHI:NPHI:rC:NONE:v0 (auto-composite)
PEF      .b/elec      UNKNOWN        : PEF:UNKNOWN:rC:NONE:v0 (auto-composite)
POTA     .%           UNKNOWN        : POTA:UNKNOWN:rC:NONE:v0 (auto-composite)
RHOB     .g/cm3       UNKNOWN        : RHOB:UNKNOWN:rC:NONE:v0 (auto-composite)
THOR     .ppm         UNKNOWN        : THOR:UNKNOWN:rC:NONE:v0 (auto-composite)
URAN     .ppm         UNKNOWN        : URAN:UNKNOWN:rC:NONE:v0 (auto-composite)
~A     DEPTH         CALI          CGR         DRHO           DT           GR          ILD          ILM          LLD          LLS         NPHI          PEF         POTA         RHOB         THOR         URAN
# ...
   1539.6692      17.0151    -999.2500       0.0226     122.6456      44.5118       0.8274       0.9375    -999.2500    -999.2500      26.3525       5.1503    -999.2500       2.4554    -999.2500    -999.2500
   1539.8217      16.9424    -999.2500       0.0189     121.1696      43.6212       0.8393       0.9503    -999.2500    -999.2500      25.2856       5.2032    -999.2500       2.4391    -999.2500    -999.2500
   1539.9740      16.8392    -999.2500       0.0154     118.6612      43.1379       0.8533       0.9643    -999.2500    -999.2500      23.7073       5.2513    -999.2500       2.4220    -999.2500    -999.2500
   1540.1265      16.6364    -999.2500       0.0150     113.8308      47.1083       0.8581       0.9576    -999.2500    -999.2500      24.0274       5.1495    -999.2500       2.4178    -999.2500    -999.2500
   1540.2788      16.4204    -999.2500       0.0150     109.0162      51.6726       0.8616       0.9481    -999.2500    -999.2500      24.9872       5.0278    -999.2500       2.4153    -999.2500    -999.2500
   1540.4312      16.2493    -999.2500       0.0208     107.4453      50.1078       0.8341       0.9177    -999.2500    -999.2500      27.2754       5.0162    -999.2500       2.4270    -999.2500    -999.2500
   1540.5836      16.0838    -999.2500       0.0273     106.9524      47.7628       0.8026       0.8848    -999.2500    -999.2500      29.6148       5.0187    -999.2500       2.4405    -999.2500    -999.2500
   1540.7360      16.0477    -999.2500       0.0271     106.0307      45.6825       0.7799       0.8579    -999.2500    -999.2500      29.2204       5.0754    -999.2500       2.4433    -999.2500    -999.2500
   1540.8884      16.0281    -999.2500       0.0261     104.7419      43.6361       0.7583       0.8318    -999.2500    -999.2500      28.0960       5.1391    -999.2500       2.4448    -999.2500    -999.2500
   1541.0408      16.0487    -999.2500       0.0291     100.8722      43.8485       0.7533       0.8241    -999.2500    -999.2500      28.7625       5.1015    -999.2500       2.4535    -999.2500    -999.2500
   1541.1932      16.0742    -999.2500       0.0326      96.7439      44.3373       0.7503       0.8186    -999.2500    -999.2500      29.6592       5.0515    -999.2500       2.4630    -999.2500    -999.2500
   1541.3456      16.1484    -999.2500       0.0357      94.0495      43.7201       0.7562       0.8242    -999.2500    -999.2500      29.7740       5.0839    -999.2500       2.4578    -999.2500    -999.2500
   1541.4980      16.2286    -999.2500       0.0387      91.9297      42.9663       0.7633       0.8313    -999.2500    -999.2500      29.5577       5.1265    -999.2500       2.4507    -999.2500    -999.2500
   1541.6504      16.4425    -999.2500       0.0350      90.5122      42.4002       0.7676       0.8365    -999.2500    -999.2500      28.7299       5.2023    -999.2500       2.4527    -999.2500    -999.2500
   1541.8029      16.6721    -999.2500       0.0304      89.1639      41.8562       0.7716       0.8415    -999.2500    -999.2500      28.1795       5.2821    -999.2500       2.4557    -999.2500    -999.2500
   1541.9552      16.5938    -999.2500       0.0363      87.8914      43.8455       0.7680       0.8357    -999.2500    -999.2500      28.9326       5.3012    -999.2500       2.4695    -999.2500    -999.2500
   1542.1077      16.4814    -999.2500       0.0433      86.7664      46.1151       0.7635       0.8287    -999.2500    -999.2500      30.2232       5.3137    -999.2500       2.4845    -999.2500    -999.2500
   1542.2600      16.3582    -999.2500       0.0390      94.6997      45.7191       0.7589       0.8343    -999.2500    -999.2500      28.5511       5.1510    -999.2500       2.4747    -999.2500    -999.2500
   1542.4124      16.2339    -999.2500       0.0335     103.4349      45.0227       0.7544       0.8413    -999.2500    -999.2500      26.6255       4.9685    -999.2500       2.4622    -999.2500    -999.2500
   1542.5648      16.4388    -999.2500       0.0353     110.6263      43.7114       0.7635       0.8506    -999.2500    -999.2500      25.2428       4.8855    -999.2500       2.4511    -999.2500    -999.2500
   1542.7172      16.6786    -999.2500       0.0378     116.0447      42.3351       0.7740       0.8601    -999.2500    -999.2500      24.2416       4.8131    -999.2500       2.4401    -999.2500    -999.2500
   1542.8696      16.9084    -999.2500       0.0385     111.6027      41.5548       0.7659       0.8438    -999.2500    -999.2500      24.6792       4.7874    -999.2500       2.4340    -999.2500    -999.2500
   1543.0220      17.1370    -999.2500       0.0390     104.8543      40.8388       0.7559       0.8248    -999.2500    -999.2500      25.4942       4.7669    -999.2500       2.4285    -999.2500    -999.2500
   1543.1744      17.3306    -999.2500       0.0404      99.3789      41.7301       0.7413       0.8084    -999.2500    -999.2500      26.4036       4.8274    -999.2500       2.4362    -999.2500    -999.2500
   1543.3268      17.5206    -999.2500       0.0419      94.9176      42.7840       0.7263       0.7924    -999.2500    -999.2500      27.2724       4.8961    -999.2500       2.4452    -999.2500    -999.2500
   1543.4792      17.3763    -999.2500       0.0406      93.4118      43.8591       0.7232       0.7969    -999.2500    -999.2500      27.8427       4.9846    -999.2500       2.4528    -999.2500    -999.2500
   1543.6316      17.2005    -999.2500       0.0391      93.2256      44.9362       0.7212       0.8034    -999.2500    -999.2500      28.2640       5.0750    -999.2500       2.4603    -999.2500    -999.2500
   1543.7841      16.8279    -999.2500       0.0285      98.8868      45.6035       0.7329       0.8177    -999.2500    -999.2500      27.7351       5.5718    -999.2500       2.4057    -999.2500    -999.2500
   1543.9364      16.4363    -999.2500       0.0170     105.2122      46.2313       0.7459       0.8328    -999.2500    -999.2500      27.0668       6.1078    -999.2500       2.3450    -999.2500    -999.2500
   1544.0889      16.4072    -999.2500       0.0119     110.8125      45.7480       0.7498       0.8285    -999.2500    -999.2500      26.4044       6.4885    -999.2500       2.3230    -999.2500    -999.2500
   1544.2412      16.4107    -999.2500       0.0074     116.1086      45.1650       0.7527       0.8225    -999.2500    -999.2500      25.7445       6.8552    -999.2500       2.3046    -999.2500    -999.2500
   1544.3936      16.4670    -999.2500       0.0245     113.3913      43.8614       0.7291       0.7963    -999.2500    -999.2500      28.9885       6.6311    -999.2500       2.3586    -999.2500    -999.2500
   1544.5460      16.5282    -999.2500       0.0435     110.3157      42.4916       0.7030       0.7682    -999.2500    -999.2500      32.0903       6.3529    -999.2500       2.4192    -999.2500    -999.2500
   1544.6984      16.7205    -999.2500       0.0395     108.6335      44.0258       0.6858       0.7521    -999.2500    -999.2500      33.3432       5.7593    -999.2500       2.4402    -999.2500    -999.2500
   1544.8508      16.9240    -999.2500       0.0334     107.6085      45.8075       0.6692       0.7371    -999.2500    -999.2500      33.6343       5.1388    -999.2500       2.4577    -999.2500    -999.2500
   1545.0032      16.8270    -999.2500       0.0349     107.6979      50.0861       0.6726       0.7369    -999.2500    -999.2500      31.4121       4.8977    -999.2500       2.4488    -999.2500    -999.2500
   1545.1556      16.7060    -999.2500       0.0369     108.2279      54.5636       0.6776       0.7379    -999.2500    -999.2500      29.2696       4.6867    -999.2500       2.4378    -999.2500    -999.2500
   1545.3080      16.5629    -999.2500       0.0444     109.9405      55.6566       0.6794       0.7306    -999.2500    -999.2500      29.7576       4.7443    -999.2500       2.4542    -999.2500    -999.2500
   1545.4604      16.4180    -999.2500       0.0524     112.2329      56.4763       0.6809       0.7226    -999.2500    -999.2500      30.7427       4.8235    -999.2500       2.4727    -999.2500    -999.2500
