#------------------------------------------------------------------------------
#
#   Created by  : [OpenWorks] Log Export Utility (LEXP)
#   Created on  : 2016-05-12 17:01:19
#   Project     : CANT971
#   User        : R5K
#   Interpreter : PEP
#
#------------------------------------------------------------------------------
~VERSION INFORMATION
VERS. 2.0 : CWLS Log ASCII Standard - version 2.0
WRAP.  NO : One line per depth step
~WELL INFORMATION
#MNEMONIC   .UNIT                                           VALUE :DESCRIPTION
#------------------------------------------------------------------------------
STRT        .M                                           300.0760 :START DEPTH
STOP        .M                                          2081.9368 :STOP DEPTH
STEP        .M                                             0.1524 :STEP
NULL        .                                           -999.2500 :NULL VALUE
COMP        .                                   PEMEX EXPL & PROD :COMPANY
WELL        .                                                  37 :WELL
FLD         .                                           CANTARELL :FIELD
LOC         .                                             UNKNOWN :LOCATION
CNTY        .                                      CD. DEL CARMEN :COUNTY
STAT        .                                            CAMPECHE :STATE
CTRY        .                                              MEXICO :COUNTRY
SRVC        .                                             UNKNOWN :SERVICE COMPANY
DATE        .                                             UNKNOWN :LOG DATE
UWI         .                                          3060000160 :UNIQUE WELL ID
XCOORD      .                                       602154.560000 :SURFACE X
YCOORD      .                                      2147169.070000 :SURFACE Y
LAT         .                                           19.417364 :LATITUDE
LON         .                                          -92.027009 :LONGITUDE
ELEV        .M                                            28.1700 :SURFACE ELEV
ELEV_TYPE   .                                                  KB :ELEV TYPE
~CURVE INFORMATION
#MNEMONIC.UNIT        API CODE       : CURVE DESCRIPTION
#------------------------------------------------------------------------------
DEPTH    .M                          : Measured Depth
CALI     .inches      UNKNOWN        : CALI:Import:rC:NONE:v0 (auto-composite)
DRHO     .g/cm3       UNKNOWN        : DRHO:Import:rC:NONE:v0 (auto-composite)
DT       .us/ft       UNKNOWN        : DT:Import:rC:NONE:v0 (auto-composite)
GR       .API         UNKNOWN        : GR:Import:rC:NONE:v0 (auto-composite)
ILD      .ohm.m       UNKNOWN        : ILD:Import:rC:NONE:v0 (auto-composite)
NPHI     .v/v_decimal UNKNOWN        : NPHI:Import:rC:NONE:v0 (auto-composite)
RHOB     .g/cm3       UNKNOWN        : RHOB:Import:rC:NONE:v0 (auto-composite)
~A     DEPTH         CALI         DRHO           DT           GR          ILD         NPHI         RHOB
# ...
   1942.9480    -999.2500    -999.2500    -999.2500     145.5670    -999.2500      16.3420    -999.2500
   1943.1003    -999.2500    -999.2500    -999.2500     145.8247    -999.2500      15.6240    -999.2500
   1943.2528    -999.2500    -999.2500    -999.2500     146.0820    -999.2500      14.9070    -999.2500
   1943.4052    -999.2500    -999.2500    -999.2500     145.6817    -999.2500      10.4811    -999.2500
   1943.5576    -999.2500    -999.2500    -999.2500     145.2820    -999.2500       6.0610    -999.2500
   1943.7100    -999.2500    -999.2500    -999.2500     144.4362    -999.2500       5.2942    -999.2500
   1943.8624    -999.2500    -999.2500    -999.2500     143.5920    -999.2500       4.5290    -999.2500
   1944.0148    -999.2500    -999.2500    -999.2500    -999.2500    -999.2500       4.5285    -999.2500
   1944.1672    -996.0270    -996.0470    -995.8680    -999.2500    -999.2500       4.5280    -996.0390
   1944.3196    -494.2613    -497.3932    -465.4053    -999.2500    -999.2500       4.8824    -496.1182
   1944.4720       6.2430       0.0070      63.7240    -999.2500   99999.0156       5.2360       2.5460
   1944.6244       6.2430       0.0035      66.4307    -999.2500   92579.3906       6.3008       2.5370
   1944.7767       6.2430       0.0000      69.1310    -999.2500   85165.6172       7.3630       2.5280
   1944.9292       6.1909      -0.0015      69.9479    -999.2500   42574.0312       9.3763       2.5320
   1945.0815       6.1390      -0.0030      70.7630    -999.2500      10.7080      11.3850       2.5360
   1945.2340       6.1390      -0.0075      74.1456    -999.2500       9.2720      14.5764       2.5230
   1945.3864       6.1390      -0.0120      77.5210    -999.2500       7.8380      17.7610       2.5100
   1945.5388       6.1911      -0.0020      83.2523    -999.2500       7.9861      21.8556       2.4880
   1945.6912       6.2430       0.0080      88.9720    -999.2500       8.1340      25.9420       2.4660
   1945.8436       6.1910       0.0005      81.9464    -999.2500       8.5659      23.4942       2.4750
   1945.9960       6.1390      -0.0070      74.9340    -999.2500       8.9970      21.0510       2.4840
   1946.1484       6.1911      -0.0005      70.5579    -999.2500       9.3878      16.3118       2.5316
   1946.3008       6.2430       0.0060      66.1930    -999.2500       9.7780      11.5810       2.5790
   1946.4532       6.2430       0.0130      68.1437    -999.2500      11.2702      12.8741       2.5660
   1946.6056       6.2430       0.0200      70.0880    -999.2500      12.7600      14.1650       2.5530
   1946.7579       6.2430       0.0105      72.0641    -999.2500      13.5036      15.9268       2.5330
   1946.9104       6.2430       0.0010      74.0340    -999.2500      14.2460      17.6860       2.5130
   1947.0627       6.2430       0.0055      76.1006    -999.2500      14.1810      18.4150       2.5205
   1947.2152       6.2430       0.0100      78.1610    -999.2500      14.1160      19.1430       2.5280
   1947.3676       6.2430       0.0050      77.6913    -999.2500      14.5873      19.6023       2.5235
   1947.5200       6.2430       0.0000      77.2230    -999.2500      15.0580      20.0610       2.5190
   1947.6724       6.2685       0.0005      75.0806    -999.2500      17.7245      16.6677       2.5245
   1947.8248       6.2940       0.0010      72.9440    -999.2500      20.3880      13.2810       2.5300
   1947.9772       6.2685       0.0055      70.5594    -999.2500      19.3150      13.8733       2.5500
   1948.1296       6.2430       0.0100      68.1810    -999.2500      18.2430      14.4640       2.5700
   1948.2820       6.2430       0.0150      68.9484    -999.2500      14.4253      15.2670       2.5480
   1948.4344       6.2430       0.0200      69.7140    -999.2500      10.6110      16.0680       2.5260
   1948.5868       6.2430       0.0080      72.6264    -999.2500       9.1875      17.5217       2.5260
   1948.7391       6.2430      -0.0040      75.5320    -999.2500       7.7650      18.9720       2.5260
   1948.8916       6.2430       0.0025      83.4844    -999.2500       7.3597      23.4920       2.4709
   1949.0439       6.2430       0.0090      91.4190    -999.2500       6.9550      28.0020       2.4160
   1949.1964       6.2430       0.0020      90.3048    -999.2500       7.0861      27.2647       2.3950
   1949.3488       6.2430      -0.0050      89.1930    -999.2500       7.2170      26.5290       2.3740
   1949.5012       6.2430      -0.0010      84.1035    -999.2500       7.8681      22.9014       2.4065
   1949.6536       6.2430       0.0030      79.0240    -999.2500       8.5180      19.2810       2.4390
   1949.8060       6.2430       0.0075      79.3743    -999.2500      10.3002      19.5613       2.4175
   1949.9584       6.2430       0.0120      79.7240    -999.2500      12.0790      19.8410       2.3960
   1950.1108       6.2430       0.0125      85.4738    -999.2500      14.2179      17.6791       2.4446
   1950.2632       6.2430       0.0130      91.2090    -999.2500      16.3530      15.5210       2.4930
   1950.4156       6.2430       0.0145      97.6138      43.6630      16.5041      16.0329       2.4845
   1950.5680       6.2430       0.0160     103.9980      43.6630      16.6550      16.5440       2.4760
   1950.7203       6.2430       0.0150     109.3442      40.2200      14.3013      18.0701       2.4414
   1950.8728       6.2430       0.0140     114.6740      36.7820      11.9510      19.5940       2.4070
   1951.0251       6.2430       0.0080     116.3019      38.1384       9.2327      23.9650       2.3699
   1951.1776       6.2430       0.0020     117.9250      39.4930       6.5180      28.3300       2.3330
   1951.3300       6.2685       0.0100     120.3139      46.3072       5.4138      30.4273       2.3355
   1951.4824       6.2940       0.0180     122.6960      53.1130       4.3110      32.5220       2.3380
   1951.6348       6.2685       0.0215     120.2267      63.1045       4.0689      32.1396       2.3455
   1951.7872       6.2430       0.0250     117.7640      73.0770       3.8270      31.7580       2.3530
   1951.9396       6.2430       0.0155     112.8176      76.6731       4.1937      26.3931       2.3931
   1952.0920       6.2430       0.0060     107.8840      80.2600       4.5600      21.0420       2.4330
   1952.2444       6.2430       0.0060     106.7536      77.4010       5.7280      19.8100       2.4330
   1952.3967       6.2430       0.0060     105.6260      74.5490       6.8950      18.5810       2.4330
   1952.5492       6.2430       0.0130     102.8863      59.1456      10.0702      18.5810       2.4580
   1952.7015       6.2430       0.0200     100.1530      43.7780      13.2430      18.5810       2.4830
   1952.8540       6.2430       0.0140      94.4642      44.5398      15.5051      17.6800       2.4555
   1953.0063       6.2430       0.0080      88.7880      45.3000      17.7640      16.7810       2.4280
   1953.1588       6.2430       0.0140      83.9660      53.9995      18.2685      17.2340       2.4735
   1953.3112       6.2430       0.0200      79.1540      62.6810      18.7720      17.6860       2.5190
   1953.4636       6.2430       0.0125      77.4834      66.0263      20.9822      19.1249       2.5185
   1953.6160       6.2430       0.0050      75.8160      69.3650      23.1880      20.5610       2.5180
   1953.7684       6.2430      -0.0025      75.3506      64.9019      22.8727      20.4609       2.5200
   1953.9208       6.2430      -0.0100      74.8860      60.4470      22.5580      20.3610       2.5220
   1954.0732       6.2430      -0.0135      75.1352      52.1034      22.4544      20.0903       2.5255
   1954.2256       6.2430      -0.0170      75.3840      43.7740      22.3510      19.8200       2.5290
   1954.3779       6.2430      -0.0035      76.7877      42.6756      23.8872      19.4702       2.4809
   1954.5304       6.2430       0.0100      78.1880      41.5790      25.4210      19.1210       2.4330
