#------------------------------------------------------------------------------
#
#   Created by  : [OpenWorks] Log Export Utility (LEXP)
#   Created on  : 2016-05-23 11:50:23
#   Project     : CANT971
#   User        : R5K
#   Interpreter : PEP
#
#------------------------------------------------------------------------------
~VERSION INFORMATION
VERS. 2.0 : CWLS Log ASCII Standard - version 2.0
WRAP.  NO : One line per depth step
~WELL INFORMATION
#MNEMONIC   .UNIT                                           VALUE :DESCRIPTION
#------------------------------------------------------------------------------
STRT        .M                                           790.6004 :START DEPTH
STOP        .M                                          2649.8804 :STOP DEPTH
STEP        .M                                             0.1524 :STEP
NULL        .                                           -999.2500 :NULL VALUE
COMP        .                                             UNKNOWN :COMPANY
WELL        .                                               1012D :WELL
FLD         .                                             UNKNOWN :FIELD
LOC         .                                             UNKNOWN :LOCATION
CNTY        .                                             UNKNOWN :COUNTY
STAT        .                                             UNKNOWN :STATE
CTRY        .                                             UNKNOWN :COUNTRY
SRVC        .                                             UNKNOWN :SERVICE COMPANY
DATE        .                                             UNKNOWN :LOG DATE
UWI         .                                               1012D :UNIQUE WELL ID
XCOORD      .                                       594334.990000 :SURFACE X
YCOORD      .                                      2152041.060000 :SURFACE Y
LAT         .                                           19.461774 :LATITUDE
LON         .                                          -92.101239 :LONGITUDE
ELEV        .M                                             0.0000 :SURFACE ELEV
ELEV_TYPE   .                                                  KB :ELEV TYPE
~CURVE INFORMATION
#MNEMONIC.UNIT        API CODE       : CURVE DESCRIPTION
#------------------------------------------------------------------------------
DEPTH    .M                          : Measured Depth
DT       .us/ft       UNKNOWN        : DT:UNKNOWN:rC:NONE:v0 (auto-composite)
GR       .API         UNKNOWN        : GR:PETROWORKS:rC:NONE:v1 
GR-LWD   .API         UNKNOWN        : GR-LWD:PETROWORKS:rC:NONE:v1 
ILD      .ohm.m       UNKNOWN        : ILD:resistivos:rC:NONE:v0 (auto-composite)
ILD-LWD  .ohm.m       UNKNOWN        : ILD-LWD:PETROWORKS:rC:NONE:v1 
ILM      .ohm.m       UNKNOWN        : ILM:resistivos:rC:NONE:v0 (auto-composite)
ILM-LWD  .ohm.m       UNKNOWN        : ILM-LWD:PETROWORKS:rC:NONE:v1 
~A     DEPTH           DT           GR       GR-LWD          ILD      ILD-LWD          ILM      ILM-LWD
# ...
   2539.0857    -999.2500    -999.2500      33.5445       3.1185       1.4939       3.1917       1.4637
   2539.2380    -999.2500    -999.2500      33.0600       3.2257       1.9604       3.4161       1.8103
   2539.3904    -999.2500    -999.2500      36.0362       3.3122       1.8431       3.6619       1.8266
   2539.5427    -999.2500    -999.2500      37.5200       3.3965       1.3194       3.8709       1.3761
   2539.6953    -999.2500    -999.2500      35.5159       3.4756       1.0966       3.9853       1.1132
   2539.8477    -999.2500    -999.2500      36.5220       3.5568       1.3069       4.0040       1.2602
   2540.0000    -999.2500    -999.2500      42.8841       3.6198       1.1932       3.9857       1.1699
   2540.1523    -999.2500    -999.2500      43.3504       3.6138       1.0466       3.9775       1.0466
   2540.3047    -999.2500    -999.2500      42.2500       3.5558       1.0634       3.9546       1.0300
   2540.4573    -999.2500    -999.2500      43.3442       3.4105       1.1467       3.8383       1.0967
   2540.6096    -999.2500    -999.2500      46.1446       3.1787       1.0533       3.5856       1.0033
   2540.7620    -999.2500    -999.2500      47.2700       2.9671       0.9566       3.2464       0.9400
   2540.9143    -999.2500    -999.2500      48.4253       2.8119       1.1003       2.9082       1.0669
   2541.0669    -999.2500    -999.2500      51.3786       2.6780       1.4740       2.6163       1.3238
   2541.2192    -999.2500    -999.2500      49.0292       2.5485       1.4398       2.3637       1.2999
   2541.3716    -999.2500    -999.2500      47.2700       2.4361       1.3500       2.1302       1.2400
   2541.5239    -999.2500    -999.2500      50.8019       2.3677       1.3967       1.9136       1.2734
   2541.6765    -999.2500    -999.2500      57.5702       2.3245       1.4200       1.7283       1.2900
   2541.8289    -999.2500    -999.2500      55.0550       2.2856       1.5535       1.5874       1.4168
   2541.9812    -999.2500    -999.2500      55.0218       2.2503       1.6734       1.4950       1.5267
   2542.1335    -999.2500    -999.2500      51.4104       2.2236       1.9203       1.4467       1.7569
   2542.2859    -999.2500    -999.2500      50.1822       2.2078       2.2304       1.4335       2.0403
   2542.4385    -999.2500    -999.2500      48.4348       2.1997       2.1298       1.4435       2.0032
   2542.5908    -999.2500    -999.2500      54.5207       2.1957       1.9166       1.4636       1.7265
   2542.7432    -999.2500    -999.2500      54.4159       2.1948       1.6531       1.4811       1.5266
   2542.8955    -999.2500    -999.2500      55.0241       2.1961       1.4164       1.4877       1.3531
   2543.0481    -999.2500    -999.2500      52.5886       2.1987       1.2364       1.4823       1.2165
   2543.2004    -999.2500    -999.2500      53.1862       2.2022       1.1800       1.4700       1.1800
   2543.3528    -999.2500    -999.2500      51.9744       2.2057       1.3401       1.4575       1.3401
   2543.5051    -999.2500    -999.2500      53.1869       2.2172       1.6069       1.4494       1.5535
   2543.6577    -999.2500    -999.2500      54.3900       2.2276       1.7468       1.4468       1.7202
   2543.8101    -999.2500    -999.2500      49.6387       2.2320       1.7700       1.4480       1.7700
   2543.9624    -999.2500    -999.2500      53.2611       2.2346       1.6699       1.4504       1.6232
   2544.1147    -999.2500    -999.2500      53.7868       2.2369       1.4865       1.4520       1.5033
   2544.2671    -999.2500    -999.2500      55.0245       2.2388       1.5068       1.4522       1.5268
   2544.4197    -999.2500    -999.2500      53.7881       2.2403       1.4166       1.4516       1.4166
   2544.5720    -999.2500    -999.2500      52.5600       2.2415       1.3500       1.4510       1.3500
   2544.7244    -999.2500    -999.2500      51.3654       2.2423       1.3100       1.4515       1.3100
   2544.8767    -999.2500    -999.2500      48.4328       2.2428       1.2566       1.4529       1.2165
   2545.0293    -999.2500    -999.2500      53.2699       2.2433       1.1331       1.4546       1.1132
   2545.1816    -999.2500    -999.2500      50.2564       2.2436       0.9599       1.4559       0.8864
   2545.3340    -999.2500    -999.2500      54.5233       2.2439       0.7999       1.4564       0.7633
   2545.4863    -999.2500    -999.2500      59.4219       2.2442       0.7967       1.4560       0.7967
   2545.6389    -999.2500    -999.2500      62.6920       2.2444       0.8734       1.4552       0.8467
   2545.7913    -999.2500    -999.2500      58.8283       2.2446       0.8466       1.4545       0.8333
   2545.9436    -999.2500    -999.2500      53.7882       2.2448       0.9334       1.4542       0.8734
   2546.0959    -999.2500    -999.2500      56.2847       2.2449       1.0501       1.4544       0.9601
   2546.2483    -999.2500    -999.2500      54.4132       2.2450       1.1134       1.4548       0.9566
   2546.4009    -999.2500    -999.2500      52.5600       2.2452       0.9032       1.4552       0.8132
   2546.5532    -999.2500    -999.2500      55.0213    -999.2500       0.8634    -999.2500       0.8234
   2546.7056    -999.2500    -999.2500      57.5114    -999.2500       0.9601    -999.2500       0.9134
   2546.8579    -999.2500    -999.2500      59.4221    -999.2500       1.0167    -999.2500       0.9734
   2547.0105    -999.2500    -999.2500      60.0600    -999.2500       1.0033    -999.2500       0.9566
   2547.1628    -999.2500    -999.2500      61.3682    -999.2500       0.9900    -999.2500       0.9400
   2547.3152    -999.2500    -999.2500      59.4310    -999.2500       0.9299    -999.2500       0.9133
   2547.4675    -999.2500    -999.2500      58.1400    -999.2500       0.9000    -999.2500       0.8733
   2547.6201    -999.2500    -999.2500      59.4226    -999.2500       0.9000    -999.2500       0.8333
   2547.7725    -999.2500    -999.2500      61.3679    -999.2500       0.7799    -999.2500       0.7533
   2547.9248    -999.2500    -999.2500      59.4315    -999.2500       0.8134    -999.2500       0.7667
   2548.0771    -999.2500    -999.2500      58.1400    -999.2500       0.8600    -999.2500       0.7900
   2548.2295    -999.2500    -999.2500      60.7314    -999.2500       0.8333    -999.2500       0.7900
   2548.3821    -999.2500    -999.2500      60.7123    -999.2500       0.8200    -999.2500       0.7900
   2548.5344    -999.2500    -999.2500      53.8635    -999.2500       0.9000    -999.2500       0.8901
   2548.6868    -999.2500    -999.2500      50.7700    -999.2500       0.9734    -999.2500       0.9734
   2548.8391    -999.2500    -999.2500      51.9653    -999.2500       0.9566    -999.2500       0.9566
   2548.9917    -999.2500    -999.2500      51.3641    -999.2500       1.0335    -999.2500       1.0001
   2549.1440    -999.2500    -999.2500      49.5887    -999.2500       1.0800    -999.2500       1.0634
   2549.2964    -999.2500    -999.2500      52.5965    -999.2500       0.9866    -999.2500       0.9599
   2549.4487    -999.2500    -999.2500      56.8936    -999.2500       0.9400    -999.2500       0.9267
   2549.6013    -999.2500    -999.2500      58.1400    -999.2500       0.9133    -999.2500       0.9133
   2549.7537    -999.2500    -999.2500      56.8788    -999.2500       0.9267    -999.2500       0.9000
   2549.9060    -999.2500    -999.2500      53.7883    -999.2500       0.9734    -999.2500       0.9600
   2550.0583    -999.2500    -999.2500      53.7815    -999.2500       0.9032    -999.2500       0.9032
   2550.2107    -999.2500    -999.2500      51.9723    -999.2500       0.9134    -999.2500       0.9134
   2550.3633    -999.2500    -999.2500      50.7700    -999.2500       0.9400    -999.2500       0.9400
   2550.5156    -999.2500    -999.2500      53.1865    -999.2500       0.9133    -999.2500       0.9133
   2550.6680    -999.2500    -999.2500      59.4821    -999.2500       0.8466    -999.2500       0.8466
