#------------------------------------------------------------------------------
#
#   Created by  : [OpenWorks] Log Export Utility (LEXP)
#   Created on  : 2016-05-23 11:50:37
#   Project     : CANT971
#   User        : R5K
#   Interpreter : PEP
#
#------------------------------------------------------------------------------
~VERSION INFORMATION
VERS. 2.0 : CWLS Log ASCII Standard - version 2.0
WRAP.  NO : One line per depth step
~WELL INFORMATION
#MNEMONIC   .UNIT                                           VALUE :DESCRIPTION
#------------------------------------------------------------------------------
STRT        .M                                           690.6770 :START DEPTH
STOP        .M                                          3400.6538 :STOP DEPTH
STEP        .M                                             0.1524 :STEP
NULL        .                                           -999.2500 :NULL VALUE
COMP        .                                   PEMEX EXPL & PROD :COMPANY
WELL        .                                                1024 :WELL
FLD         .                                           CANTARELL :FIELD
LOC         .                                             UNKNOWN :LOCATION
CNTY        .                                      CD. DEL CARMEN :COUNTY
STAT        .                                            CAMPECHE :STATE
CTRY        .                                              MEXICO :COUNTRY
SRVC        .                                             UNKNOWN :SERVICE COMPANY
DATE        .                                             UNKNOWN :LOG DATE
UWI         .                                          3060000490 :UNIQUE WELL ID
XCOORD      .                                       596162.640000 :SURFACE X
YCOORD      .                                      2150611.280000 :SURFACE Y
LAT         .                                           19.448767 :LATITUDE
LON         .                                          -92.083900 :LONGITUDE
ELEV        .M                                            30.0000 :SURFACE ELEV
ELEV_TYPE   .                                                  KB :ELEV TYPE
~CURVE INFORMATION
#MNEMONIC.UNIT        API CODE       : CURVE DESCRIPTION
#------------------------------------------------------------------------------
DEPTH    .M                          : Measured Depth
CALI     .inches      UNKNOWN        : CALI:registros:rC:NONE:v0 (auto-composite)
DRHO     .g/cm3       UNKNOWN        : DRHO:registros:rC:NONE:v0 (auto-composite)
DT       .us/ft       UNKNOWN        : DT:registros:rC:NONE:v0 (auto-composite)
GR       .API         UNKNOWN        : GR:registros:rC:NONE:v0 (auto-composite)
ILD      .ohm.m       UNKNOWN        : ILD:registros:rC:NONE:v0 (auto-composite)
ILM      .ohm.m       UNKNOWN        : ILM:registros:rC:NONE:v0 (auto-composite)
LLD      .ohm.m       UNKNOWN        : LLD:registros:rC:NONE:v0 (auto-composite)
LLS      .ohm.m       UNKNOWN        : LLS:registros:rC:NONE:v0 (auto-composite)
MSFL     .ohm.m       UNKNOWN        : MSFL:registros:rC:NONE:v0 (auto-composite)
NPHI     .v/v_decimal UNKNOWN        : NPHI:registros:rC:NONE:v0 (auto-composite)
PEF      .b/elec      UNKNOWN        : PEF:registros:rC:NONE:v0 (auto-composite)
RHOB     .g/cm3       UNKNOWN        : RHOB:registros:rC:NONE:v0 (auto-composite)
~A     DEPTH         CALI         DRHO           DT           GR          ILD          ILM          LLD          LLS         MSFL         NPHI          PEF         RHOB
# ...
   3199.7905       9.2290       0.0040      64.7760      61.5300    -999.2500    -999.2500      13.5850      14.8690      23.3680       0.1762       3.4040       2.5890
   3199.9431       9.2220       0.0045      63.1570      61.0274    -999.2500    -999.2500      13.8097      15.1422      24.8951       0.1643       3.4185       2.5980
   3200.0955       9.2150       0.0050      61.5330      60.5280    -999.2500    -999.2500      14.0350      15.4150      26.4220       0.1556       3.4330       2.6070
   3200.2478       9.2155       0.0085      61.6793      58.5793    -999.2500    -999.2500      14.1753      15.5562      25.3515       0.1547       3.4735       2.6035
   3200.4001       9.2160       0.0120      61.8260      56.6430    -999.2500    -999.2500      14.3160      15.6970      24.2810       0.1559       3.5140       2.6000
   3200.5525       9.2040       0.0155      62.2117      54.7932    -999.2500    -999.2500      14.3899      15.7641      23.5066       0.1579       3.4456       2.5940
   3200.7051       9.1920       0.0190      62.5980      52.9550    -999.2500    -999.2500      14.4640      15.8310      22.7320       0.1601       3.3770       2.5880
   3200.8574       9.1865       0.0205      62.9287      52.0312    -999.2500    -999.2500      14.4430      15.8931      22.2856       0.1624       3.2531       2.5890
   3201.0098       9.1810       0.0220      63.2600      51.1130    -999.2500    -999.2500      14.4220      15.9550      21.8390       0.1642       3.1290       2.5900
   3201.1621       9.1990       0.0215      63.3919      50.2655    -999.2500    -999.2500      14.5933      16.1963      21.4941       0.1637       3.1625       2.5940
   3201.3147       9.2170       0.0210      63.5240      49.4230    -999.2500    -999.2500      14.7650      16.4370      21.1490       0.1629       3.1960       2.5980
   3201.4670       9.2110       0.0190      63.7108      48.4356    -999.2500    -999.2500      15.0517      16.7795      21.3345       0.1633       3.1825       2.5930
   3201.6194       9.2050       0.0170      63.8980      47.4540    -999.2500    -999.2500      15.3390      17.1210      21.5200       0.1641       3.1690       2.5880
   3201.7717       9.2095       0.0130      64.0783      47.5738    -999.2500    -999.2500      15.5358      17.3378      22.0373       0.1659       3.1280       2.5820
   3201.9243       9.2140       0.0090      64.2590      47.6930    -999.2500    -999.2500      15.7330      17.5540      22.5550       0.1679       3.0870       2.5760
   3202.0767       9.2280       0.0055      64.1102      48.7038    -999.2500    -999.2500      15.7020      17.6071      22.9953       0.1699       3.0510       2.5765
   3202.2290       9.2420       0.0020      63.9610      49.7090    -999.2500    -999.2500      15.6710      17.6600      23.4360       0.1715       3.0150       2.5770
   3202.3813       9.2400       0.0005      63.6719      51.4398    -999.2500    -999.2500      15.6815      17.6720      23.4070       0.1711       3.0390       2.5795
   3202.5337       9.2380      -0.0010      63.3820      53.1610    -999.2500    -999.2500      15.6920      17.6840      23.3780       0.1701       3.0630       2.5820
   3202.6863       9.2280      -0.0005      63.1143      54.6375    -999.2500    -999.2500      15.7564      17.7376      23.5819       0.1689       3.1125       2.5850
   3202.8386       9.2180       0.0000      62.8460      56.1060    -999.2500    -999.2500      15.8210      17.7910      23.7860       0.1677       3.1620       2.5880
   3202.9910       9.2135       0.0010      62.7621      56.8044    -999.2500    -999.2500      15.7596      17.7349      24.1223       0.1670       3.1825       2.5905
   3203.1433       9.2090       0.0020      62.6780      57.4980    -999.2500    -999.2500      15.6980      17.6790      24.4590       0.1664       3.2030       2.5930
   3203.2959       9.2095       0.0000      62.8592      57.4433    -999.2500    -999.2500      15.4943      17.4643      24.6584       0.1657       3.1675       2.5905
   3203.4482       9.2100      -0.0020      63.0410      57.3890    -999.2500    -999.2500      15.2900      17.2500      24.8580       0.1651       3.1320       2.5880
   3203.6006       9.1950      -0.0055      63.3460      57.9198    -999.2500    -999.2500      15.1492      17.0688      24.4355       0.1651       3.1120       2.5830
   3203.7529       9.1800      -0.0090      63.6520      58.4470    -999.2500    -999.2500      15.0080      16.8880      24.0130       0.1652       3.0920       2.5780
   3203.9055       9.1625      -0.0085      63.4971      59.3093    -999.2500    -999.2500      15.3308      17.1842      23.5950       0.1650       3.1405       2.5830
   3204.0579       9.1450      -0.0080      63.3420      60.1660    -999.2500    -999.2500      15.6540      17.4800      23.1770       0.1647       3.1890       2.5880
   3204.2102       9.1475      -0.0065      62.8689      60.0998    -999.2500    -999.2500      16.2750      18.0995      24.0735       0.1642       3.2320       2.6000
   3204.3625       9.1500      -0.0050      62.3950      60.0340    -999.2500    -999.2500      16.8970      18.7170      24.9700       0.1640       3.2750       2.6120
   3204.5149       9.1485      -0.0055      62.5489      59.5420    -999.2500    -999.2500      17.4490      19.2984      26.3779       0.1657       3.2450       2.6100
   3204.6675       9.1470      -0.0060      62.7030      59.0530    -999.2500    -999.2500      18.0020      19.8780      27.7860       0.1680       3.2150       2.6080
   3204.8198       9.1420      -0.0065      62.9842      58.2736    -999.2500    -999.2500      18.3067      20.1649      28.6709       0.1710       3.1780       2.5990
   3204.9722       9.1370      -0.0070      63.2660      57.4990    -999.2500    -999.2500      18.6120      20.4510      29.5560       0.1739       3.1410       2.5900
   3205.1245       9.1325      -0.0060      63.1346      57.6078    -999.2500    -999.2500      18.5386      20.3579      29.3515       0.1752       3.1755       2.5825
   3205.2771       9.1280      -0.0050      63.0030      57.7160    -999.2500    -999.2500      18.4650      20.2650      29.1470       0.1758       3.2100       2.5750
   3205.4294       9.1240      -0.0035      62.8876      58.8242    -999.2500    -999.2500      18.4131      20.2224      28.7256       0.1749       3.2574       2.5730
   3205.5818       9.1200      -0.0020      62.7720      59.9260    -999.2500    -999.2500      18.3610      20.1800      28.3040       0.1737       3.3050       2.5710
   3205.7341       9.1085      -0.0010      62.8055      61.0447    -999.2500    -999.2500      18.4069      20.2416      28.0071       0.1725       3.2880       2.5690
   3205.8867       9.0970       0.0000      62.8390      62.1570    -999.2500    -999.2500      18.4530      20.3030      27.7100       0.1714       3.2710       2.5670
   3206.0391       9.0815       0.0010      62.7336      62.7767    -999.2500    -999.2500      18.4815      20.2770      27.9234       0.1707       3.3155       2.5675
   3206.1914       9.0660       0.0020      62.6280      63.3930    -999.2500    -999.2500      18.5100      20.2510      28.1370       0.1698       3.3600       2.5680
   3206.3438       9.0770       0.0040      62.4547      64.1365    -999.2500    -999.2500      18.4486      20.1734      28.4029       0.1678       3.4015       2.5715
   3206.4961       9.0880       0.0060      62.2810      64.8760    -999.2500    -999.2500      18.3870      20.0960      28.6690       0.1653       3.4430       2.5750
   3206.6487       9.0965       0.0095      62.0743      65.2570    -999.2500    -999.2500      18.2741      20.0024      28.2892       0.1623       3.4275       2.5835
   3206.8010       9.1050       0.0130      61.8670      65.6360    -999.2500    -999.2500      18.1610      19.9090      27.9090       0.1593       3.4120       2.5920
   3206.9534       9.1095       0.0145      61.5544      65.8267    -999.2500    -999.2500      18.0681      19.8259      28.1539       0.1573       3.3820       2.5985
