#------------------------------------------------------------------------------
#
#   Created by  : [OpenWorks] Log Export Utility (LEXP)
#   Created on  : 2016-05-23 11:56:43
#   Project     : CANT971
#   User        : R5K
#   Interpreter : PEP
#
#------------------------------------------------------------------------------
~VERSION INFORMATION
VERS. 2.0 : CWLS Log ASCII Standard - version 2.0
WRAP.  NO : One line per depth step
~WELL INFORMATION
#MNEMONIC   .UNIT                                           VALUE :DESCRIPTION
#------------------------------------------------------------------------------
STRT        .M                                           650.2150 :START DEPTH
STOP        .M                                          2618.6135 :STOP DEPTH
STEP        .M                                             0.1524 :STEP
NULL        .                                           -999.2500 :NULL VALUE
COMP        .                                   PEMEX EXPL & PROD :COMPANY
WELL        .                                                  4D :WELL
FLD         .                                           CANTARELL :FIELD
LOC         .                                             UNKNOWN :LOCATION
CNTY        .                                      CD. DEL CARMEN :COUNTY
STAT        .                                            CAMPECHE :STATE
CTRY        .                                              MEXICO :COUNTRY
SRVC        .                                             UNKNOWN :SERVICE COMPANY
DATE        .                                             UNKNOWN :LOG DATE
UWI         .                                          3060000662 :UNIQUE WELL ID
XCOORD      .                                       598468.500000 :SURFACE X
YCOORD      .                                      2145023.700000 :SURFACE Y
LAT         .                                           19.398162 :LATITUDE
LON         .                                          -92.062225 :LONGITUDE
ELEV        .M                                            26.5400 :SURFACE ELEV
ELEV_TYPE   .                                                  KB :ELEV TYPE
~CURVE INFORMATION
#MNEMONIC.UNIT        API CODE       : CURVE DESCRIPTION
#------------------------------------------------------------------------------
DEPTH    .M                          : Measured Depth
CAL      .inches      UNKNOWN        : CAL:UNKNOWN:rC:NONE:v0 (auto-composite)
CGR      .UNKNOWN     UNKNOWN        : CGR:UNKNOWN:rC:NONE:v0 (auto-composite)
DRHO     .UNKNOWN     UNKNOWN        : DRHO:UNKNOWN:rC:NONE:v0 (auto-composite)
DT       .us/ft       UNKNOWN        : DT:DT:rC:NONE:v0 (auto-composite)
GR       .API         UNKNOWN        : GR:UNKNOWN:rC:NONE:v0 (auto-composite)
ILD      .UNKNOWN     UNKNOWN        : ILD:UNKNOWN:rC:NONE:v0 (auto-composite)
ILM      .UNKNOWN     UNKNOWN        : ILM:UNKNOWN:rC:NONE:v0 (auto-composite)
LLD      .UNKNOWN     UNKNOWN        : LLD:UNKNOWN:rC:NONE:v0 (auto-composite)
LLS      .UNKNOWN     UNKNOWN        : LLS:UNKNOWN:rC:NONE:v0 (auto-composite)
MSFL     .UNKNOWN     UNKNOWN        : MSFL:UNKNOWN:rC:NONE:v0 (auto-composite)
NPHI     .v/v_decimal UNKNOWN        : NPHI:PETROWORKS:rC:NONE:v1 
PEF      .UNKNOWN     UNKNOWN        : PEF:UNKNOWN:rC:NONE:v0 (auto-composite)
POTA     .UNKNOWN     UNKNOWN        : POTA:UNKNOWN:rC:NONE:v0 (auto-composite)
RHOB     .UNKNOWN     UNKNOWN        : RHOB:UNKNOWN:rC:NONE:v0 (auto-composite)
THOR     .UNKNOWN     UNKNOWN        : THOR:UNKNOWN:rC:NONE:v0 (auto-composite)
URAN     .UNKNOWN     UNKNOWN        : URAN:UNKNOWN:rC:NONE:v0 (auto-composite)
~A     DEPTH          CAL          CGR         DRHO           DT           GR          ILD          ILM          LLD          LLS         MSFL         NPHI          PEF         POTA         RHOB         THOR         URAN
# ...
   2578.6846       6.8889      11.1026       0.0751      63.1535      31.6719    -999.2500    -999.2500      82.5663      67.5014       6.5052       0.0738       3.5241       0.0050       2.7947       0.5498       2.4459
   2578.8369       6.8704      12.3891       0.0940      60.3759      33.9117    -999.2500    -999.2500      86.2429      69.7288      13.4980       0.0662       3.6635       0.0052       2.7936       0.7319       2.5592
   2578.9895       6.7104      14.3127       0.0880      61.8915      37.1346    -999.2500    -999.2500      78.2859      65.5338      56.2950       0.0695       3.4689       0.0062       2.7681       0.9893       2.7126
   2579.1418       6.5751      15.1668       0.0809      62.9862      38.7120    -999.2500    -999.2500      74.9719      65.4179     251.6443       0.0761       3.3174       0.0066       2.7452       1.1716       2.8116
   2579.2942       6.5581      10.7872       0.0689      62.0676      32.5901    -999.2500    -999.2500      94.3775      84.8170    1193.4714       0.0881       3.3719       0.0041       2.7347       0.9865       2.6440
   2579.4465       6.5441       7.6133       0.0551      60.9214      28.0982    -999.2500    -999.2500     116.9552     107.4706    1811.2966       0.0936       3.4371       0.0023       2.7268       0.8595       2.4982
   2579.5991       6.5446      10.3087       0.0326      58.6801      31.2777    -999.2500    -999.2500     154.9733     145.7883     851.9680       0.0868       3.5542       0.0043       2.7313       1.0149       2.4582
   2579.7515       6.5577      12.2599       0.0141      56.4205      33.5084    -999.2500    -999.2500     190.5078     180.8431      52.0016       0.0770       3.6412       0.0059       2.7379       1.0611       2.4348
   2579.9038       6.6312      10.5668       0.0146      54.0735      31.1954    -999.2500    -999.2500     213.8789     200.2747      32.5309       0.0643       3.5847       0.0054       2.7544       0.5725       2.4929
   2580.0562       6.6871       9.0240       0.0153      51.7313      29.0602    -999.2500    -999.2500     221.0028     204.8072      20.8658       0.0558       3.5407       0.0049       2.7674       0.2088       2.5189
   2580.2087       6.6586       8.2139       0.0173      49.4119      27.7818    -999.2500    -999.2500     148.9689     137.5659      47.2305       0.0558       3.5562       0.0044       2.7639       0.4542       2.3889
   2580.3611       6.6428       8.7563       0.0197      48.1999      28.6100    -999.2500    -999.2500      87.4752      80.2289     170.2229       0.0605       3.5474       0.0044       2.7554       0.7666       2.3584
   2580.5134       6.6878      15.9289       0.0237      52.2944      39.6486    -999.2500    -999.2500      77.6496      70.3582     766.8846       0.0752       3.4224       0.0069       2.7229       1.4079       2.8150
   2580.6658       6.7340      20.7222       0.0277      56.1548      46.7947    -999.2500    -999.2500      68.4636      61.4915    1155.6571       0.0854       3.3085       0.0086       2.6975       1.8039       3.1090
   2580.8181       6.7860      13.9126       0.0317      58.8991      35.7892    -999.2500    -999.2500      62.3967      57.4660     530.6801       0.0798       3.2480       0.0061       2.7060       1.0043       2.6092
   2580.9707       6.8108       8.1253       0.0353      60.9556      26.4765    -999.2500    -999.2500      56.5411      54.5560      31.3499       0.0757       3.2306       0.0039       2.7177       0.3273       2.1837
   2581.1230       6.7053       7.3535       0.0373      59.7126      25.1931    -999.2500    -999.2500      51.7224      56.9965     148.4907       0.0782       3.4197       0.0034       2.7453       0.2523       2.1226
   2581.2754       6.6382       7.4450       0.0393      58.9002      25.0442    -999.2500    -999.2500      46.9953      57.4535     225.7023       0.0825       3.5662       0.0033       2.7665       0.2685       2.0915
   2581.4277       6.7546      11.7496       0.0413      60.1421      30.3094    -999.2500    -999.2500      42.7157      48.3392     108.0309       0.0916       3.5097       0.0048       2.7580       0.7302       2.2060
   2581.5803       6.8247      15.5320       0.0446      60.9460      35.0339    -999.2500    -999.2500      38.7314      40.4290      16.4885       0.0988       3.4532       0.0061       2.7436       1.1372       2.3189
   2581.7327       6.6721      16.7789       0.0536      59.6465      37.1619    -999.2500    -999.2500      36.1810      38.3002      51.8108       0.1025       3.3961       0.0066       2.7006       1.2792       2.4239
   2581.8850       6.5764      18.3636       0.0608      58.3748      40.6818    -999.2500    -999.2500      34.3240      36.8025      74.6418       0.1068       3.3532       0.0071       2.6677       1.4868       2.6529
   2582.0374       6.7518      21.5983       0.0598      57.2358      50.9242    -999.2500    -999.2500      35.8541      38.3189      36.4522       0.1173       3.3777       0.0076       2.6832       2.0155       3.4882
   2582.1899       6.8908      24.3809       0.0574      56.2238      59.5699    -999.2500    -999.2500      38.6520      41.2915       6.2935       0.1199       3.4182       0.0078       2.7033       2.4621       4.1853
   2582.3423       6.8548      24.9661       0.0484      55.8222      60.3682    -999.2500    -999.2500      47.6111      51.2617      15.1622       0.1067       3.5352       0.0068       2.7458       2.5096       4.2103
   2582.4946       6.8175      24.5746       0.0423      55.3945      59.3233    -999.2500    -999.2500      59.8739      65.0090      21.4266       0.0902       3.6202       0.0061       2.7796       2.4390       4.1382
   2582.6470       6.7740      19.4072       0.0498      54.8422      49.5655    -999.2500    -999.2500      88.2899      96.8128      14.9577       0.0742       3.5517       0.0066       2.7716       1.7913       3.5915
   2582.7993       6.7312      15.3104       0.0599      54.1741      40.6938    -999.2500    -999.2500     112.3283     123.5328      13.6323       0.0621       3.4730       0.0072       2.7688       1.2043       3.0299
   2582.9519       6.6917      16.4209       0.0824      52.9492      36.0363    -999.2500    -999.2500     115.0747     125.8031      37.3246       0.0592       3.3455       0.0082       2.7908       0.9129       2.3962
   2583.1042       6.6440      17.9478       0.0993      52.3950      33.3043    -999.2500    -999.2500     113.9332     123.7033      54.8089       0.0592       3.2301       0.0092       2.8063       0.7495       1.9198
   2583.2566       6.5575      21.5127       0.0893      55.0498      39.7848    -999.2500    -999.2500      93.7657     100.6943      41.9126       0.0627       3.1725       0.0102       2.7908       1.2122       2.2134
   2583.4089       6.4937      23.0483       0.0790      57.0696      43.7192    -999.2500    -999.2500      78.4541      83.0953      48.3202       0.0689       3.1507       0.0103       2.7810       1.5248       2.4440
   2583.5615       6.5382      14.7054       0.0675      56.0322      35.2584    -999.2500    -999.2500      86.7820      91.5384     148.7038       0.0830       3.2986       0.0063       2.7979       1.1070       2.3675
   2583.7139       6.5819       7.6190       0.0532      55.5106      28.0451    -999.2500    -999.2500      99.7457     104.6249     381.9949       0.0898       3.4445       0.0029       2.8066       0.7366       2.3215
   2583.8662       6.6219       6.6872       0.0252      57.4588      26.9425    -999.2500    -999.2500     135.4158     139.9477    1266.2872       0.0809       3.5806       0.0024       2.7756       0.5985       2.4245
   2584.0186       6.6866       6.2247       0.0021      58.8660      26.5574    -999.2500    -999.2500     159.6504     163.4148    1830.6874       0.0696       3.6850       0.0022       2.7416       0.4948       2.5238
   2584.1711       6.8685       8.0494       0.0026      57.6960      29.5522    -999.2500    -999.2500     128.1640     129.7634     836.3838       0.0616       3.6390       0.0032       2.6931       0.5583       2.6048
