#------------------------------------------------------------------------------
#
#   Created by  : [OpenWorks] Log Export Utility (LEXP)
#   Created on  : 2016-05-23 11:55:46
#   Project     : CANT971
#   User        : R5K
#   Interpreter : PEP
#
#------------------------------------------------------------------------------
~VERSION INFORMATION
VERS. 2.0 : CWLS Log ASCII Standard - version 2.0
WRAP.  NO : One line per depth step
~WELL INFORMATION
#MNEMONIC   .UNIT                                           VALUE :DESCRIPTION
#------------------------------------------------------------------------------
STRT        .M                                           325.5260 :START DEPTH
STOP        .M                                          2414.9299 :STOP DEPTH
STEP        .M                                             0.1524 :STEP
NULL        .                                           -999.2500 :NULL VALUE
COMP        .                                   PEMEX EXPL & PROD :COMPANY
WELL        .                                                   4 :WELL
FLD         .                                           CANTARELL :FIELD
LOC         .                                             UNKNOWN :LOCATION
CNTY        .                                      CD. DEL CARMEN :COUNTY
STAT        .                                            CAMPECHE :STATE
CTRY        .                                              MEXICO :COUNTRY
SRVC        .                                             UNKNOWN :SERVICE COMPANY
DATE        .                                             UNKNOWN :LOG DATE
UWI         .                                          3060000140 :UNIQUE WELL ID
XCOORD      .                                       598455.270000 :SURFACE X
YCOORD      .                                      2145027.190000 :SURFACE Y
LAT         .                                           19.398194 :LATITUDE
LON         .                                          -92.062351 :LONGITUDE
ELEV        .M                                            26.5400 :SURFACE ELEV
ELEV_TYPE   .                                                  KB :ELEV TYPE
~CURVE INFORMATION
#MNEMONIC.UNIT        API CODE       : CURVE DESCRIPTION
#------------------------------------------------------------------------------
DEPTH    .M                          : Measured Depth
CALI     .inches      UNKNOWN        : CALI:Import:rC:NONE:v0 (auto-composite)
CGR      .API         UNKNOWN        : CGR:Import:rC:NONE:v0 (auto-composite)
DRHO     .g/cm3       UNKNOWN        : DRHO:Import:rC:NONE:v0 (auto-composite)
DT       .us/ft       UNKNOWN        : DT:Import:rC:NONE:v0 (auto-composite)
GR       .API         UNKNOWN        : GR:Import:rC:NONE:v0 (auto-composite)
ILD      .ohm.m       UNKNOWN        : ILD:Import:rC:NONE:v0 (auto-composite)
LLD      .ohm.m       UNKNOWN        : LLD:Import:rC:NONE:v0 (auto-composite)
LLS      .ohm.m       UNKNOWN        : LLS:Import:rC:NONE:v0 (auto-composite)
MSFL     .ohm.m       UNKNOWN        : MSFL:Import:rC:NONE:v0 (auto-composite)
NPHI     .v/v_decimal UNKNOWN        : NPHI:Import:rC:NONE:v0 (auto-composite)
POTA     .wtpercent   UNKNOWN        : POTA:Import:rC:NONE:v0 (auto-composite)
RHOB     .g/cm3       UNKNOWN        : RHOB:Import:rC:NONE:v0 (auto-composite)
THOR     .ppm         UNKNOWN        : THOR:Import:rC:NONE:v0 (auto-composite)
URAN     .ppm         UNKNOWN        : URAN:Import:rC:NONE:v0 (auto-composite)
~A     DEPTH         CALI          CGR         DRHO           DT           GR          ILD          LLD          LLS         MSFL         NPHI         POTA         RHOB         THOR         URAN
# ...
   2316.1748       8.5820      20.2161       0.2180      55.9730      36.5181    -999.2500       0.2000       0.2000     125.6350      -0.1185       0.0080       1.9500       2.3893       1.8961
   2316.3271       8.5490      19.7530       0.2340      55.2586      35.3423    -999.2500       0.2000       0.2000     106.8310      -0.1500       0.0080       1.9500       2.1794       1.8223
   2316.4795       8.5160      19.2737       0.2500      54.5470      34.0469    -999.2500       0.2000       0.2000      88.0700      -0.1500       0.0080       1.9500       2.0509       1.7239
   2316.6321       8.5290      18.5581       0.2500      55.9436      32.9368    -999.2500       0.2000       0.2000     132.5697      -0.1500       0.0071       1.9500       1.9944       1.6170
   2316.7844       8.5420      18.0089       0.2500      57.3350      30.9440    -999.2500       0.2000       0.2000     176.9730      -0.1500       0.0070       1.9500       1.9610       1.5434
   2316.9368       8.5510      17.2045       0.2500      58.9675      29.4737    -999.2500       0.2000       0.2000     416.1677      -0.1500       0.0070       1.9500       1.9297       1.4770
   2317.0891       8.5600      16.6800       0.2500      60.5940      28.1192    -999.2500       0.2000       0.2000     654.8750      -0.1500       0.0061       1.9500       1.8359       1.4123
   2317.2417       8.5650      16.6149       0.2500      59.8682      27.0767    -999.2500       0.2000       0.2000     521.8397      -0.1500       0.0060       1.9500       1.8263       1.3617
   2317.3940       8.5700      17.0650       0.2500      59.1450      27.9627    -999.2500       0.2000       0.2000     389.0590      -0.1500       0.0060       1.9500       1.9234       1.3899
   2317.5464       8.5260      17.3583       0.2500      57.3625      28.3948    -999.2500       0.2000       0.2000     494.9366      -0.1500       0.0060       1.9500       2.0489       1.4250
   2317.6987       8.4820      17.6200       0.2500      55.5860      28.8215    -999.2500       0.2000       0.2000     600.6250      -0.1500       0.0060       1.9500       2.2241       1.4118
   2317.8513       4.2375      17.6904       0.2500      54.5179      28.9640    -999.2500       0.2000       0.2000     482.6209      -0.1500       0.0060       1.9500       2.3175       1.3883
   2318.0037       0.0000      17.5750       0.2500      53.4550      28.7541    -999.2500       0.2000       0.2000     364.8130      -0.1500       0.0060       1.9500       2.2358       1.3507
   2318.1560       0.0000      17.2589       0.2500      53.1047      28.0117    -999.2500       0.2000       0.2000     737.1925      -0.1500       0.0060       1.9500       2.0560       1.3044
   2318.3083       0.0000      16.5730       0.2500      52.7560      26.8781    -999.2500       0.2000       0.2000    1109.0000      -0.1500       0.0060       1.9500       2.0080       1.2635
   2318.4607       0.0000      15.8277       0.2500      51.9281      25.8893    -999.2500       0.2000       0.2000    1070.2386      -0.1500       0.0060       1.9500       2.0152       1.2570
   2318.6133       0.0000      15.5697       0.2500      51.1040      25.4146    -999.2500       0.2000       0.2000    1031.5320      -0.1500       0.0056       1.9500       2.1135       1.2946
   2318.7656       0.0000      15.6651       0.2500      50.2927      26.2287    -999.2500       0.2000       0.2000     849.5035      -0.1500       0.0050       1.9500       2.2355       1.3805
   2318.9180       0.0000      15.7541       0.2500      49.4850      26.8010    -999.2500       0.2000       0.2000     667.7090      -0.1500       0.0050       1.9500       2.3339       1.4615
   2319.0703       0.0000      15.7970       0.2500      49.1498      26.5431    -999.2500       0.2000       0.2000     333.7607      -0.1500       0.0050       1.9500       2.2830       1.4064
   2319.2229       0.0000      15.4283       0.2500      48.8160      25.8900    -999.2500       0.2000       0.2000       0.2000      -0.1500       0.0050       1.9500       2.1352       1.3206
   2319.3752       0.0000      13.7375       0.2500      48.8821      25.1411    -999.2500       0.2000       0.2000       0.2000      -0.1500       0.0050       1.9500       1.9399       1.2649
   2319.5276       0.0000      11.8796       0.2500      48.9480      26.1343    -999.2500       0.2000       0.2000       0.2000      -0.1500       0.0050       1.9500       1.7911       1.2619
   2319.6799       0.0000       8.6600       0.2500      49.7737      28.9138    -999.2500       0.2000       0.2000       0.2000      -0.1390       0.0040       1.9500       1.6694       2.0404
   2319.8325       0.0000       7.5057       0.2500      50.5960      34.1923    -999.2500       0.2000       0.2000       0.2000      -0.1136       0.0032       1.9500       1.5597       2.4956
   2319.9849       2.5105       9.4339       0.1894      50.9627      37.6770    -999.2500       0.3667       0.6215       6.0199      -0.0718       0.0040       2.2088       1.2832       3.1369
   2320.1372       5.0150      10.7220       0.1290      51.3280      39.0939    -999.2500       0.5330       1.0420      11.8260      -0.0085       0.0040       2.4670       1.1395       3.4461
   2320.2896       6.1598      11.4360       0.0960      51.2844      39.7226    -999.2500      15.4233       9.8725      29.4068       0.0269       0.0048       2.5601       1.1017       3.5981
   2320.4419       7.3020      11.3921       0.0630      51.2410      40.3630    -999.2500      30.2800      18.6830      46.9480       0.0251       0.0050       2.6530       1.0925       3.6859
   2320.5945       7.4967      10.8634       0.0455      51.2145      40.3722    -999.2500      27.6217      48.2180      28.7085       0.0243       0.0050       2.6590       1.0707       3.5952
   2320.7468       7.6910      10.4273       0.0280      51.1880      38.2594    -999.2500      24.9690      77.6900      10.5080       0.0249       0.0050       2.6650       1.0319       3.4491
   2320.8992       7.3427       9.9232       0.0165      51.1880      36.0481    -999.2500     110.9272     318.0371      80.9362       0.0258       0.0046       2.6620       0.8011       3.2884
   2321.0515       6.9950       8.9503       0.0050      51.1880      33.8077    -999.2500     196.7130     557.9020     151.2230       0.0269       0.0040       2.6590       0.5535       3.1036
   2321.2041       6.6882       8.3202       0.0676      49.0984      31.4160    -999.2500     616.8285    1371.0134    1059.2163       0.0310       0.0040       2.6890       0.4079       3.0339
   2321.3564       6.3820       7.9480       0.1300      47.0160      30.9331    -999.2500    1036.1530    2182.5940    1965.5000       0.0391       0.0040       2.7190       0.2996       3.0453
   2321.5088       6.2849       8.0996       0.2391      44.2118      31.8215    -999.2500    1001.7703    2069.1794    1087.3019       0.0468       0.0040       2.7896       0.2260       3.1127
   2321.6611       6.1880       8.6487       0.3480      41.4170      32.7220    -999.2500     967.4480    1955.9640     210.6460       0.0539       0.0044       2.8600       0.2100       3.2005
   2321.8137       6.1029       9.3268       0.3255    -999.2500      34.7925    -999.2500     880.9239    1827.8975     244.3825       0.0531       0.0050       2.8075       0.2955       3.3230
   2321.9661       6.0180       9.8901       0.3030    -999.2500      36.3353    -999.2500     794.5410    1700.0400     278.0640       0.0415       0.0050       2.7550       0.4166       3.4391
   2322.1184       6.0580      10.6108       0.2565    -999.2500      37.8198    -999.2500    1151.7974    1729.2930     832.9496       0.0311       0.0050       2.7605       0.5829       3.5403
   2322.2708       6.0980      11.5028       0.2100    -999.2500      40.1326    -999.2500    1508.5160    1758.5020    1387.0000       0.0224       0.0050       2.7660       0.7760       3.7032
   2322.4231       6.0915      12.2075       0.1530    -999.2500      41.7114    -999.2500    1422.7302    1540.8801     924.2429       0.0181       0.0050       2.7900       1.0183       3.8807
