#------------------------------------------------------------------------------
#
#   Created by  : [OpenWorks] Log Export Utility (LEXP)
#   Created on  : 2015-10-01 09:49:56
#   Project     : CANT971
#   User        : R5K
#   Interpreter : PEP
#
#------------------------------------------------------------------------------
~VERSION INFORMATION
VERS. 2.0 : CWLS Log ASCII Standard - version 2.0
WRAP.  NO : One line per depth step
~WELL INFORMATION
#MNEMONIC   .UNIT                                           VALUE :DESCRIPTION
#------------------------------------------------------------------------------
STRT        .M                                           799.8710 :START DEPTH
STOP        .M                                          1367.5610 :STOP DEPTH
STEP        .M                                             0.1524 :STEP
NULL        .                                           -999.2500 :NULL VALUE
COMP        .                                   PEMEX EXPL & PROD :COMPANY
WELL        .                                        CANTARELL-1A :WELL
FLD         .                                           CANTARELL :FIELD
LOC         .                                             UNKNOWN :LOCATION
CNTY        .                                      CD. DEL CARMEN :COUNTY
STAT        .                                            CAMPECHE :STATE
CTRY        .                                              MEXICO :COUNTRY
SRVC        .                                             UNKNOWN :SERVICE COMPANY
DATE        .                                             UNKNOWN :LOG DATE
UWI         .                                          3060000138 :UNIQUE WELL ID
XCOORD      .                                       600823.080000 :SURFACE X
YCOORD      .                                      2145118.550000 :SURFACE Y
LAT         .                                           19.398902 :LATITUDE
LON         .                                          -92.039798 :LONGITUDE
ELEV        .M                                            27.7000 :SURFACE ELEV
ELEV_TYPE   .                                                  KB :ELEV TYPE
~CURVE INFORMATION
#MNEMONIC.UNIT        API CODE       : CURVE DESCRIPTION
#------------------------------------------------------------------------------
DEPTH    .M                          : Measured Depth
CALI     .inches      UNKNOWN        : CALI:UNKNOWN:rC:NONE:v0 (auto-composite)
DRHO     .g/cm3       UNKNOWN        : DRHO:UNKNOWN:rC:NONE:v0 (auto-composite)
DT       .us/ft       UNKNOWN        : DT:DT:rC:NONE:v0 (auto-composite)
ILD      .ohm.m       UNKNOWN        : ILD:UNKNOWN:rC:NONE:v0 (auto-composite)
LLD      .ohm.m       UNKNOWN        : LLD:UNKNOWN:rC:NONE:v0 (auto-composite)
LLS      .ohm.m       UNKNOWN        : LLS:UNKNOWN:rC:NONE:v0 (auto-composite)
MSFL     .ohm.m       UNKNOWN        : MSFL:UNKNOWN:rC:NONE:v0 (auto-composite)
NPHI     .v/v_decimal UNKNOWN        : NPHI:NPHI:rC:NONE:v0 (auto-composite)
GR       .API         UNKNOWN        : RG:UNKNOWN:rC:NONE:v0 (auto-composite)
RHOB     .g/cm3       UNKNOWN        : RHOB:UNKNOWN:rC:NONE:v0 (auto-composite)
~A     DEPTH         CALI         DRHO           DT          ILD          LLD          LLS         MSFL         NPHI           GR         RHOB
# ...
   1021.7654      15.7709       0.0238    -999.2500       1.1075       0.2000       0.2000       0.2000      43.8332      24.4428       2.3540
   1021.9178      15.7740       0.0290    -999.2500       1.1008       0.2000       0.2000       0.2000      42.9737      24.3768       2.3585
   1022.0703      15.7048       0.0415    -999.2500       1.0963       0.2000       0.2000       0.2000      42.2609      24.6716       2.3700
   1022.2227      15.6119       0.0475    -999.2500       1.0804       0.2000       0.2000       0.2000      41.6954      24.9189       2.3770
   1022.3751      15.4935       0.0465    -999.2500       1.0524       0.2000       0.2000       0.2000      41.4275      25.1154       2.3790
   1022.5274      15.4379       0.0416    -999.2500       1.0280       0.2000       0.2000       0.2000      41.4585      25.3117       2.3763
   1022.6798      15.4479       0.0326    -999.2500       1.0074       0.2000       0.2000       0.2000      41.8780      25.5077       2.3688
   1022.8322      15.5260       0.0260    -999.2500       1.0002       0.2000       0.2000       0.2000      42.6880      25.6550       2.3640
   1022.9846      15.6739       0.0220    -999.2500       1.0067       0.2000       0.2000       0.2000      43.9742      25.7522       2.3620
   1023.1370      15.6843       0.0165    -999.2500       1.0070       0.2000       0.2000       0.2000      45.7391      25.9482       2.3563
   1023.2894      15.5564       0.0095    -999.2500       1.0010       0.2000       0.2000       0.2000      46.5831      26.2435       2.3467
   1023.4418      15.5029       0.0078    -999.2500       0.9927       0.2000       0.2000       0.2000      46.5011      26.2400       2.3400
   1023.5942      15.5224       0.0113    -999.2500       0.9822       0.2000       0.2000       0.2000      45.5062      25.9421       2.3360
   1023.7466      15.5320       0.0145    -999.2500       0.9793       0.2000       0.2000       0.2000      43.5948      25.7454       2.3327
   1023.8990      15.5320       0.0175    -999.2500       0.9838       0.2000       0.2000       0.2000      42.0049      25.6462       2.3302
   1024.0514      15.5219       0.0195    -999.2500       0.9829       0.2000       0.2000       0.2000      40.7379      25.4450       2.3370
   1024.2039      15.5024       0.0205    -999.2500       0.9769       0.2000       0.2000       0.2000      39.7815      25.1477       2.3525
   1024.3562      15.4776       0.0205    -999.2500       0.9727       0.2000       0.2000       0.2000      39.1370      25.3634       2.3712
   1024.5087      15.4481       0.0195    -999.2500       0.9702       0.2000       0.2000       0.2000      38.3978      26.0525       2.3928
   1024.6610      15.3824       0.0227    -999.2500       0.9740       0.2000       0.2000       0.2000      37.5633      26.2237       2.3985
   1024.8135      15.2842       0.0297    -999.2500       0.9835       0.2000       0.2000       0.2000      37.1557      25.9259       2.3900
   1024.9658      15.2380       0.0303    -999.2500       0.9893       0.2000       0.2000       0.2000      37.1772      25.5237       2.3794
   1025.1183      15.2380       0.0253    -999.2500       0.9918       0.2000       0.2000       0.2000      37.5016      25.0290       2.3668
   1025.2706      15.3383       0.0214    -999.2500       0.9909       0.2000       0.2000       0.2000      38.1306      24.9042       2.3615
   1025.4230      15.5259       0.0184    -999.2500       0.9868       0.2000       0.2000       0.2000      38.4283      25.1007       2.3625
   1025.5754      15.6174       0.0154    -999.2500       0.9861       0.2000       0.2000       0.2000      38.3928      25.5103       2.3597
   1025.7278      15.6274       0.0124    -999.2500       0.9881       0.2000       0.2000       0.2000      37.9450      26.1009       2.3537
   1025.8802      15.6753       0.0088    -999.2500       1.0046       0.2000       0.2000       0.2000      37.0826      26.3685       2.3480
   1026.0326      15.7544       0.0048    -999.2500       1.0332       0.2000       0.2000       0.2000      36.6787      26.3675       2.3425
   1026.1851      15.6596       0.0055    -999.2500       1.0656       0.2000       0.2000       0.2000      36.7362      25.8770       2.3538
   1026.3374      15.4230       0.0100    -999.2500       1.1012       0.2000       0.2000       0.2000      37.3219      24.9875       2.3789
   1026.4899      15.5981       0.0148    -999.2500       1.1432       0.2000       0.2000       0.2000      38.4373      24.3726       2.3939
   1026.6422      16.1015       0.0198    -999.2500       1.1904       0.2000       0.2000       0.2000      38.9885      23.9765       2.4009
   1026.7947      16.1336       0.0248    -999.2500       1.2434       0.2000       0.2000       0.2000      38.9735      24.3013       2.4057
   1026.9470      15.7983       0.0298    -999.2500       1.3010       0.2000       0.2000       0.2000      38.5595      25.1879       2.4087
   1027.0995      15.6195       0.0317    -999.2500       1.3303       0.2000       0.2000       0.2000      37.7450      25.6837       2.4026
   1027.2518      15.5603       0.0312    -999.2500       1.3378       0.2000       0.2000       0.2000      37.3662      25.8807       2.3896
   1027.4042      15.5238       0.0299    -999.2500       1.3094       0.2000       0.2000       0.2000      37.4247      26.0772       2.3760
   1027.5566      15.5043       0.0278    -999.2500       1.2543       0.2000       0.2000       0.2000      37.9415      26.2732       2.3619
   1027.7090      15.5817       0.0221    -999.2500       1.2067       0.2000       0.2000       0.2000      38.9184      26.3554       2.3479
   1027.8615      15.7301       0.0136    -999.2500       1.1646       0.2000       0.2000       0.2000      39.6093      26.3544       2.3339
   1028.0138      15.7631       0.0100    -999.2500       1.1181       0.2000       0.2000       0.2000      40.0128      26.2959       2.3245
   1028.1663      15.7134       0.0100    -999.2500       1.0684       0.2000       0.2000       0.2000      40.2599      26.1961       2.3185
   1028.3186      15.5946       0.0100    -999.2500       1.0277       0.2000       0.2000       0.2000      40.3499      26.6761       2.3125
   1028.4711      15.4272       0.0100    -999.2500       0.9931       0.2000       0.2000       0.2000      40.9459      27.5622       2.3064
   1028.6234      15.3881       0.0103    -999.2500       0.9802       0.2000       0.2000       0.2000      42.0503      27.9813       2.3037
   1028.7759      15.4373       0.0108    -999.2500       0.9822       0.2000       0.2000       0.2000      42.5783      28.0795       2.3032
   1028.9282      15.5812       0.0158    -999.2500       0.9956       0.2000       0.2000       0.2000      42.5268      27.7050       2.3078
   1029.0807      15.7888       0.0238    -999.2500       1.0167       0.2000       0.2000       0.2000      42.1076      27.0130       2.3158
   1029.2330      15.9188       0.0255    -999.2500       1.0323       0.2000       0.2000       0.2000      41.3186      26.5595       2.3248
   1029.3854      15.9980       0.0230    -999.2500       1.0443       0.2000       0.2000       0.2000      40.6296      26.2623       2.3343
   1029.5378      16.1914       0.0196    -999.2500       1.0508       0.2000       0.2000       0.2000      40.0411      25.5445       2.3493
   1029.6902      16.4581       0.0155    -999.2500       1.0538       0.2000       0.2000       0.2000      39.9614      24.5562       2.3678
   1029.8427      16.5065       0.0143    -999.2500       1.0618       0.2000       0.2000       0.2000      40.3933      23.9317       2.3685
   1029.9950      16.4177       0.0148    -999.2500       1.0728       0.2000       0.2000       0.2000      40.5581      23.5356       2.3580
   1030.1475      16.4085       0.0162    -999.2500       1.0820       0.2000       0.2000       0.2000      40.4541      23.6900       2.3422
