#------------------------------------------------------------------------------
#
#   Created by  : [OpenWorks] Log Export Utility (LEXP)
#   Created on  : 2016-05-23 11:52:25
#   Project     : CANT971
#   User        : R5K
#   Interpreter : PEP
#
#------------------------------------------------------------------------------
~VERSION INFORMATION
VERS. 2.0 : CWLS Log ASCII Standard - version 2.0
WRAP.  NO : One line per depth step
~WELL INFORMATION
#MNEMONIC   .UNIT                                           VALUE :DESCRIPTION
#------------------------------------------------------------------------------
STRT        .M                                           940.1293 :START DEPTH
STOP        .M                                          2672.0029 :STOP DEPTH
STEP        .M                                             0.1524 :STEP
NULL        .                                           -999.2500 :NULL VALUE
COMP        .                                   PEMEX EXPL & PROD :COMPANY
WELL        .                                               2071D :WELL
FLD         .                                           CANTARELL :FIELD
LOC         .                                             UNKNOWN :LOCATION
CNTY        .                                      CD. DEL CARMEN :COUNTY
STAT        .                                            CAMPECHE :STATE
CTRY        .                                              MEXICO :COUNTRY
SRVC        .                                             UNKNOWN :SERVICE COMPANY
DATE        .                                             UNKNOWN :LOG DATE
UWI         .                                          3060000679 :UNIQUE WELL ID
XCOORD      .                                       601713.940000 :SURFACE X
YCOORD      .                                      2142372.000000 :SURFACE Y
LAT         .                                           19.374038 :LATITUDE
LON         .                                          -92.031462 :LONGITUDE
ELEV        .M                                            30.0000 :SURFACE ELEV
ELEV_TYPEF  .b/elec                                            KB :ELEV TYPE
~CURVE INFORMATION
#MNEMONIC.UNIT        API CODE       : CURVE DESCRIPTION
#------------------------------------------------------------------------------
DEPTH    .M                          : Measured Depth
CALI     .in          UNKNOWN        : CALI:UNKNOWN:rC:NONE:v0 (auto-composite)
DRHO     .g/cm3       UNKNOWN        : DRHO:UNKNOWN:rC:NONE:v0 (auto-composite)
DT       .us/ft       UNKNOWN        : DT:DT:rC:NONE:v0 (auto-composite)
GR       .API         UNKNOWN        : GR:UNKNOWN:rC:NONE:v0 (auto-composite)
ILD      .ohmm        UNKNOWN        : ILD:UNKNOWN:rC:NONE:v0 (auto-composite)
ILM      .ohmm        UNKNOWN        : ILM:UNKNOWN:rC:NONE:v0 (auto-composite)
LLD      .ohmm        UNKNOWN        : LLD:UNKNOWN:rC:NONE:v0 (auto-composite)
LLS      .ohmm        UNKNOWN        : LLS:UNKNOWN:rC:NONE:v0 (auto-composite)
MSFL     .ohmm        UNKNOWN        : MSFL:UNKNOWN:rC:NONE:v0 (auto-composite)
NPHI     .v/v_decimal UNKNOWN        : NPHI:UNKNOWN:rC:NONE:v0 (auto-composite)
PEF      .b/elec      UNKNOWN        : PEF:UNKNOWN:rC:NONE:v0 (auto-composite)
RHOB     .g/cm3       UNKNOWN        : RHOB:UNKNOWN:rC:NONE:v0 (auto-composite)
~A     DEPTH         CALI         DRHO           DT           GR          ILD          ILM          LLD          LLS         MSFL         NPHI          PEF         RHOB
# ...
   2234.9197      12.1095       0.0680      54.5941      45.6236    -999.2500    -999.2500      97.5975      35.8857       0.4059       0.0561       3.8134       2.6771
   2235.0720      12.0990       0.0350      53.5690      41.4150    -999.2500    -999.2500     106.1590      39.0980       0.3320       0.0464       3.7020       2.7440
   2235.2246      12.0540       0.0215      54.7694      37.6424    -999.2500    -999.2500     107.3744      39.7032       0.2845       0.0495       3.6775       2.7355
   2235.3770      12.0090       0.0080      55.9690      33.8720    -999.2500    -999.2500     108.5890      40.3080       0.2370       0.0526       3.6530       2.7270
   2235.5293      13.5996       0.0640      56.1400      31.2954    -999.2500    -999.2500     104.3419      39.0332       0.2975       0.0557       3.5501       2.7200
   2235.6816      15.1920       0.1200      56.3110      28.7160    -999.2500    -999.2500     100.0900      37.7570       0.3580       0.0587       3.4470       2.7130
   2235.8342      14.3151       0.1365      57.1977      29.2255    -999.2500    -999.2500     109.3376      42.2659       0.3935       0.0674       3.7198       2.6725
   2235.9866      13.4400       0.1530      58.0840      29.7340    -999.2500    -999.2500     118.5670      46.7660       0.4290       0.0761       3.9920       2.6320
   2236.1389      12.9693       0.1625      56.2198      30.2693    -999.2500    -999.2500     121.7024      48.1570       0.3704       0.0543       3.9985       2.6856
   2236.2913      12.5010       0.1720      54.3560      30.8020    -999.2500    -999.2500     124.8220      49.5410       0.3120       0.0326       4.0050       2.7390
   2236.4438      12.8110       0.1229      53.5200      30.6247    -999.2500    -999.2500     118.3108      48.9135       0.3420       0.0294       3.7341       2.7766
   2236.5962      13.1200       0.0740      52.6840      30.4480    -999.2500    -999.2500     111.8210      48.2880       0.3720       0.0262       3.4640       2.8140
   2236.7485      12.3854       0.0530      54.8020      32.1899    -999.2500    -999.2500     110.7752      50.7935       0.3730       0.0336       3.3224       2.7665
   2236.9009      11.6520       0.0320      56.9200      33.9290    -999.2500    -999.2500     109.7310      53.2950       0.3740       0.0410       3.1810       2.7190
   2237.0532      11.7114       0.0365      57.8509      35.3093    -999.2500    -999.2500     110.2620      54.8646       0.3450       0.0499       3.2055       2.7125
   2237.2058      11.7710       0.0410      58.7820      36.6920    -999.2500    -999.2500     110.7940      56.4370       0.3160       0.0588       3.2300       2.7060
   2237.3582      11.7355       0.0445      58.8770      37.5541    -999.2500    -999.2500     108.5845      55.8391       0.3555       0.0664       3.2700       2.7085
   2237.5105      11.7000       0.0480      58.9720      38.4150    -999.2500    -999.2500     106.3780      55.2420       0.3950       0.0740       3.3100       2.7110
   2237.6628      11.7777       0.0510      58.7290      38.7069    -999.2500    -999.2500      98.9513      52.2094       0.3800       0.0775       3.2965       2.7035
   2237.8154      11.8550       0.0540      58.4860      38.9970    -999.2500    -999.2500      91.5690      49.1950       0.3650       0.0810       3.2830       2.6960
   2237.9678      12.0873       0.0640      58.1696      35.6130    -999.2500    -999.2500      83.9283      45.4245       0.3189       0.0856       3.3636       2.7045
   2238.1201      12.3190       0.0740      57.8530      32.2380    -999.2500    -999.2500      76.3080      41.6640       0.2730       0.0902       3.4440       2.7130
   2238.2725      12.1960       0.0805      57.5959      30.8519    -999.2500    -999.2500      74.5271      40.5968       0.2875       0.0875       3.4180       2.7075
   2238.4250      12.0730       0.0870      57.3390      29.4650    -999.2500    -999.2500      72.7450      39.5290       0.3020       0.0848       3.3920       2.7020
   2238.5774      12.1046       0.1040      57.9142      29.8929    -999.2500    -999.2500      79.2792      43.1112       0.2955       0.0781       3.4772       2.7255
   2238.7297      12.1360       0.1210      58.4890      30.3190    -999.2500    -999.2500      85.7870      46.6790       0.2890       0.0715       3.5620       2.7490
   2238.8821      11.9527       0.1406      59.3698      31.6980    -999.2500    -999.2500     101.3439      54.5797       0.3869       0.0794       3.6474       2.7375
   2239.0344      11.7710       0.1600      60.2500      33.0650    -999.2500    -999.2500     116.7660      62.4120       0.4840       0.0871       3.7320       2.7260
   2239.1870      11.8066       0.1475      61.0482      34.8854    -999.2500    -999.2500     147.5595      78.2535       0.4609       0.0834       3.6673       2.7110
   2239.3394      11.8420       0.1350      61.8460      36.6960    -999.2500    -999.2500     178.1880      94.0100       0.4380       0.0796       3.6030       2.6960
   2239.4917      11.8941       0.1185      66.0074      37.6245    -999.2500    -999.2500     211.2314     107.2050       0.3925       0.0709       3.6390       2.7160
   2239.6440      11.9460       0.1020      70.1670      38.5510    -999.2500    -999.2500     244.2070     120.3730       0.3470       0.0621       3.6750       2.7360
   2239.7966      11.7835       0.0660      65.3697      37.6899    -999.2500    -999.2500     263.2166     125.6779       0.4175       0.0597       3.4375       2.7095
   2239.9490      11.6210       0.0300      60.5740      36.8290    -999.2500    -999.2500     282.2200     130.9810       0.4880       0.0572       3.2000       2.6830
   2240.1013      11.5930       0.0345      60.5085      37.9182    -999.2500    -999.2500     325.4402     150.0866       0.4805       0.0579       3.2250       2.6930
   2240.2537      11.5650       0.0390      60.4430      39.0090    -999.2500    -999.2500     368.7210     169.2190       0.4730       0.0586       3.2500       2.7030
   2240.4062      11.5805       0.0450      66.6642      40.9391    -999.2500    -999.2500     438.8333     196.8997       0.4595       0.0555       3.2255       2.7130
   2240.5586      11.5960       0.0510      72.8850      42.8660    -999.2500    -999.2500     508.8280     224.5340       0.4460       0.0523       3.2010       2.7230
   2240.7109      11.4928       0.0550      67.1301      41.6231    -999.2500    -999.2500     467.3121     209.0974       0.4420       0.0495       3.2451       2.7305
   2240.8633      11.3900       0.0590      61.3750      40.3860    -999.2500    -999.2500     425.9930     193.7340       0.4380       0.0467       3.2890       2.7380
   2241.0156      11.4556       0.0605      59.4672      37.0264    -999.2500    -999.2500     376.2279     172.8765       0.4190       0.0469       3.3130       2.7430
   2241.1682      11.5210       0.0620      57.5590      33.6770    -999.2500    -999.2500     326.6130     152.0820       0.4000       0.0471       3.3370       2.7480
   2241.3206      11.5785       0.0645      55.4418      32.5278    -999.2500    -999.2500     320.3509     150.5805       0.3860       0.0504       3.3970       2.7550
   2241.4729      11.6360       0.0670      53.3240      31.3800    -999.2500    -999.2500     314.0970     149.0810       0.3720       0.0537       3.4570       2.7620
   2241.6252      11.5331       0.0575      55.8145      33.8155    -999.2500    -999.2500     342.2719     164.1572       0.4284       0.0565       3.6923       2.7500
   2241.7778      11.4300       0.0480      58.3060      36.2560    -999.2500    -999.2500     370.5040     179.2640       0.4850       0.0593       3.9280       2.7380
   2241.9302      11.4694       0.0425      58.7434      39.7890    -999.2500    -999.2500     376.5602     185.5072       0.4426       0.0553       3.9624       2.7430
   2242.0825      11.5090       0.0370      59.1810      43.3410    -999.2500    -999.2500     382.6490     191.7840       0.4000       0.0512       3.9970       2.7480
