#------------------------------------------------------------------------------
#
#   Created by  : [OpenWorks] Log Export Utility (LEXP)
#   Created on  : 2016-05-23 11:56:16
#   Project     : CANT971
#   User        : R5K
#   Interpreter : PEP
#
#------------------------------------------------------------------------------
~VERSION INFORMATION
VERS. 2.0 : CWLS Log ASCII Standard - version 2.0
WRAP.  NO : One line per depth step
~WELL INFORMATION
#MNEMONIC   .UNIT                                           VALUE :DESCRIPTION
#------------------------------------------------------------------------------
STRT        .M                                           785.0543 :START DEPTH
STOP        .M                                          3464.0940 :STOP DEPTH
STEP        .M                                             0.1524 :STEP
NULL        .                                           -999.2500 :NULL VALUE
COMP        .                                   PEMEX EXPL & PROD :COMPANY
WELL        .                                                448D :WELL
FLD         .                                           CANTARELL :FIELD
LOC         .                                             UNKNOWN :LOCATION
CNTY        .                                      CD. DEL CARMEN :COUNTY
STAT        .                                            CAMPECHE :STATE
CTRY        .                                              MEXICO :COUNTRY
SRVC        .                                             UNKNOWN :SERVICE COMPANY
DATE        .                                             UNKNOWN :LOG DATE
UWI         .                                          3060000822 :UNIQUE WELL ID
XCOORD      .                                       598710.240000 :SURFACE X
YCOORD      .                                      2143307.000000 :SURFACE Y
LAT         .                                           19.382637 :LATITUDE
LON         .                                          -92.060012 :LONGITUDE
ELEV        .M                                            28.0000 :SURFACE ELEV
ELEV_TYPE   .                                                  KB :ELEV TYPE
~CURVE INFORMATION
#MNEMONIC.UNIT        API CODE       : CURVE DESCRIPTION
#------------------------------------------------------------------------------
DEPTH    .M                          : Measured Depth
CALI     .inches      UNKNOWN        : CALI:registros:rC:NONE:v0 (auto-composite)
DRHO     .g/cm3       UNKNOWN        : DRHO:registros:rC:NONE:v0 (auto-composite)
DT       .us/ft       UNKNOWN        : DT:registros:rC:NONE:v0 (auto-composite)
GR       .API         UNKNOWN        : GR:registros:rC:NONE:v0 (auto-composite)
LLD      .ohm.m       UNKNOWN        : LLD:registros:rC:NONE:v0 (auto-composite)
LLS      .ohm.m       UNKNOWN        : LLS:registros:rC:NONE:v0 (auto-composite)
MSFL     .ohm.m       UNKNOWN        : MSFL:registros:rC:NONE:v0 (auto-composite)
NPHI     .v/v_decimal UNKNOWN        : NPHI:registros:rC:NONE:v0 (auto-composite)
PEF      .b/elec      UNKNOWN        : PEF:registros:rC:NONE:v0 (auto-composite)
RHOB     .g/cm3       UNKNOWN        : RHOB:registros:rC:NONE:v0 (auto-composite)
~A     DEPTH         CALI         DRHO           DT           GR          LLD          LLS         MSFL         NPHI          PEF         RHOB
# ...
   2679.6912      16.6176       0.0452      45.0693      14.9538     880.9025     222.6802     814.7566       0.0107       3.9016       2.8234
   2679.8435      16.6344       0.0476      47.8976      15.2878     885.4604     224.1992    1627.1104       0.0114       3.6552       2.8153
   2679.9958      16.6726       0.0485      49.0502      15.6008     914.9670     228.4404     635.7073       0.0112       3.4699       2.8165
   2680.1484      16.7778       0.0476      47.2442      16.2102     933.8820     231.8769     756.3705       0.0132       3.3601       2.8169
   2680.3008      16.8257       0.0453      47.9264      16.6305     951.3388     235.1600    1024.8508       0.0184       3.4256       2.8179
   2680.4531      16.8508       0.0519      48.3281      17.6667     885.1741     228.5031     616.0162       0.0226       3.4875       2.8273
   2680.6055      16.8711       0.0557      48.2680      16.8911     731.9030     210.3469     518.8686       0.0216       3.5368       2.8264
   2680.7578      16.8833       0.0580      48.5850      15.8852     622.3577     200.6708     720.2288       0.0180       3.5168       2.8232
   2680.9104      16.8897       0.0601      48.9580      16.4649     558.2570     197.8915     775.8871       0.0153       3.5229       2.8144
   2681.0627      16.9413       0.0663      49.0358      20.9996     579.4324     205.7502     532.1313       0.0130       3.5887       2.8075
   2681.2151      16.9642       0.0649      49.3625      28.7368     630.9193     216.9625     436.5786       0.0133       3.7459       2.7742
   2681.3674      16.8554       0.0550      49.5498      33.6843     516.2354     194.2494     460.5356       0.0215       3.6773       2.7455
   2681.5200      16.8930       0.0447      49.8703      36.0400     334.8039     148.7903     287.4436       0.0346       3.4139       2.7271
   2681.6724      16.9380       0.0317      50.2414      31.9277     274.6739     129.7099     371.7943       0.0381       3.2611       2.7337
   2681.8247      16.9639       0.0197      51.7068      29.0147     264.5545     125.5877     603.8337       0.0288       3.2366       2.7458
   2681.9771      16.9766       0.0091      53.7463      26.0740     285.0874     130.7759      87.8894       0.0182       3.4242       2.7602
   2682.1296      16.9818       0.0069      53.9529      24.7112     403.8972     160.7633      36.2278       0.0148       3.5398       2.7681
   2682.2820      16.9845       0.0062      52.7006      23.8905     700.5891     219.0839      63.3481       0.0130       3.6682       2.7615
   2682.4343      17.0038       0.0090      51.7498      22.0763     948.7388     257.0963     103.5414       0.0124       3.5503       2.7547
   2682.5867      17.1014       0.0119      51.8111      21.9118     961.0168     250.7416     150.9796       0.0119       3.0051       2.7437
   2682.7390      17.4341       0.0134      50.3521      22.2563    1236.4465     261.5728     448.4557       0.0095       2.8593       2.7329
   2682.8916      17.6683       0.0139      49.1345      22.8241    1647.7628     281.2800    1156.1841       0.0087       2.9404       2.7385
   2683.0439      17.6868       0.0129      48.8022      24.0187    2291.3953     310.8341    1014.7393       0.0086       3.4293       2.7481
   2683.1963      17.6182       0.0165      48.9084      24.2512    3502.5020     349.3051     716.7101       0.0105       3.5921       2.7608
   2683.3486      17.3360       0.0139      48.4209      24.6125    4984.2559     363.1420    1394.8894       0.0109       3.5766       2.7454
   2683.5012      17.3774       0.0166      48.4759      23.4684    6650.2949     368.5670     533.5654       0.0100       3.4881       2.7401
   2683.6536      17.3976       0.0278      48.3233      22.6057    8946.8691     370.8017     323.9725       0.0089       3.3984       2.7523
   2683.8059      17.4440       0.0388      47.7708      21.5503    8949.8984     359.3020     643.8016       0.0089       3.3137       2.7675
   2683.9583      17.5498       0.0508      48.3175      21.3928    9952.1777     368.2744    1732.7385       0.0102       3.2228       2.7583
   2684.1108      17.6385       0.0726      49.4583      21.2067   11758.4551     385.2237    1524.7189       0.0131       3.2706       2.7454
   2684.2632      17.5757       0.0695      50.2184      22.6970    7511.3135     381.8632     627.7773       0.0192       3.3096       2.7246
   2684.4155      17.5445       0.0640      49.8942      25.2945    8114.7524     386.6174     819.7734       0.0242       3.3685       2.7358
   2684.5679      17.5327       0.0612      50.7833      24.6290    7907.8784     379.9148     975.2700       0.0238       3.5154       2.7687
   2684.7202      17.5258       0.0416      50.3539      23.9239    7764.6362     370.8706    1698.2817       0.0166       3.7085       2.7774
   2684.8728      17.4556       0.0117      50.7383      22.5984   10712.9658     377.0724    1620.6112       0.0121       3.8283       2.7519
   2685.0251      17.2949       0.0099      50.8675      26.3324   13236.4268     378.3010    1870.8894       0.0103       3.7589       2.7455
   2685.1775      17.3233       0.0181      49.5368      28.6799   13842.4414     373.8531    1857.0264       0.0108       3.7599       2.7427
   2685.3298      17.3335       0.0445      48.4058      28.3003   10376.3760     361.0185    1978.4094       0.0126       3.6970       2.7346
   2685.4824      17.3519       0.0764      48.7652      25.4948    3117.7893     318.9056    2000.0000       0.0193       3.6080       2.6789
   2685.6348      17.3267       0.0712      50.6321      21.8616    1725.5701     289.2782    1728.7777       0.0313       3.5235       2.6493
   2685.7871      17.3043       0.0744      51.9253      21.7249    1192.9526     266.3265     831.1043       0.0369       3.5344       2.6905
   2685.9395      17.4499       0.0895      52.1789      22.7931     860.0139     233.2578     308.0316       0.0373       3.5678       2.8072
   2686.0920      17.4912       0.0683      54.6301      24.4147     748.6345     216.0033     206.3450       0.0303       3.6188       2.8338
   2686.2444      17.4462       0.0186      55.0524      24.5411     700.3560     208.5028     173.6381       0.0271       3.5893       2.7918
   2686.3967      17.5156       0.0129      54.6276      23.5400     665.7632     202.9886     101.3609       0.0216       3.4710       2.7760
   2686.5491      17.4259       0.0129      53.7376      23.7349     675.1221     207.9739     236.2926       0.0198       3.2842       2.7506
   2686.7014      17.3836       0.0136      52.6915      26.4037     743.2814     224.3276     327.9750       0.0208       3.2986       2.7294
   2686.8540      17.2754       0.0166      51.9608      30.4112     774.0548     232.3111     321.3519       0.0230       3.3666       2.7262
   2687.0063      17.0651       0.0186      50.9558      32.8060     788.7150     234.6775     721.9672       0.0250       3.4467       2.7403
   2687.1587      16.9790       0.0209      52.2971      34.1643     896.1255     242.8425    1248.6979       0.0257       3.3443       2.7471
   2687.3110      16.9901       0.0247      54.0626      34.7098     907.2719     239.0459     406.2263       0.0252       3.3646       2.7487
   2687.4636      17.0370       0.0254      54.3546      35.9142     984.1511     241.0629     580.0800       0.0221       3.4575       2.7506
   2687.6160      17.0471       0.0342      53.9118      35.4793    1159.7764     254.8172     453.3410       0.0214       3.5505       2.7594
   2687.7683      17.0479       0.0441      53.7575      31.3183     724.6124     208.6483     891.3386       0.0229       3.5692       2.7671
   2687.9207      17.0603       0.0431      53.5462      29.5585     570.3998     183.8760     680.5898       0.0280       3.5818       2.7492
   2688.0732      17.0861       0.0293      53.5652      28.3492     610.2614     188.3710     627.0834       0.0335       3.6032       2.7206
