#------------------------------------------------------------------------------
#
#   Created by  : [OpenWorks] Log Export Utility (LEXP)
#   Created on  : 2016-05-23 11:53:49
#   Project     : CANT971
#   User        : R5K
#   Interpreter : PEP
#
#------------------------------------------------------------------------------
~VERSION INFORMATION
VERS. 2.0 : CWLS Log ASCII Standard - version 2.0
WRAP.  NO : One line per depth step
~WELL INFORMATION
#MNEMONIC   .UNIT                                           VALUE :DESCRIPTION
#------------------------------------------------------------------------------
STRT        .M                                           293.9797 :START DEPTH
STOP        .M                                          2713.7869 :STOP DEPTH
STEP        .M                                             0.1524 :STEP
NULL        .                                           -999.2500 :NULL VALUE
COMP        .                                   PEMEX EXPL & PROD :COMPANY
WELL        .                                                  28 :WELL
FLD         .                                           CANTARELL :FIELD
LOC         .                                             UNKNOWN :LOCATION
CNTY        .                                      CD. DEL CARMEN :COUNTY
STAT        .                                            CAMPECHE :STATE
CTRY        .                                              MEXICO :COUNTRY
SRVC        .                                             UNKNOWN :SERVICE COMPANY
DATE        .                                             UNKNOWN :LOG DATE
UWI         .                                          3060000156 :UNIQUE WELL ID
XCOORD      .                                       598450.720000 :SURFACE X
YCOORD      .                                      2145024.710000 :SURFACE Y
LAT         .                                           19.398172 :LATITUDE
LON         .                                          -92.062394 :LONGITUDE
ELEV        .M                                            26.5400 :SURFACE ELEV
ELEV_TYPE   .                                                  KB :ELEV TYPE
~CURVE INFORMATION
#MNEMONIC.UNIT        API CODE       : CURVE DESCRIPTION
#------------------------------------------------------------------------------
DEPTH    .M                          : Measured Depth
CALI     .inches      UNKNOWN        : CALI:Import:rC:NONE:v0 (auto-composite)
DRHO     .g/cm3       UNKNOWN        : DRHO:Import:rC:NONE:v0 (auto-composite)
DT       .us/ft       UNKNOWN        : DT:Import:rC:NONE:v0 (auto-composite)
GR       .API         UNKNOWN        : GR:Import:rC:NONE:v0 (auto-composite)
ILD      .ohm.m       UNKNOWN        : ILD:Import:rC:NONE:v0 (auto-composite)
LLD      .ohm.m       UNKNOWN        : LLD:Import:rC:NONE:v0 (auto-composite)
LLS      .ohm.m       UNKNOWN        : LLS:Import:rC:NONE:v0 (auto-composite)
MSFL     .ohm.m       UNKNOWN        : MSFL:Import:rC:NONE:v0 (auto-composite)
NPHI     .v/v_decimal UNKNOWN        : NPHI:Import:rC:NONE:v0 (auto-composite)
PEF      .b/elec      UNKNOWN        : PEF:Import:rC:NONE:v0 (auto-composite)
RHOB     .g/cm3       UNKNOWN        : RHOB:Import:rC:NONE:v0 (auto-composite)
~A     DEPTH         CALI         DRHO           DT           GR          ILD          LLD          LLS         MSFL         NPHI          PEF         RHOB
# ...
   1244.9557       7.7360    -999.2500    -999.2500      42.2820    -999.2500       0.7467       0.8720       0.9395       0.4643    -999.2500    -999.2500
   1245.1080       7.7360    -999.2500    -999.2500      43.4158    -999.2500       0.8100       0.8690       0.9390       0.4632    -999.2500    -999.2500
   1245.2605       7.7365    -999.2500    -999.2500      44.5430    -999.2500       0.8080       0.8499       0.8968       0.4578    -999.2500    -999.2500
   1245.4128       7.7370    -999.2500    -999.2500      44.3846    -999.2500       0.8060       0.8310       0.8550       0.4524    -999.2500    -999.2500
   1245.5653       7.7375    -999.2500    -999.2500      44.2270    -999.2500       0.7628       0.7979       0.8590       0.4521    -999.2500    -999.2500
   1245.7177       7.7380    -999.2500    -999.2500      43.6614    -999.2500       0.7200       0.7650       0.8630       0.4525    -999.2500    -999.2500
   1245.8701       7.7380    -999.2500    -999.2500      43.0990    -999.2500       0.7240       0.7791       0.8866       0.4551    -999.2500    -999.2500
   1246.0225       7.7380    -999.2500    -999.2500      42.6463    -999.2500       0.7280       0.7930       0.9100       0.4576    -999.2500    -999.2500
   1246.1749       7.7385    -999.2500    -999.2500      42.1960    -999.2500       0.7883       0.8472       0.9547       0.4577    -999.2500    -999.2500
   1246.3273       7.7390    -999.2500    -999.2500      42.2206    -999.2500       0.8480       0.9010       0.9990       0.4571    -999.2500    -999.2500
   1246.4797       7.7395    -999.2500    -999.2500      42.2450    -999.2500       0.8440       0.8910       0.9945       0.4515    -999.2500    -999.2500
   1246.6321       7.7400    -999.2500    -999.2500      42.3934    -999.2500       0.8400       0.8810       0.9900       0.4461    -999.2500    -999.2500
   1246.7844       7.7400    -999.2500    -999.2500      42.5410    -999.2500       0.8224       0.8479       0.9574       0.4461    -999.2500    -999.2500
   1246.9369       7.7400    -999.2500    -999.2500      43.0084    -999.2500       0.8050       0.8150       0.9250       0.4473    -999.2500    -999.2500
   1247.0892       7.7405    -999.2500    -999.2500      43.4730    -999.2500       0.7829       0.8009       0.9285       0.4538    -999.2500    -999.2500
   1247.2417       7.7410    -999.2500    -999.2500      44.2866    -999.2500       0.7610       0.7870       0.9320       0.4601    -999.2500    -999.2500
   1247.3940       7.7415    -999.2500    -999.2500      45.0950    -999.2500       0.7474       0.7775       0.9486       0.4601    -999.2500    -999.2500
   1247.5465       7.7420    -999.2500    -999.2500      45.4160    -999.2500       0.7340       0.7680       0.9650       0.4582    -999.2500    -999.2500
   1247.6989       7.7420    -999.2500    -999.2500      45.7350    -999.2500       0.7345       0.7720       0.9806       0.4459    -999.2500    -999.2500
   1247.8513       7.7420    -999.2500    -999.2500      45.6863    -999.2500       0.7350       0.7760       0.9960       0.4338    -999.2500    -999.2500
   1248.0037       7.7425    -999.2500    -999.2500      45.6380    -999.2500       0.7380       0.7891       0.9980       0.4331    -999.2500    -999.2500
   1248.1561       7.7430    -999.2500    -999.2500      45.1967    -999.2500       0.7410       0.8020       1.0000       0.4338    -999.2500    -999.2500
   1248.3085       7.7435    -999.2500    -999.2500      44.7580    -999.2500       0.7480       0.7844       0.9885       0.4358    -999.2500    -999.2500
   1248.4608       7.7440    -999.2500    -999.2500      45.2510    -999.2500       0.7550       0.7670       0.9770       0.4380    -999.2500    -999.2500
   1248.6133       7.7470    -999.2500    -999.2500      45.7410    -999.2500       0.7500       0.7685       0.9253       0.4414    -999.2500    -999.2500
   1248.7656       7.7500    -999.2500    -999.2500      45.5439    -999.2500       0.7450       0.7700       0.8740       0.4446    -999.2500    -999.2500
   1248.9181       7.7600    -999.2500    -999.2500      45.3480    -999.2500       0.7234       0.7820       0.8835       0.4448    -999.2500    -999.2500
   1249.0704       7.7700    -999.2500    -999.2500      44.5387    -999.2500       0.7020       0.7940       0.8930       0.4442    -999.2500    -999.2500
   1249.2229       7.7775    -999.2500    -999.2500      43.7340    -999.2500       0.7035       0.8196       0.9336       0.4401    -999.2500    -999.2500
   1249.3752       7.7850    -999.2500    -999.2500      42.8500    -999.2500       0.7050       0.8450       0.9740       0.4363    -999.2500    -999.2500
   1249.5277       7.7855    -999.2500    -999.2500      41.9710    -999.2500       0.7150       0.8581       1.0563       0.4394    -999.2500    -999.2500
   1249.6801       7.7860    -999.2500    -999.2500      40.9417    -999.2500       0.7250       0.8710       1.1380       0.4425    -999.2500    -999.2500
   1249.8325       7.7860    -999.2500    -999.2500      39.9180    -999.2500       0.7446       0.8670       1.1315       0.4398    -999.2500    -999.2500
   1249.9849       7.7860    -999.2500    -999.2500      38.1237    -999.2500       0.7640       0.8630       1.1250       0.4355    -999.2500    -999.2500
   1250.1373       7.7865    -999.2500    -999.2500      36.3390    -999.2500       0.7881       0.8484       1.0502       0.4239    -999.2500    -999.2500
   1250.2897       7.7870    -999.2500    -999.2500      36.4132    -999.2500       0.8120       0.8340       0.9760       0.4126    -999.2500    -999.2500
   1250.4420       7.7875    -999.2500    -999.2500      36.4870    -999.2500       0.8100       0.8225       0.9805       0.4114    -999.2500    -999.2500
   1250.5945       7.7880    -999.2500    -999.2500      37.0284    -999.2500       0.8080       0.8110       0.9850       0.4117    -999.2500    -999.2500
   1250.7468       7.7885    -999.2500    -999.2500      37.5670    -999.2500       0.7965       0.7879       0.9303       0.4138    -999.2500    -999.2500
   1250.8993       7.7890    -999.2500    -999.2500      38.6491    -999.2500       0.7850       0.7650       0.8760       0.4158    -999.2500    -999.2500
   1251.0516       7.7890    -999.2500    -999.2500      39.7250    -999.2500       0.7468       0.7655       0.8951       0.4156    -999.2500    -999.2500
   1251.2041       7.7890    -999.2500    -999.2500      40.0957    -999.2500       0.7090       0.7660       0.9140       0.4148    -999.2500    -999.2500
   1251.3564       7.7895    -999.2500    -999.2500      40.4640    -999.2500       0.7105       0.7791       1.0274       0.4117    -999.2500    -999.2500
   1251.5089       7.7900    -999.2500    -999.2500      40.3908    -999.2500       0.7120       0.7920       1.1400       0.4080    -999.2500    -999.2500
   1251.6613       7.7905    -999.2500    -999.2500      40.3180    -999.2500       0.7286       0.8382       1.1275       0.4024    -999.2500    -999.2500
   1251.8137       7.7910    -999.2500    -999.2500      39.9624    -999.2500       0.7450       0.8840       1.1150       0.3969    -999.2500    -999.2500
   1251.9661       7.7910    -999.2500    -999.2500      39.6090    -999.2500       0.7877       0.9121       1.1260       0.3944    -999.2500    -999.2500
   1252.1185       7.7910    -999.2500    -999.2500      39.1551    -999.2500       0.8300       0.9400       1.1370       0.3918    -999.2500    -999.2500
   1252.2709       7.7920    -999.2500    -999.2500      38.7040    -999.2500       0.8496       0.9581       1.1711       0.3853    -999.2500    -999.2500
   1252.4232       7.7930    -999.2500    -999.2500      38.5084    -999.2500       0.8690       0.9760       1.2050       0.3792    -999.2500    -999.2500
   1252.5757       7.7925    -999.2500    -999.2500      38.3140    -999.2500       0.8876       0.9880       1.1578       0.3787    -999.2500    -999.2500
   1252.7280       7.7920    -999.2500    -999.2500      38.0201    -999.2500       0.9060       1.0000       1.1110       0.3789    -999.2500    -999.2500
