#------------------------------------------------------------------------------
#
#   Created by  : [OpenWorks] Log Export Utility (LEXP)
#   Created on  : 2016-05-23 11:53:41
#   Project     : CANT971
#   User        : R5K
#   Interpreter : PEP
#
#------------------------------------------------------------------------------
~VERSION INFORMATION
VERS. 2.0 : CWLS Log ASCII Standard - version 2.0
WRAP.  NO : One line per depth step
~WELL INFORMATION
#MNEMONIC   .UNIT                                           VALUE :DESCRIPTION
#------------------------------------------------------------------------------
STRT        .M                                           901.1412 :START DEPTH
STOP        .M                                          2449.6777 :STOP DEPTH
STEP        .M                                             0.1524 :STEP
NULL        .                                           -999.2500 :NULL VALUE
COMP        .                                   PEMEX EXPL & PROD :COMPANY
WELL        .                                                  25 :WELL
FLD         .                                           CANTARELL :FIELD
LOC         .                                             UNKNOWN :LOCATION
CNTY        .                                      CD. DEL CARMEN :COUNTY
STAT        .                                            CAMPECHE :STATE
CTRY        .                                              MEXICO :COUNTRY
SRVC        .                                             UNKNOWN :SERVICE COMPANY
DATE        .                                             UNKNOWN :LOG DATE
UWI         .                                          3060000154 :UNIQUE WELL ID
XCOORD      .                                       603358.080000 :SURFACE X
YCOORD      .                                      2145091.420000 :SURFACE Y
LAT         .                                           19.398528 :LATITUDE
LON         .                                          -92.015660 :LONGITUDE
ELEV        .M                                            27.1400 :SURFACE ELEV
ELEV_TYPE   .                                                  KB :ELEV TYPE
~CURVE INFORMATION
#MNEMONIC.UNIT        API CODE       : CURVE DESCRIPTION
#------------------------------------------------------------------------------
DEPTH    .M                          : Measured Depth
CALI     .in          UNKNOWN        : CALI:registros:rC:NONE:v0 (auto-composite)
DRHO     .g/cm3       UNKNOWN        : DRHO:registros:rC:NONE:v0 (auto-composite)
DT       .us/ft       UNKNOWN        : DT:registros:rC:NONE:v0 (auto-composite)
GR       .api         UNKNOWN        : GR:registros:rC:NONE:v0 (auto-composite)
ILD      .ohmm        UNKNOWN        : ILD:registros:rC:NONE:v0 (auto-composite)
LLD      .ohmm        UNKNOWN        : LLD:registros:rC:NONE:v0 (auto-composite)
LLS      .ohmm        UNKNOWN        : LLS:registros:rC:NONE:v0 (auto-composite)
MSFL     .ohmm        UNKNOWN        : MSFL:registros:rC:NONE:v0 (auto-composite)
NPHI     .v/v_decimal UNKNOWN        : NPHI:registros:rC:NONE:v0 (auto-composite)
PEF      .b/elec      UNKNOWN        : PEF:registros:rC:NONE:v0 (auto-composite)
RHOB     .g/cm3       UNKNOWN        : RHOB:registros:rC:NONE:v0 (auto-composite)
~A     DEPTH         CALI         DRHO           DT           GR          ILD          LLD          LLS         MSFL         NPHI          PEF         RHOB
# ...
   2177.0339       6.6425       0.0110      67.8636      36.7766    -999.2500     110.5928      45.4550      50.0112       0.1182       3.0890       2.5386
   2177.1865       6.6620       0.0080      69.5820      35.2800    -999.2500     100.8300      40.9420      38.7160       0.1334       3.1110       2.4960
   2177.3389       6.6645       0.0005      68.0475      34.4161    -999.2500      97.4808      39.7910      30.1679       0.1548       3.0965       2.5184
   2177.4912       6.6670      -0.0070      66.5050      33.5490    -999.2500      94.1140      38.6340      21.5750       0.1764       3.0820       2.5410
   2177.6436       6.6495      -0.0045      65.3900      32.7415    -999.2500     116.7807      44.0440      23.1169       0.1660       3.0060       2.5634
   2177.7961       6.6320      -0.0020      64.2690      31.9310    -999.2500     139.5690      49.4830      24.6670       0.1555       2.9300       2.5860
   2177.9485       6.5716       0.0055      61.5799      30.6260    -999.2500     167.6659      56.6932      26.9383       0.1434       2.9595       2.6049
   2178.1008       6.5110       0.0130      58.8760      29.3160    -999.2500     195.9170      63.9430      29.2220       0.1313       2.9890       2.6240
   2178.2532       6.4810       0.0085      56.2718      28.7232    -999.2500     170.8793      71.4569      39.5784       0.1157       2.9945       2.6405
   2178.4055       6.4510       0.0040      53.6530      28.1280    -999.2500     145.7010      79.0130      49.9930       0.1001       3.0000       2.6570
   2178.5581       6.4465      -0.0010      56.8558      27.4858    -999.2500     146.7733      85.8489      54.9383       0.0882       3.0000       2.6715
   2178.7104       6.4420      -0.0060      60.0770      26.8410    -999.2500     147.8500      92.7130      59.9040       0.0763       3.0000       2.6860
   2178.8628       6.3876      -0.0030      61.1838      26.3346    -999.2500     167.4782      89.4809      91.0692       0.0685       3.0000       2.7099
   2179.0151       6.3330       0.0000      62.2970      25.8260    -999.2500     187.1900      86.2350     122.3670       0.0606       3.0000       2.7340
   2179.1677       6.3330       0.0134      57.9779      26.8368    -999.2500     202.0210      78.4790      86.3111       0.0554       3.0435       2.7539
   2179.3201       6.3330       0.0270      53.6330      27.8520    -999.2500     216.9170      70.6890      50.0970       0.0503       3.0870       2.7740
   2179.4724       6.3330       0.0230      53.6659      31.1800    -999.2500     227.6134      72.4660      58.3584       0.0516       3.2747       2.7880
   2179.6248       6.3330       0.0190      53.6990      34.5230    -999.2500     238.3580      74.2510      66.6570       0.0530       3.4620       2.8020
   2179.7773       6.3330       0.0115      54.2049      34.1633    -999.2500     251.6078      75.1549      62.0093       0.0559       3.5150       2.7865
   2179.9297       6.3330       0.0040      54.7140      33.8020    -999.2500     264.9190      76.0630      57.3400       0.0587       3.5680       2.7710
   2180.0820       6.3330       0.0020      55.6246      31.5873    -999.2500     297.3523      69.0557      64.3812       0.0595       3.4014       2.7555
   2180.2344       6.3330       0.0000      56.5410      29.3620    -999.2500     329.9400      62.0150      71.4560       0.0603       3.2350       2.7400
   2180.3867       6.3330      -0.0010      56.2333      28.2013    -999.2500     309.5309      65.8801      83.7055       0.0621       3.2840       2.7420
   2180.5393       6.3330      -0.0020      55.9240      27.0350    -999.2500     289.0220      69.7640      96.0150       0.0639       3.3330       2.7440
   2180.6917       6.3330      -0.0050      56.7644      27.3535    -999.2500     267.2780      76.7654      66.3140       0.0667       3.2284       2.7340
   2180.8440       6.3330      -0.0080      57.6090      27.6730    -999.2500     245.4250      83.8020      36.4640       0.0695       3.1240       2.7240
   2180.9963       6.3330      -0.0095      58.2474      28.4561    -999.2500     254.0683      81.1084      50.3667       0.0714       3.0064       2.7265
   2181.1489       6.3330      -0.0110      58.8890      29.2420    -999.2500     262.7560      78.4010      64.3410       0.0733       2.8890       2.7290
   2181.3013       6.3330      -0.0090      58.4192      30.0545    -999.2500     272.8669      73.4196     101.5056       0.0691       2.9831       2.7499
   2181.4536       6.3330      -0.0070      57.9470      30.8700    -999.2500     283.0310      68.4120     138.8660       0.0648       3.0770       2.7710
   2181.6060       6.3330      -0.0040      57.1935      31.5637    -999.2500     299.9593      69.3101     120.8990       0.0607       3.2471       2.7695
   2181.7585       6.3330      -0.0010      56.4360      32.2600    -999.2500     316.9790      70.2130     102.8350       0.0564       3.4170       2.7680
   2181.9109       6.3330      -0.0005      55.3271      32.9367    -999.2500     308.8000      79.6066     113.5315       0.0539       3.4630       2.7605
   2182.0632       6.3330       0.0000      54.2120      33.6160    -999.2500     300.5760      89.0520     124.2870       0.0514       3.5090       2.7530
   2182.2156       6.3330       0.0000      54.6827      34.5970    -999.2500     273.8370      85.6157     131.9115       0.0541       3.4060       2.7585
   2182.3679       6.3330       0.0000      55.1560      35.5820    -999.2500     246.9470      82.1600     139.5790       0.0567       3.3030       2.7640
   2182.5205       6.3330       0.0020      55.6321      36.5964    -999.2500     225.0960      79.5175     122.9506       0.0607       3.3090       2.7705
   2182.6729       6.3330       0.0040      56.1110      37.6150    -999.2500     203.1540      76.8640     106.2530       0.0646       3.3150       2.7770
   2182.8252       6.3330       0.0045      55.8707      36.0329    -999.2500     207.4009      76.1800     109.1633       0.0673       3.3755       2.7725
   2182.9775       6.3330       0.0050      55.6290      34.4440    -999.2500     211.6660      75.4930     112.0860       0.0700       3.4360       2.7680
   2183.1301       6.3330      -0.0005      55.5228      34.6041    -999.2500     221.9658      72.2152      99.9343       0.0687       3.3494       2.7620
   2183.2825       6.3330      -0.0060      55.4160      34.7650    -999.2500     232.3110      68.9230      87.7290       0.0675       3.2630       2.7560
   2183.4348       6.3330      -0.0085      55.3562      34.6198    -999.2500     213.7636      70.6286      78.1672       0.0629       3.1314       2.7570
   2183.5872       6.3330      -0.0110      55.2960      34.4740    -999.2500     195.1320      72.3420      68.5620       0.0583       3.0000       2.7580
   2183.7397       6.3330      -0.0095      55.2252      33.2738    -999.2500     185.5848      81.3190      73.1114       0.0599       3.2012       2.7590
   2183.8921       6.3330      -0.0080      55.1540      32.0680    -999.2500     175.9930      90.3380      77.6820       0.0615       3.4020       2.7600
   2184.0444       6.3330      -0.0070      55.5986      29.8054    -999.2500     165.9371      78.3792      73.9579       0.0609       3.2404       2.7525
   2184.1968       6.3330      -0.0060      56.0460      27.5320    -999.2500     155.8330      66.3630      70.2160       0.0604       3.0790       2.7450
   2184.3491       6.3330      -0.0055      55.7004      25.3499    -999.2500     160.8048      63.5315      60.7593       0.0590       2.9929       2.7580
   2184.5017       6.3330      -0.0050      55.3530      23.1570    -999.2500     165.8010      60.6860      51.2560       0.0577       2.9070       2.7710
   2184.6541       6.3330      -0.0030      56.7196      23.4799    -999.2500     174.4123      63.8750      49.0196       0.0629       2.9480       2.7620
   2184.8064       6.3330      -0.0010      58.0930      23.8040    -999.2500     183.0670      67.0800      46.7720       0.0681       2.9890       2.7530
