#------------------------------------------------------------------------------
#
#   Created by  : [OpenWorks] Log Export Utility (LEXP)
#   Created on  : 2016-05-23 11:57:04
#   Project     : CANT971
#   User        : R5K
#   Interpreter : PEP
#
#------------------------------------------------------------------------------
~VERSION INFORMATION
VERS. 2.0 : CWLS Log ASCII Standard - version 2.0
WRAP.  NO : One line per depth step
~WELL INFORMATION
#MNEMONIC   .UNIT                                           VALUE :DESCRIPTION
#------------------------------------------------------------------------------
STRT        .M                                           125.9451 :START DEPTH
STOP        .M                                          3005.5432 :STOP DEPTH
STEP        .M                                             0.1524 :STEP
NULL        .                                           -999.2500 :NULL VALUE
COMP        .                                   PEMEX EXPL & PROD :COMPANY
WELL        .                                                 66A :WELL
FLD         .                                           CANTARELL :FIELD
LOC         .                                             UNKNOWN :LOCATION
CNTY        .                                      CD. DEL CARMEN :COUNTY
STAT        .                                            CAMPECHE :STATE
CTRY        .                                              MEXICO :COUNTRY
SRVC        .                                             UNKNOWN :SERVICE COMPANY
DATE        .                                             UNKNOWN :LOG DATE
UWI         .                                          3060000173 :UNIQUE WELL ID
XCOORD      .                                       599692.990000 :SURFACE X
YCOORD      .                                      2143036.380000 :SURFACE Y
LAT         .                                           19.380143 :LATITUDE
LON         .                                          -92.050669 :LONGITUDE
ELEV        .M                                            26.7400 :SURFACE ELEV
ELEV_TYPE   .                                                  KB :ELEV TYPE
~CURVE INFORMATION
#MNEMONIC.UNIT        API CODE       : CURVE DESCRIPTION
#------------------------------------------------------------------------------
DEPTH    .M                          : Measured Depth
CALI     .UNKNOWN     UNKNOWN        : CALI:UNKNOWN:rC:NONE:v0 (auto-composite)
DT       .us/ft       UNKNOWN        : DT:DT:rC:NONE:v0 (auto-composite)
GR       .API         UNKNOWN        : GR:UNKNOWN:rC:NONE:v0 (auto-composite)
GR-ENT   .API         UNKNOWN        : GR-ENT:porosidad-entubado:rC:NONE:v0 (auto-composite)
GR-LWD   .UNKNOWN     UNKNOWN        : GR-LWD:GR-LWD:rC:NONE:v0 (auto-composite)
ILD      .UNKNOWN     UNKNOWN        : ILD:UNKNOWN:rC:NONE:v0 (auto-composite)
LLD      .UNKNOWN     UNKNOWN        : LLD:UNKNOWN:rC:NONE:v0 (auto-composite)
LLD-LWD  .UNKNOWN     UNKNOWN        : LLD-LWD:LLD-LWD:rC:NONE:v0 (auto-composite)
LLS      .UNKNOWN     UNKNOWN        : LLS:UNKNOWN:rC:NONE:v0 (auto-composite)
LLS-LWD  .UNKNOWN     UNKNOWN        : LLS-LWD:LLS-LWD:rC:NONE:v0 (auto-composite)
MSFL     .UNKNOWN     UNKNOWN        : MSFL:UNKNOWN:rC:NONE:v0 (auto-composite)
MSFL-LWD .UNKNOWN     UNKNOWN        : MSFL-LWD:MSFL-LWD:rC:NONE:v0 (auto-composite)
NPHI     .v/v_decimal UNKNOWN        : NPHI:PETROWORKS:rC:NONE:v1 
NPHI-ENT .UNKNOWN     UNKNOWN        : NPHI-ENT:porosidad-entubado:rC:NONE:v0 (auto-composite)
RHOB     .g/cm3       UNKNOWN        : RHOB:UNKNOWN:rC:NONE:v0 (auto-composite)
~A     DEPTH         CALI           DT           GR       GR-ENT       GR-LWD          ILD          LLD      LLD-LWD          LLS      LLS-LWD         MSFL     MSFL-LWD         NPHI     NPHI-ENT         RHOB
# ...
   2586.5955    -999.2500      56.1168      32.7631      25.5125      27.6283    -999.2500      87.4144     188.4840      71.0435     491.6440    -999.2500      52.4561       0.0813       0.0928    -999.2500
   2586.7478    -999.2500      57.2893      32.2018      25.9369      22.2416    -999.2500      82.4031      47.4455      65.8187      69.0043    -999.2500      22.6492       0.0826       0.0949    -999.2500
   2586.9004    -999.2500      58.5036      31.6790      27.0273      26.5800    -999.2500      78.3766      40.5200      61.7597      41.5500    -999.2500      34.6700       0.0842       0.0936    -999.2500
   2587.0527    -999.2500      59.7771      31.2100      28.3208      25.0030    -999.2500      75.7334      37.8672      59.3376      37.6607    -999.2500      32.2299       0.0858       0.0907    -999.2500
   2587.2051    -999.2500      61.0105      30.9555      29.8157      23.7331    -999.2500      72.7446      35.0769      56.6832      35.2516    -999.2500      31.9460       0.0863       0.0884    -999.2500
   2587.3574    -999.2500      62.1875      31.0049      30.8793      24.8199    -999.2500      69.2656      33.8349      53.6990      34.2689    -999.2500      32.0959       0.0853       0.0886    -999.2500
   2587.5100    -999.2500      62.7212      30.9002      31.5637      28.4002    -999.2500      64.9210      33.2769      50.3879      31.6714    -999.2500      30.5946       0.0864       0.0932    -999.2500
   2587.6624    -999.2500      62.3451      30.5758      31.1921      30.1986    -999.2500      59.3439      31.8238      46.6116      28.5675    -999.2500      27.5888       0.0904       0.0970    -999.2500
   2587.8147    -999.2500      62.0551      30.9645      30.4698      32.9520    -999.2500      59.2586      31.8508      46.9677      28.7176    -999.2500      27.6002       0.0916       0.0940    -999.2500
   2587.9670    -999.2500      61.8867      32.3719      29.7739      35.7509    -999.2500      67.0201      32.0104      53.2286      29.4476    -999.2500      27.9780       0.0888       0.0899    -999.2500
   2588.1194    -999.2500      61.5741      33.4971      29.2868      37.0878    -999.2500      71.3361      28.0089      56.5565      23.5973    -999.2500      21.0565       0.0864       0.0854    -999.2500
   2588.2720    -999.2500      61.0574      34.2282      29.6203      36.4300    -999.2500      70.8402      26.1409      55.7885      22.9260    -999.2500      19.5059       0.0846       0.0809    -999.2500
   2588.4243    -999.2500      60.9513      35.4075      30.2912      48.8363    -999.2500      68.0026      26.6414      53.2338      26.1316    -999.2500      23.0849       0.0849       0.0802    -999.2500
   2588.5767    -999.2500      61.4246      37.2192      30.7386      52.0508    -999.2500      61.8612      23.8081      48.1585      24.6980    -999.2500      22.0394       0.0885       0.0804    -999.2500
   2588.7290    -999.2500      61.7794      38.1184      30.9708      39.9424    -999.2500      55.5978      24.0508      43.1295      26.4723    -999.2500      25.1108       0.0919       0.0818    -999.2500
   2588.8816    -999.2500      61.9665      37.7256      30.2874      33.4307    -999.2500      49.1616      26.6462      38.1661      31.2755    -999.2500      30.8688       0.0952       0.0876    -999.2500
   2589.0339    -999.2500      62.1537      37.1777      28.6191      29.3764    -999.2500      44.0518      26.2653      34.4935      32.3582    -999.2500      30.4214       0.0982       0.0981    -999.2500
   2589.1863    -999.2500      62.3411      36.4095      26.9986      31.9458    -999.2500      40.8267      25.2914      32.6548      32.6973    -999.2500      28.6019       0.1009       0.1022    -999.2500
   2589.3386    -999.2500      62.5328      34.8587      25.2201      32.6867    -999.2500      40.4895      24.1607      32.7505      29.9677    -999.2500      28.1231       0.1034       0.0951    -999.2500
   2589.4912    -999.2500      62.7303      32.1920      24.4775      44.0487    -999.2500      44.2705      24.4671      35.6046      29.9246    -999.2500      31.6318       0.1057       0.0915    -999.2500
   2589.6436    -999.2500      62.8437      30.6972      24.9618      49.9634    -999.2500      48.1111      25.0300      38.5060      28.9497    -999.2500      30.2098       0.1062       0.0912    -999.2500
   2589.7959    -999.2500      62.8382      30.8466      26.6810      49.3844    -999.2500      52.0354      24.6264      41.4737      27.5815    -999.2500      26.8990       0.1041       0.0950    -999.2500
   2589.9482    -999.2500      62.8015      31.6523      28.3817      44.4497    -999.2500      53.2285      23.0070      42.1144      22.5776    -999.2500      21.7254       0.1047       0.1058    -999.2500
   2590.1006    -999.2500      62.7205      33.3821      30.2814      42.5200    -999.2500      50.5762      20.5100      39.4785      18.6000    -999.2500      17.8000       0.1086       0.1162    -999.2500
   2590.2532    -999.2500      62.5364      34.7027      31.3762      39.6999    -999.2500      45.9719      24.1474      35.6008      30.0461    -999.2500      30.5897       0.1138       0.1193    -999.2500
   2590.4055    -999.2500      62.2068      35.4453      32.3566      42.5452    -999.2500      38.6094      22.5248      29.9682      30.2343    -999.2500      32.5302       0.1203       0.1222    -999.2500
   2590.5579    -999.2500      61.6167      35.5734      32.8455      47.5833    -999.2500      32.7939      15.5852      25.5998      16.0146    -999.2500      15.2565       0.1235       0.1233    -999.2500
   2590.7102    -999.2500      60.6596      34.8242      33.1743      40.5315    -999.2500      29.1865      22.1375      23.0359      24.1145    -999.2500      24.7087       0.1218       0.1214    -999.2500
   2590.8628    -999.2500      59.7635      34.6068      33.0049      37.9226    -999.2500      28.0429      26.5220      22.2528      30.2738    -999.2500      29.3042       0.1200       0.1154    -999.2500
   2591.0151    -999.2500      58.9537      35.1514      32.2198      33.6262    -999.2500      30.4290      30.3508      24.0207      35.6923    -999.2500      33.8335       0.1182       0.1076    -999.2500
   2591.1675    -999.2500      58.2199      35.7632      30.5329      37.4888    -999.2500      34.5061      34.1000      27.0760      36.4493    -999.2500      34.9741       0.1150       0.1049    -999.2500
   2591.3198    -999.2500      57.5932      36.4694      27.7768      34.8889    -999.2500      40.9508      35.1006      31.9339      36.1353    -999.2500      35.4617       0.1096       0.0994    -999.2500
   2591.4724    -999.2500      56.5871      36.2921      25.5887      30.4232    -999.2500      49.7371      31.8752      38.6034      30.0091    -999.2500      26.7536       0.1023       0.0935    -999.2500
   2591.6248    -999.2500      55.0445      34.8734      23.7261      30.1794    -999.2500      61.8137      30.5695      47.8185      27.2067    -999.2500      24.3000       0.0931       0.0885    -999.2500
   2591.7771    -999.2500      54.4306      32.8297      23.9359      32.7119    -999.2500      67.7526      32.3407      51.7962      31.0522    -999.2500      28.1732       0.0837       0.0895    -999.2500
   2591.9294    -999.2500      55.1264      29.8990      25.0450      30.3036    -999.2500      64.9788      39.0169      48.3392      42.1968    -999.2500      35.7130       0.0743       0.0962    -999.2500
   2592.0818    -999.2500      55.9540      27.6621      26.1311      32.1846    -999.2500      59.4739      45.7414      43.7055      51.8364    -999.2500      44.3230       0.0723       0.1026    -999.2500
   2592.2344    -999.2500      56.9684      26.4136      26.9132      35.3145    -999.2500      50.0784      43.4017      37.3955      51.2956    -999.2500      37.8023       0.0786       0.1038    -999.2500
   2592.3867    -999.2500      57.2108      26.1046      27.0812      32.0095    -999.2500      44.8062      41.1278      33.9737      55.4068    -999.2500      33.1014       0.0819       0.0958    -999.2500
