#------------------------------------------------------------------------------
#
#   Created by  : [OpenWorks] Log Export Utility (LEXP)
#   Created on  : 2016-05-23 11:55:56
#   Project     : CANT971
#   User        : R5K
#   Interpreter : PEP
#
#------------------------------------------------------------------------------
~VERSION INFORMATION
VERS. 2.0 : CWLS Log ASCII Standard - version 2.0
WRAP.  NO : One line per depth step
~WELL INFORMATION
#MNEMONIC   .UNIT                                           VALUE :DESCRIPTION
#------------------------------------------------------------------------------
STRT        .M                                          3767.4790 :START DEPTH
STOP        .M                                          5548.2729 :STOP DEPTH
STEP        .M                                             0.1524 :STEP
NULL        .                                           -999.2500 :NULL VALUE
COMP        .                                             UNKNOWN :COMPANY
WELL        .                                            418D-ST2 :WELL
FLD         .                                             UNKNOWN :FIELD
LOC         .                                             UNKNOWN :LOCATION
CNTY        .                                             UNKNOWN :COUNTY
STAT        .                                             UNKNOWN :STATE
CTRY        .                                             UNKNOWN :COUNTRY
SRVC        .                                             UNKNOWN :SERVICE COMPANY
DATE        .                                             UNKNOWN :LOG DATE
UWI         .                                            418D-ST2 :UNIQUE WELL ID
XCOORD      .                                       597130.010000 :SURFACE X
YCOORD      .                                      2144879.410000 :SURFACE Y
LAT         .                                           19.396924 :LATITUDE
LON         .                                          -92.074978 :LONGITUDE
ELEV        .M                                             0.0000 :SURFACE ELEV
ELEV_TYPE   .                                                  NA :ELEV TYPE
~CURVE INFORMATION
#MNEMONIC.UNIT        API CODE       : CURVE DESCRIPTION
#------------------------------------------------------------------------------
DEPTH    .M                          : Measured Depth
CALI     .inches      UNKNOWN        : CALI:PETROWORKS:rC:NONE:v1 
CGR      .API         UNKNOWN        : CGR:PETROWORKS:rC:NONE:v2 
DRHO     .g/cm3       UNKNOWN        : DRHO:PETROWORKS:rC:NONE:v1 
DT       .us/ft       UNKNOWN        : DT:PETROWORKS:rC:NONE:v2 
GR       .API         UNKNOWN        : GR:PETROWORKS:rC:NONE:v2 
ILD      .ohm.m       UNKNOWN        : ILD:PETROWORKS:rC:NONE:v2 
ILM      .ohm.m       UNKNOWN        : ILM:PETROWORKS:rC:NONE:v2 
NPHI     .v/v_decimal UNKNOWN        : NPHI:PETROWORKS:rC:NONE:v3 
PEF      .b/elec      UNKNOWN        : PEF:PETROWORKS:rC:NONE:v1 
POTA     .wtpercent   UNKNOWN        : POTA:PETROWORKS:rC:NONE:v2 
RHOB     .UNKNOWN     UNKNOWN        : RHOB:PETROWORKS:rC:NONE:v1 
THOR     .ppm         UNKNOWN        : THOR:PETROWORKS:rC:NONE:v2 
URAN     .ppm         UNKNOWN        : URAN:PETROWORKS:rC:NONE:v2 
~A     DEPTH         CALI          CGR         DRHO           DT           GR          ILD          ILM         NPHI          PEF         POTA         RHOB         THOR         URAN
# ...
   4438.0391    -999.2500      29.2416    -999.2500    -999.2500      31.5282    -999.2500    -999.2500       0.0736    -999.2500       0.0110    -999.2500       3.6203       0.3115
   4438.1914    -999.2500      28.8476    -999.2500    -999.2500      31.6167    -999.2500    -999.2500       0.0836    -999.2500       0.0108    -999.2500       3.6034       0.3773
   4438.3438    -999.2500      28.4049    -999.2500    -999.2500      31.6043    -999.2500    -999.2500       0.0896    -999.2500       0.0107    -999.2500       3.5196       0.4359
   4438.4961    -999.2500      27.7521    -999.2500    -999.2500      31.4595    -999.2500    -999.2500       0.0930    -999.2500       0.0106    -999.2500       3.3721       0.5051
   4438.6484    -999.2500      26.9371    -999.2500    -999.2500      31.2800    -999.2500    -999.2500       0.0941    -999.2500       0.0103    -999.2500       3.2512       0.5917
   4438.8008    -999.2500      26.7238    -999.2500    -999.2500      31.2943    -999.2500    -999.2500       0.0990    -999.2500       0.0102    -999.2500       3.2397       0.6227
   4438.9536    -999.2500      26.3685    -999.2500    -999.2500      31.3496    -999.2500    -999.2500       0.1001    -999.2500       0.0104    -999.2500       3.0390       0.6786
   4439.1060    -999.2500      25.9312    -999.2500    -999.2500      31.2854    -999.2500    -999.2500       0.0906    -999.2500       0.0104    -999.2500       2.8889       0.7295
   4439.2583    -999.2500      25.1207    -999.2500    -999.2500      31.0833    -999.2500    -999.2500       0.0738    -999.2500       0.0102    -999.2500       2.7185       0.8123
   4439.4106    -999.2500      24.5736    -999.2500    -999.2500      30.9316    -999.2500    -999.2500       0.0428    -999.2500       0.0102    -999.2500       2.5268       0.8662
   4439.5630    -999.2500      24.3609    -999.2500    -999.2500      30.8280    -999.2500    -999.2500       0.0234    -999.2500       0.0103    -999.2500       2.4544       0.8811
   4439.7153    -999.2500      23.4288    -999.2500    -999.2500      30.1578    -999.2500    -999.2500       0.0159    -999.2500       0.0098    -999.2500       2.3663       0.9168
   4439.8677    -999.2500      22.3397    -999.2500    -999.2500      29.4607    -999.2500    -999.2500       0.0158    -999.2500       0.0095    -999.2500       2.1929       0.9702
   4440.0200    -999.2500      21.2159    -999.2500    -999.2500      28.4029    -999.2500    -999.2500       0.0255    -999.2500       0.0094    -999.2500       1.9147       0.9791
   4440.1724    -999.2500      20.7571    -999.2500      55.5049      27.6228    -999.2500    -999.2500       0.0376    -999.2500       0.0093    -999.2500       1.8032       0.9354
   4440.3252    -999.2500      20.2587    -999.2500      55.3388      26.5725    -999.2500    -999.2500       0.0577    -999.2500       0.0089    -999.2500       1.8182       0.8602
   4440.4775    -999.2500      19.3635    -999.2500      55.7080      25.8019    -999.2500    -999.2500       0.0702    -999.2500       0.0085    -999.2500       1.7718       0.8772
   4440.6299    -999.2500      18.0625    -999.2500      56.3504      25.2418    -999.2500    -999.2500       0.0673    -999.2500       0.0081    -999.2500       1.5722       0.9781
   4440.7822    -999.2500      17.3525    -999.2500      56.9083      25.0205    -999.2500    -999.2500       0.0599    -999.2500       0.0078    -999.2500       1.4608       1.0447
   4440.9346    -999.2500      16.8954    -999.2500      56.4105      25.0890    -999.2500    -999.2500       0.0455    -999.2500       0.0076    -999.2500       1.4467       1.1163
   4441.0869    -999.2500      16.9010    -999.2500      55.8262      25.4433    -999.2500    -999.2500       0.0355    -999.2500       0.0076    -999.2500       1.4583       1.1638
   4441.2393    -999.2500      20.7062    -999.2500      55.9724      28.9389    -999.2500    -999.2500       0.0289    -999.2500       0.0095    -999.2500       1.6531       1.1216
   4441.3916    -999.2500      22.1082    -999.2500      55.8313      30.3566    -999.2500    -999.2500       0.0317    -999.2500       0.0104    -999.2500       1.6741       1.1238
   4441.5444    -999.2500      21.1669    -999.2500      55.5356      29.7304    -999.2500    -999.2500       0.0410    -999.2500       0.0099    -999.2500       1.6030       1.1667
   4441.6968    -999.2500      20.2595    -999.2500      55.3552      28.9074    -999.2500    -999.2500       0.0667    -999.2500       0.0095    -999.2500       1.5451       1.1782
   4441.8491    -999.2500      18.4288    -999.2500      55.0982      26.3682    -999.2500    -999.2500       0.0912    -999.2500       0.0084    -999.2500       1.5359       1.0817
   4442.0015    -999.2500      17.7600    -999.2500      55.1860      23.9061    -999.2500    -999.2500       0.1498    -999.2500       0.0074    -999.2500       1.8291       0.8374
   4442.1538    -999.2500      16.6263    -999.2500      55.5905      21.0955    -999.2500    -999.2500       0.1241    -999.2500       0.0056    -999.2500       2.4227       0.6089
   4442.3062    -999.2500      16.5577    -999.2500      55.6931      20.6299    -999.2500    -999.2500       0.0930    -999.2500       0.0049    -999.2500       2.7546       0.5548
   4442.4585    -999.2500      19.0861    -999.2500      55.5509      23.0452    -999.2500    -999.2500       0.0753    -999.2500       0.0058    -999.2500       3.1071       0.5394
   4442.6108    -999.2500      27.3252    -999.2500      55.3788      30.2174    -999.2500    -999.2500       0.0735    -999.2500       0.0093    -999.2500       3.9222       0.3940
   4442.7632    -999.2500      31.3387    -999.2500      55.4285      34.1203    -999.2500    -999.2500       0.0840    -999.2500       0.0111    -999.2500       4.2721       0.3790
   4442.9160    -999.2500      31.8711    -999.2500      55.4519      35.3514    -999.2500    -999.2500       0.0817    -999.2500       0.0118    -999.2500       4.0741       0.4742
   4443.0684    -999.2500      32.0157    -999.2500      55.0951      35.7515    -999.2500    -999.2500       0.0556    -999.2500       0.0121    -999.2500       3.9638       0.5090
   4443.2207    -999.2500      31.1251    -999.2500      55.1244      35.4895    -999.2500    -999.2500       0.0383    -999.2500       0.0119    -999.2500       3.7902       0.5946
   4443.3730    -999.2500      29.6006    -999.2500      56.0279      34.9490    -999.2500    -999.2500       0.0346    -999.2500       0.0113    -999.2500       3.5708       0.7287
   4443.5254    -999.2500      28.8898    -999.2500      56.9962      34.3380    -999.2500    -999.2500       0.0397    -999.2500       0.0109    -999.2500       3.5603       0.7423
   4443.6777    -999.2500      29.1864    -999.2500      57.0021      34.1563    -999.2500    -999.2500       0.0469    -999.2500       0.0110    -999.2500       3.6397       0.6771
   4443.8301    -999.2500      30.1046    -999.2500      56.3018      34.3225    -999.2500    -999.2500       0.0455    -999.2500       0.0113    -999.2500       3.7285       0.5746
   4443.9824    -999.2500      29.9918    -999.2500      55.5576      34.1474    -999.2500    -999.2500       0.0312    -999.2500       0.0113    -999.2500       3.6962       0.5662
   4444.1348    -999.2500      27.5174    -999.2500      55.4361      31.8633    -999.2500    -999.2500       0.0208    -999.2500       0.0102    -999.2500       3.4823       0.5921
   4444.2876    -999.2500      24.6519    -999.2500      56.2444      28.9273    -999.2500    -999.2500       0.0172    -999.2500       0.0091    -999.2500       3.1570       0.5825
   4444.4399    -999.2500      22.6754    -999.2500      56.6204      27.3194    -999.2500    -999.2500       0.0165    -999.2500       0.0087    -999.2500       2.7271       0.6327
   4444.5923    -999.2500      22.3991    -999.2500      55.5026      27.0645    -999.2500    -999.2500       0.0158    -999.2500       0.0087    -999.2500       2.6291       0.6356
