#------------------------------------------------------------------------------
#
#   Created by  : [OpenWorks] Log Export Utility (LEXP)
#   Created on  : 2016-05-23 11:50:40
#   Project     : CANT971
#   User        : R5K
#   Interpreter : PEP
#
#------------------------------------------------------------------------------
~VERSION INFORMATION
VERS. 2.0 : CWLS Log ASCII Standard - version 2.0
WRAP.  NO : One line per depth step
~WELL INFORMATION
#MNEMONIC   .UNIT                                           VALUE :DESCRIPTION
#------------------------------------------------------------------------------
STRT        .M                                           697.2303 :START DEPTH
STOP        .M                                          3650.8948 :STOP DEPTH
STEP        .M                                             0.1524 :STEP
NULL        .                                           -999.2500 :NULL VALUE
COMP        .                                   PEMEX EXPL & PROD :COMPANY
WELL        .                                                1026 :WELL
FLD         .                                           CANTARELL :FIELD
LOC         .                                             UNKNOWN :LOCATION
CNTY        .                                      CD. DEL CARMEN :COUNTY
STAT        .                                            CAMPECHE :STATE
CTRY        .                                              MEXICO :COUNTRY
SRVC        .                                             UNKNOWN :SERVICE COMPANY
DATE        .                                             UNKNOWN :LOG DATE
UWI         .                                          3060000491 :UNIQUE WELL ID
XCOORD      .                                       596159.330000 :SURFACE X
YCOORD      .                                      2150607.710000 :SURFACE Y
LAT         .                                           19.448735 :LATITUDE
LON         .                                          -92.083932 :LONGITUDE
ELEV        .M                                            30.0000 :SURFACE ELEV
ELEV_TYPE   .                                                  KB :ELEV TYPE
~CURVE INFORMATION
#MNEMONIC.UNIT        API CODE       : CURVE DESCRIPTION
#------------------------------------------------------------------------------
DEPTH    .M                          : Measured Depth
CALI     .inches      UNKNOWN        : CALI:registros:rC:NONE:v0 (auto-composite)
DRHO     .g/cm3       UNKNOWN        : DRHO:registros:rC:NONE:v0 (auto-composite)
DT       .us/ft       UNKNOWN        : DT:registros:rC:NONE:v0 (auto-composite)
GR       .API         UNKNOWN        : GR:registros:rC:NONE:v0 (auto-composite)
ILD      .ohm.m       UNKNOWN        : ILD:registros:rC:NONE:v0 (auto-composite)
ILM      .ohm.m       UNKNOWN        : ILM:registros:rC:NONE:v0 (auto-composite)
LLD      .ohm.m       UNKNOWN        : LLD:registros:rC:NONE:v0 (auto-composite)
LLS      .ohm.m       UNKNOWN        : LLS:registros:rC:NONE:v0 (auto-composite)
MSFL     .ohm.m       UNKNOWN        : MSFL:registros:rC:NONE:v0 (auto-composite)
NPHI     .v/v_decimal UNKNOWN        : NPHI:registros:rC:NONE:v0 (auto-composite)
PEF      .b/elec      UNKNOWN        : PEF:registros:rC:NONE:v0 (auto-composite)
RHOB     .g/cm3       UNKNOWN        : RHOB:registros:rC:NONE:v0 (auto-composite)
~A     DEPTH         CALI         DRHO           DT           GR          ILD          ILM          LLD          LLS         MSFL         NPHI          PEF         RHOB
# ...
   3045.4094      13.0665       0.0215      76.3497      37.8630    -999.2500    -999.2500      22.3767      31.5716       2.4912       0.0232       3.8217       2.4324
   3045.5618      14.4370       0.0360      91.5630      36.7880    -999.2500    -999.2500      21.2790      29.9430       0.4990       0.0308       3.4240       2.2400
   3045.7144      14.4245       0.0645      91.4280      28.7339    -999.2500    -999.2500      14.2377      20.0685       1.0176       0.0591       3.4265       2.2825
   3045.8667      14.4120       0.0930      91.2930      20.6720    -999.2500    -999.2500       7.2120      10.2160       1.5350       0.0884       3.4290       2.3250
   3046.0190      13.5223       0.1549      87.1145      20.8564    -999.2500    -999.2500       9.9729      12.6185       1.1386       0.1031       3.4755       2.3015
   3046.1714      12.6330       0.2170      82.9380      21.0410    -999.2500    -999.2500      12.7280      15.0160       0.7430       0.1151       3.5220       2.2780
   3046.3240      12.6950       0.2150      63.1978      22.4241    -999.2500    -999.2500      12.4084      14.6879       0.8552       0.1189       3.7845       2.2945
   3046.4763      12.7570       0.2130      43.4650      23.8090    -999.2500    -999.2500      12.0900      14.3610       0.9670       0.1219       4.0470       2.3110
   3046.6287      13.1340       0.2015      37.4193      26.0330    -999.2500    -999.2500      10.6135      12.7402       0.9580       0.1255       4.0125       2.3105
   3046.7810      13.5110       0.1900      31.3750      28.2600    -999.2500    -999.2500       9.1420      11.1250       0.9490       0.1307       3.9780       2.3100
   3046.9336      13.8095       0.1536      36.3443      29.8788    -999.2500    -999.2500       9.0023      10.4604       0.8553       0.1481       3.7520       2.2790
   3047.0859      14.1080       0.1170      41.3130      31.5000    -999.2500    -999.2500       8.8630       9.7980       0.7620       0.1736       3.5260       2.2480
   3047.2383      14.9835       0.1180      40.5624      28.8536    -999.2500    -999.2500       5.9724       6.5007       0.5787       0.2519       3.2880       2.0205
   3047.3906      15.8590       0.1190      39.8130      26.2030    -999.2500    -999.2500       3.0910       3.2140       0.3960       0.3269       3.0500       1.7930
   3047.5430      15.6455       0.1310      43.8470      26.9693    -999.2500    -999.2500       3.1190       3.2390       0.4411       0.3222       2.8130       1.8205
   3047.6956      15.4320       0.1430      47.8750      27.7370    -999.2500    -999.2500       3.1470       3.2640       0.4860       0.2996       2.5760       1.8480
   3047.8479      14.1847       0.1350      43.1218      34.3778    -999.2500    -999.2500       3.7559       3.8669       0.9617       0.2175       3.1139       2.0805
   3048.0002      12.9370       0.1270      38.3750      41.0310    -999.2500    -999.2500       4.3630       4.4680       1.4360       0.1303       3.6520       2.3130
   3048.1526      12.9490       0.0606      38.4926      40.4891    -999.2500    -999.2500      14.2635      14.0175       1.6223       0.0646       3.6410       2.2940
   3048.3052      12.9610      -0.0060      38.6100      39.9470    -999.2500    -999.2500      24.1360      23.5400       1.8080       0.0090       3.6300       2.2750
   3048.4575      13.0370       0.0035      46.1526      36.3939    -999.2500    -999.2500      21.6852      21.4372       1.1246       0.0091       3.5700       2.1304
   3048.6099      13.1130       0.0130      53.6870      32.8390    -999.2500    -999.2500      19.2410      19.3400       0.4430       0.0207       3.5100       1.9860
   3048.7622      13.2201       0.1184      52.4679      27.9056    -999.2500    -999.2500      11.3989      11.6481       0.6337       0.0631       3.4885       2.0840
   3048.9148      13.3270       0.2240      51.2500      22.9690    -999.2500    -999.2500       3.5770       3.9760       0.8240       0.1130       3.4670       2.1820
   3049.0671      13.5691       0.2170      51.4066      24.0136    -999.2500    -999.2500       3.6426       4.0211       0.6588       0.1868       3.2861       2.1375
   3049.2195      13.8110       0.2100      51.5630      25.0590    -999.2500    -999.2500       3.7080       4.0660       0.4940       0.2554       3.1050       2.0930
   3049.3718      14.7298       0.1750      46.0610      33.4633    -999.2500    -999.2500       4.0859       4.3123       0.5005       0.2600       3.1320       2.1110
   3049.5242      15.6480       0.1400      40.5630      41.8750    -999.2500    -999.2500       4.4630       4.5580       0.5070       0.2531       3.1590       2.1290
   3049.6768      13.9600       0.1355      40.8536      41.8010    -999.2500    -999.2500       4.6307       4.6821       0.5500       0.2277       3.3259       2.2235
   3049.8291      12.2730       0.1310      41.1440      41.7270    -999.2500    -999.2500       4.7980       4.8060       0.5930       0.1938       3.4930       2.3180
   3049.9814      12.5231       0.1345      42.6203      41.0969    -999.2500    -999.2500       5.7680       5.7590       0.7101       0.1176       4.1506       2.4125
   3050.1338      12.7730       0.1380      44.0960      40.4660    -999.2500    -999.2500       6.7360       6.7100       0.8270       0.0448       4.8090       2.5070
   3050.2864      12.7255       0.1769      44.3455      38.9195    -999.2500    -999.2500       9.8771      10.5658       0.6782       0.0408       4.5960       2.4815
   3050.4387      12.6780       0.2160      44.5950      37.3710    -999.2500    -999.2500      13.0070      14.4080       0.5300       0.0503       4.3830       2.4560
   3050.5911      12.4130       0.2135      48.6459      33.6176    -999.2500    -999.2500       9.4319      10.6471       0.5500       0.0862       4.3865       2.4605
   3050.7434      12.1480       0.2110      52.6960      29.8590    -999.2500    -999.2500       5.8690       6.8990       0.5700       0.1205       4.3900       2.4650
   3050.8960      11.8785       0.1910      89.1931      30.8577    -999.2500    -999.2500       6.3808       7.4684       0.7563       0.1168       4.6560       2.5775
   3051.0483      11.6090       0.1710     125.6870      31.8580    -999.2500    -999.2500       6.8910       8.0360       0.9420       0.1024       4.9220       2.6900
   3051.2007      11.6300       0.1125      -8.7302      37.0183    -999.2500    -999.2500      12.1819      13.8096       2.7924       0.0524       4.9065       2.6855
   3051.3530      11.6510       0.0540    -142.9370      42.1870    -999.2500    -999.2500      17.4560      19.5650       4.6370       0.0033       4.8910       2.6810
   3051.5054      11.8975       0.0590    -134.8602      40.4081    -999.2500    -999.2500      33.2169      35.2328       4.2294      -0.0025       4.5705       2.5920
   3051.6580      12.1440       0.0640    -126.7950      38.6260    -999.2500    -999.2500      48.9300      50.8530       3.8230      -0.0014       4.2500       2.5030
   3051.8103      12.8534       0.1020     -35.5876      26.9336    -999.2500    -999.2500      46.4504      48.6518       2.6258       0.0028       4.4530       2.5355
   3051.9626      13.5630       0.1400      55.5000      15.2190    -999.2500    -999.2500      43.9780      46.4570       1.4320       0.0083       4.6560       2.5680
   3052.1150      13.4830       0.1110      -1.9091      15.7774    -999.2500    -999.2500      33.2946      36.4741       1.2002       0.0190       4.6375       2.5635
   3052.2676      13.4030       0.0820     -59.2500      16.3360    -999.2500    -999.2500      22.6410      26.5190       0.9690       0.0318       4.6190       2.5590
   3052.4199      12.9413       0.0830     -56.8112      19.8051    -999.2500    -999.2500      15.9466      19.5007       0.8523       0.0532       4.4405       2.5600
   3052.5723      12.4800       0.0840     -54.3750      23.2760    -999.2500    -999.2500       9.2700      12.5010       0.7360       0.0756       4.2620       2.5610
