#------------------------------------------------------------------------------
#
#   Created by  : [OpenWorks] Log Export Utility (LEXP)
#   Created on  : 2016-05-23 11:56:14
#   Project     : CANT971
#   User        : R5K
#   Interpreter : PEP
#
#------------------------------------------------------------------------------
~VERSION INFORMATION
VERS. 2.0 : CWLS Log ASCII Standard - version 2.0
WRAP.  NO : One line per depth step
~WELL INFORMATION
#MNEMONIC   .UNIT                                           VALUE :DESCRIPTION
#------------------------------------------------------------------------------
STRT        .M                                          2395.2905 :START DEPTH
STOP        .M                                          2859.1960 :STOP DEPTH
STEP        .M                                             0.1524 :STEP
NULL        .                                           -999.2500 :NULL VALUE
COMP        .                                             UNKNOWN :COMPANY
WELL        .                                               446-V :WELL
FLD         .                                             UNKNOWN :FIELD
LOC         .                                             UNKNOWN :LOCATION
CNTY        .                                             UNKNOWN :COUNTY
STAT        .                                             UNKNOWN :STATE
CTRY        .                                             UNKNOWN :COUNTRY
SRVC        .                                             UNKNOWN :SERVICE COMPANY
DATE        .                                             UNKNOWN :LOG DATE
UWI         .                                               446-V :UNIQUE WELL ID
XCOORD      .                                       596708.730000 :SURFACE X
YCOORD      .                                      2143311.960000 :SURFACE Y
LAT         .                                           19.382780 :LATITUDE
LON         .                                          -92.079070 :LONGITUDE
ELEV        .M                                             0.0000 :SURFACE ELEV
ELEV_TYPE   .                                                  NA :ELEV TYPE
~CURVE INFORMATION
#MNEMONIC.UNIT        API CODE       : CURVE DESCRIPTION
#------------------------------------------------------------------------------
DEPTH    .M                          : Measured Depth
CALI     .inches      UNKNOWN        : CALI:litodensidad:rC:NONE:v0 (auto-composite)
CGR      .API         UNKNOWN        : CGR:Espectrometria:rC:NONE:v0 (auto-composite)
DRHO     .g/cm3       UNKNOWN        : DRHO:litodensidad:rC:NONE:v0 (auto-composite)
DT       .us/ft       UNKNOWN        : DT:sonico:rC:NONE:v0 (auto-composite)
GR       .API         UNKNOWN        : GR:GR-Load:rC:NONE:v0 (auto-composite)
GR-LWD   .API         UNKNOWN        : GR-LWD:resistivos-LWD:rC:NONE:v0 (auto-composite)
ILD-LWD  .ohm.m       UNKNOWN        : ILD-LWD:resistivos-LWD:rC:NONE:v0 (auto-composite)
ILM-LWD  .UNKNOWN     UNKNOWN        : ILM-LWD:resistivos-LWD:rC:NONE:v0 (auto-composite)
LLD      .ohm.m       UNKNOWN        : LLD:resistivos:rC:NONE:v0 (auto-composite)
LLS      .ohm.m       UNKNOWN        : LLS:resistivos:rC:NONE:v0 (auto-composite)
MSFL     .ohm.m       UNKNOWN        : MSFL:resistivos:rC:NONE:v0 (auto-composite)
NPHI     .UNKNOWN     UNKNOWN        : NPHI:porosidad:rC:NONE:v0 (auto-composite)
PEF      .UNKNOWN     UNKNOWN        : PEF:litodensidad:rC:NONE:v0 (auto-composite)
POTA     .wtpercent   UNKNOWN        : POTA:Espectrometria:rC:NONE:v0 (auto-composite)
RHOB     .g/cm3       UNKNOWN        : RHOB:litodensidad:rC:NONE:v0 (auto-composite)
THOR     .ppm         UNKNOWN        : THOR:Espectrometria:rC:NONE:v0 (auto-composite)
URAN     .ppm         UNKNOWN        : URAN:Espectrometria:rC:NONE:v0 (auto-composite)
~A     DEPTH         CALI          CGR         DRHO           DT           GR       GR-LWD      ILD-LWD      ILM-LWD          LLD          LLS         MSFL         NPHI          PEF         POTA         RHOB         THOR         URAN
# ...
   2421.9604       8.7585       5.1582      -0.3816      55.7221      12.0303    -999.2500    -999.2500    -999.2500       0.0344       0.6248       0.1000       0.0523      26.6643       0.0028       1.8904       0.3513       0.7651
   2422.1130       8.7847       5.5207      -0.3373      55.4659      11.4299    -999.2500    -999.2500    -999.2500       0.0672       0.5973       0.1000       0.0480      21.9791       0.0031       2.0560       0.3467       0.6579
   2422.2654       8.7887       4.8464      -0.3103      55.0457      11.9107    -999.2500    -999.2500    -999.2500       0.0901       0.5944       0.1000       0.0480      19.1062       0.0033       2.1995       0.0823       0.7865
   2422.4177       8.7615       5.9349      -0.3005      54.7026      11.4982    -999.2500    -999.2500    -999.2500       0.1127       0.6112       0.1000       0.0478      17.9322       0.0031       2.3421       0.4688       0.6194
   2422.5701       8.7726       5.5801      -0.3086      54.5939      11.5595    -999.2500    -999.2500    -999.2500       0.1163       0.6257       0.1000       0.0481      18.1302       0.0024       2.3927       0.6475       0.6657
   2422.7224       8.8000       5.0231      -0.3292      54.5677      11.5221    -999.2500    -999.2500    -999.2500       0.1045       0.6642       0.1000       0.0492      20.5514       0.0017       2.3825       0.7373       0.7236
   2422.8750       8.7979       4.3738      -0.3859      54.6558      11.9375    -999.2500    -999.2500    -999.2500       0.0862       0.6686       0.1000       0.0561      29.5216       0.0013       2.2038       0.7337       0.8421
   2423.0273       8.7873       3.4116      -0.4427      54.8624      12.9834    -999.2500    -999.2500    -999.2500       0.0702       0.6797       0.1000       0.0605      38.0456       0.0012       2.0401       0.4744       1.0657
   2423.1797       8.7684       1.5436      -0.4794      55.1469      16.3519    -999.2500    -999.2500    -999.2500       0.0721       0.6532       0.1000       0.0795      43.0297       0.0009       2.0504       0.0633       1.6487
   2423.3320       8.7683       1.6715      -0.4596      55.5029      18.3679    -999.2500    -999.2500    -999.2500       0.0840       0.6295       0.1000       0.0979      39.5951       0.0011       2.2629       0.0569       1.8589
   2423.4846       8.7638       3.6971      -0.4414      55.9727      19.4840    -999.2500    -999.2500    -999.2500       0.0885       0.6251       0.1000       0.1026      37.1395       0.0025       2.4008       0.0548       1.7576
   2423.6370       8.7653       4.7539      -0.4518      56.5518      17.2734    -999.2500    -999.2500    -999.2500       0.0719       0.6242       0.1000       0.0980      40.0577       0.0032       2.2448       0.0854       1.3938
   2423.7893       8.7514       5.4154      -0.4649      57.0157      16.1940    -999.2500    -999.2500    -999.2500       0.0319       0.6341       0.1000       0.0889      43.0215       0.0038       1.9701       0.0366       1.2000
   2423.9417       8.7567       5.3117      -0.4568      57.0571      15.0073    -999.2500    -999.2500    -999.2500       0.0128       0.6515       0.1000       0.0811      40.9565       0.0037       1.8424       0.0488       1.0794
   2424.0942       8.7501       4.7518      -0.4457      56.6148      13.5775    -999.2500    -999.2500    -999.2500       0.0237       0.6808       0.1000       0.0496      40.2123       0.0032       1.7513       0.0634       0.9826
   2424.2466       8.7560       3.6506      -0.4446      56.1106      13.2388    -999.2500    -999.2500    -999.2500       0.0148       0.6976       0.1000       0.0481      41.3895       0.0025       1.7664       0.0633       1.0675
   2424.3989       8.7542       2.4121      -0.4339      56.0690      13.6924    -999.2500    -999.2500    -999.2500       0.0396       0.7106       0.1000       0.0510      41.3374       0.0016       1.9445       0.0448       1.2559
   2424.5513       8.7675       1.4252      -0.4156      56.5670      14.3526    -999.2500    -999.2500    -999.2500       0.0672       0.6972       0.1000       0.0514      35.7087       0.0009       2.1395       0.0373       1.4393
   2424.7036       8.7946       0.4913      -0.4050      57.2129      16.2719    -999.2500    -999.2500    -999.2500       0.1203       0.6946       0.3053       0.0533      29.3619       0.0002       2.3534       0.0444       1.7569
   2424.8562       8.7878       1.0412      -0.4114      57.4460      16.9874    -999.2500    -999.2500    -999.2500       0.1176       0.7275       1.4713       0.0568      29.2374       0.0006       2.3746       0.0554       1.7754
   2425.0085       8.7623       4.2063      -0.4249      57.5143      18.4641    -999.2500    -999.2500    -999.2500       0.1103       0.7505       1.4449       0.0601      31.6418       0.0028       2.3293       0.0750       1.5874
   2425.1609       8.7640       6.7416      -0.4256      57.0224      19.0995    -999.2500    -999.2500    -999.2500       0.1026       0.7459       0.4575       0.0592      31.6330       0.0046       2.2986       0.0814       1.3758
   2425.3132       8.7569       9.5619      -0.4111      56.2732      19.5836    -999.2500    -999.2500    -999.2500       0.0822       0.7113       0.1000       0.0574      28.6373       0.0067       2.2235       0.0722       1.1158
   2425.4658       8.7529       9.4286      -0.3981      55.6164      19.6554    -999.2500    -999.2500    -999.2500       0.0820       0.6903       0.1000       0.0558      26.2633       0.0066       2.1492       0.0552       1.1386
   2425.6182       8.7547       8.1596      -0.3928      55.2677      19.3712    -999.2500    -999.2500    -999.2500       0.0732       0.6732       0.1000       0.0533      27.3995       0.0056       2.0500       0.0977       1.2483
   2425.7705       8.7508       6.4492      -0.4140      55.2400      18.6875    -999.2500    -999.2500    -999.2500       0.0784       0.6727       0.1000       0.0531      37.7964       0.0035       1.8825       0.4578       1.3626
   2425.9229       8.7535       5.5578      -0.4340      55.6295      17.9820    -999.2500    -999.2500    -999.2500       0.0827       0.6594       0.1000       0.0549      46.1377       0.0024       1.8096       0.6142       1.3833
   2426.0754       8.7512       6.4000      -0.4311      56.3224      17.5111    -999.2500    -999.2500    -999.2500       0.0894       0.6605       0.1000       0.0614      46.2560       0.0021       1.8795       1.0021       1.2371
   2426.2278       8.7481       7.9930      -0.4071      56.9912      18.0729    -999.2500    -999.2500    -999.2500       0.0972       0.6764       0.1000       0.0612      36.8038       0.0025       2.0521       1.2835       1.1222
   2426.3801       8.7513       9.8109      -0.3881      57.3217      19.5927    -999.2500    -999.2500    -999.2500       0.1080       0.6975       0.1000       0.0601      26.8176       0.0034       2.2245       1.4509       1.0891
   2426.5325       8.7569      10.3985      -0.3842      57.1046      20.2961    -999.2500    -999.2500    -999.2500       0.1259       0.7118       0.1000       0.0637      24.6187       0.0039       2.3297       1.4114       1.1019
   2426.6848       8.7552       9.5355      -0.3820      56.8950      21.0677    -999.2500    -999.2500    -999.2500       0.1470       0.7107       0.1000       0.0675      24.9236       0.0039       2.4733       1.1426       1.2839
   2426.8374       8.7472       7.1440      -0.3844      57.2102      22.1585    -999.2500    -999.2500    -999.2500       0.1602       0.7005       0.1000       0.0727      25.2736       0.0031       2.5643       0.7834       1.6717
   2426.9897       8.7411       5.3241      -0.3910      57.7306      23.4333    -999.2500    -999.2500    -999.2500       0.1424       0.6982       0.1000       0.0749      25.8374       0.0023       2.5950       0.6074       2.0161
   2427.1421       8.7483       6.2931      -0.3956      57.9190      24.0961    -999.2500    -999.2500    -999.2500       0.1185       0.6947       0.1000       0.0737      26.3026       0.0024       2.5719       0.8168       1.9821
