#------------------------------------------------------------------------------
#
#   Created by  : [OpenWorks] Log Export Utility (LEXP)
#   Created on  : 2016-05-23 11:56:46
#   Project     : CANT971
#   User        : R5K
#   Interpreter : PEP
#
#------------------------------------------------------------------------------
~VERSION INFORMATION
VERS. 2.0 : CWLS Log ASCII Standard - version 2.0
WRAP.  NO : One line per depth step
~WELL INFORMATION
#MNEMONIC   .UNIT                                           VALUE :DESCRIPTION
#------------------------------------------------------------------------------
STRT        .M                                           170.6880 :START DEPTH
STOP        .M                                          2221.8396 :STOP DEPTH
STEP        .M                                             0.1524 :STEP
NULL        .                                           -999.2500 :NULL VALUE
COMP        .                                   PEMEX EXPL & PROD :COMPANY
WELL        .                                                  51 :WELL
FLD         .                                           CANTARELL :FIELD
LOC         .                                             UNKNOWN :LOCATION
CNTY        .                                      CD. DEL CARMEN :COUNTY
STAT        .                                            CAMPECHE :STATE
CTRY        .                                              MEXICO :COUNTRY
SRVC        .                                             UNKNOWN :SERVICE COMPANY
DATE        .                                             UNKNOWN :LOG DATE
UWI         .                                          3060000165 :UNIQUE WELL ID
XCOORD      .                                       599727.990000 :SURFACE X
YCOORD      .                                      2147220.270000 :SURFACE Y
LAT         .                                           19.417949 :LATITUDE
LON         .                                          -92.050116 :LONGITUDE
ELEV        .M                                            27.8000 :SURFACE ELEV
ELEV_TYPE   .                                                  KB :ELEV TYPE
~CURVE INFORMATION
#MNEMONIC.UNIT        API CODE       : CURVE DESCRIPTION
#------------------------------------------------------------------------------
DEPTH    .M                          : Measured Depth
CAL      .inches      UNKNOWN        : CAL:CAL-Load:rC:NONE:v0 (auto-composite)
DRHO     .UNKNOWN     UNKNOWN        : DRHO:DRHO-Load:rC:NONE:v0 (auto-composite)
DT       .us/ft       UNKNOWN        : DT:DT:rC:NONE:v0 (auto-composite)
GR       .UNKNOWN     UNKNOWN        : GR:GR-Load:rC:NONE:v0 (auto-composite)
ILD      .UNKNOWN     UNKNOWN        : ILD:ILD-Load:rC:NONE:v0 (auto-composite)
NPHI     .v/v_decimal UNKNOWN        : NPHI:NPHI:rC:NONE:v0 (auto-composite)
RHOB     .UNKNOWN     UNKNOWN        : RHOB:RHOB-Load:rC:NONE:v0 (auto-composite)
SN       .UNKNOWN     UNKNOWN        : SN:SN-Load:rC:NONE:v0 (auto-composite)
~A     DEPTH          CAL         DRHO           DT           GR          ILD         NPHI         RHOB           SN
# ...
    622.8588      12.3171       0.0055     161.3605      33.5099       0.9230      53.7651       2.2260       0.8495
    623.0112      12.3540       0.0080     168.0630      33.2350       0.9220      53.3870       2.2290       0.8530
    623.1636      12.4051       0.0220     170.4415      32.7277       0.9220      52.1730       2.2330       0.8550
    623.3160      12.4560       0.0360     172.8210      32.2210       0.9220      50.9590       2.2370       0.8570
    623.4684      12.4485       0.0260     172.1190      32.2610       0.9230      49.7533       2.2575       0.8595
    623.6208      12.4410       0.0160     171.4170      32.3010       0.9240      48.5480       2.2780       0.8620
    623.7732      12.4230       0.0085     170.9240      33.0033       0.9260      47.8455       2.2700       0.8625
    623.9256      12.4050       0.0010     170.4310      33.7050       0.9280      47.1430       2.2620       0.8630
    624.0780      12.3479      -0.0010     169.6435      34.4338       0.9295      46.8825       2.2665       0.8630
    624.2304      12.2910      -0.0030     168.8560      35.1620       0.9310      46.6220       2.2710       0.8630
    624.3828      12.2139      -0.0080     167.9921      34.3862       0.9345      46.8655       2.2650       0.8640
    624.5352      12.1370      -0.0130     167.1280      33.6110       0.9380      47.1090       2.2590       0.8650
    624.6876      12.1590      -0.0125     163.6664      33.1843       0.9425      48.1549       2.2475       0.8695
    624.8400      12.1810      -0.0120     160.2040      32.7580       0.9470      49.2010       2.2360       0.8740
    624.9924      12.1880      -0.0110     154.7440      32.9356       0.9515      49.8645       2.2230       0.8765
    625.1448      12.1950      -0.0100     149.2820      33.1130       0.9560      50.5280       2.2100       0.8790
    625.2972      12.3278      -0.0100     151.7899      33.0680       0.9590      50.7890       2.2205       0.8755
    625.4496      12.4600      -0.0100     154.2980      33.0230       0.9620      51.0500       2.2310       0.8720
    625.6020      12.5241      -0.0040     159.4185      33.2746       0.9630      50.7390       2.2520       0.8620
    625.7544      12.5880       0.0020     164.5380      33.5260       0.9640      50.4280       2.2730       0.8520
    625.9068      12.5479      -0.0020     163.8355      33.4550       0.9620      49.5910       2.2685       0.8590
    626.0592      12.5080      -0.0060     163.1330      33.3840       0.9600      48.7540       2.2640       0.8660
    626.2116      12.5451      -0.0240     158.2717      33.0674       0.9600      47.8590       2.2595       0.8690
    626.3640      12.5820      -0.0420     153.4100      32.7510       0.9600      46.9640       2.2550       0.8720
    626.5164      12.6010      -0.0335     154.9349      33.0516       0.9625      47.3770       2.2580       0.8690
    626.6688      12.6200      -0.0250     156.4600      33.3520       0.9650      47.7900       2.2610       0.8660
    626.8212      12.7407      -0.0130     154.8363      33.8067       0.9690      47.7445       2.2685       0.8705
    626.9736      12.8610      -0.0010     153.2120      34.2610       0.9730      47.6990       2.2760       0.8750
    627.1260      12.9522       0.0040     151.8213      34.8553       0.9770      47.2694       2.2790       0.8770
    627.2784      13.0430       0.0090     150.4300      35.4490       0.9810      46.8400       2.2820       0.8790
    627.4308      13.1096       0.0110     149.0616      35.9828       0.9830      47.1165       2.2880       0.8795
    627.5832      13.1760       0.0130     147.6930      36.5160       0.9850      47.3930       2.2940       0.8800
    627.7356      12.8929       0.0100     152.5658      36.3989       0.9870      47.7060       2.2905       0.8800
    627.8880      12.6110       0.0070     157.4380      36.2820       0.9890      48.0190       2.2870       0.8800
    628.0404      12.2202       0.0125     153.2531      35.9314       0.9940      47.6925       2.2940       0.8800
    628.1928      11.8310       0.0180     149.0680      35.5810       0.9990      47.3660       2.3010       0.8800
    628.3452      11.6522       0.0090     149.1165      35.0913       1.0050      47.3875       2.2925       0.8805
    628.4976      11.4740       0.0000     149.1650      34.6020       1.0110      47.4090       2.2840       0.8810
    628.6500      11.5256       0.0045     149.0905      34.2548       1.0165      48.1684       2.2930       0.8870
    628.8024      11.5770       0.0090     149.0160      33.9080       1.0220      48.9280       2.3020       0.8930
    628.9548      11.6757      -0.0150     148.7935      33.9125       1.0240      49.6225       2.3085       0.9060
    629.1072      11.7740      -0.0390     148.5710      33.9170       1.0260      50.3170       2.3150       0.9190
    629.2596      11.8973      -0.0235     148.8655      33.4938       1.0255      49.9389       2.3085       0.9165
    629.4120      12.0200      -0.0080     149.1600      33.0710       1.0250      49.5610       2.3020       0.9140
    629.5644      12.0666      -0.0110     147.9039      32.8104       1.0220      48.4589       2.2945       0.9065
    629.7168      12.1130      -0.0140     146.6480      32.5500       1.0190      47.3570       2.2870       0.8990
    629.8692      12.2438      -0.0155     145.3065      32.7391       1.0140      45.5520       2.2825       0.8990
    630.0216      12.3740      -0.0170     143.9650      32.9280       1.0090      43.7470       2.2780       0.8990
    630.1740      12.5123      -0.0235     142.4741      33.1236       1.0055      44.1665       2.2750       0.9035
    630.3264      12.6500      -0.0300     140.9830      33.3190       1.0020      44.5860       2.2720       0.9080
    630.4788      12.8399      -0.0275     143.6402      33.7102       1.0045      45.2584       2.2700       0.9105
    630.6312      13.0290      -0.0250     146.2980      34.1010       1.0070      45.9310       2.2680       0.9130
    630.7836      12.9248      -0.0170     144.4763      34.4417       1.0060      45.7820       2.2840       0.9080
    630.9360      12.8210      -0.0090     142.6540      34.7820       1.0050      45.6330       2.3000       0.9030
    631.0884      12.5980      -0.0170     143.7980      35.1477       1.0035      45.7800       2.2900       0.8925
    631.2408      12.3760      -0.0250     144.9420      35.5130       1.0020      45.9270       2.2800       0.8820
    631.3932      12.3830      -0.0175     145.4330      35.7621       1.0000      45.8820       2.2910       0.8830
    631.5456      12.3900      -0.0100     145.9240      36.0110       0.9980      45.8370       2.3020       0.8840
    631.6980      12.4140       0.0095     146.1570      35.7554       0.9920      45.0820       2.3255       0.8835
    631.8504      12.4380       0.0290     146.3900      35.5000       0.9860      44.3270       2.3490       0.8830
    632.0028      12.4500       0.0285     146.1305      35.0278       0.9795      44.7700       2.3480       0.8830
    632.1552      12.4620       0.0280     145.8710      34.5560       0.9730      45.2130       2.3470       0.8830
    632.3076      12.4505       0.0225     144.4911      33.7893       0.9750      45.9809       2.3395       0.8855
    632.4600      12.4390       0.0170     143.1110      33.0230       0.9770      46.7490       2.3320       0.8880
    632.6124      12.4350       0.0135     142.6311      33.3737       0.9795      47.8711       2.3215       0.8865
    632.7648      12.4310       0.0100     142.1510      33.7240       0.9820      48.9930       2.3110       0.8850
    632.9172      12.4801       0.0010     142.6669      33.6044       0.9865      48.9620       2.3010       0.8905
    633.0696      12.5290      -0.0080     143.1830      33.4850       0.9910      48.9310       2.2910       0.8960
    633.2220      12.5105      -0.0065     144.4374      33.5070       0.9925      49.2855       2.2850       0.8940
