#------------------------------------------------------------------------------
#
#   Created by  : [OpenWorks] Log Export Utility (LEXP)
#   Created on  : 2016-05-11 12:45:47
#   Project     : CANT971
#   User        : R5K
#   Interpreter : PEP
#
#------------------------------------------------------------------------------
~VERSION INFORMATION
VERS. 2.0 : CWLS Log ASCII Standard - version 2.0
WRAP.  NO : One line per depth step
~WELL INFORMATION
#MNEMONIC   .UNIT                                           VALUE :DESCRIPTION
#------------------------------------------------------------------------------
STRT        .M                                           801.4664 :START DEPTH
STOP        .M                                          3402.1724 :STOP DEPTH
STEP        .M                                             0.1524 :STEP
NULL        .                                           -999.2500 :NULL VALUE
COMP        .                                   PEMEX EXPL & PROD :COMPANY
WELL        .                                        CANTARELL-85 :WELL
FLD         .                                           CANTARELL :FIELD
LOC         .                                             UNKNOWN :LOCATION
CNTY        .                                      CD. DEL CARMEN :COUNTY
STAT        .                                            CAMPECHE :STATE
CTRY        .                                              MEXICO :COUNTRY
SRVC        .                                             UNKNOWN :SERVICE COMPANY
DATE        .                                             UNKNOWN :LOG DATE
UWI         .                                          3060000185 :UNIQUE WELL ID
XCOORD      .                                       604541.690000 :SURFACE X
YCOORD      .                                      2141649.620000 :SURFACE Y
LAT         .                                           19.367365 :LATITUDE
LON         .                                          -92.004578 :LONGITUDE
ELEV        .M                                            30.0000 :SURFACE ELEV
ELEV_TYPE   .                                                  KB :ELEV TYPE
~CURVE INFORMATION
#MNEMONIC.UNIT        API CODE       : CURVE DESCRIPTION
#------------------------------------------------------------------------------
DEPTH    .M                          : Measured Depth
CALI     .inches      UNKNOWN        : CALI:Import:rC:NONE:v0 (auto-composite)
DRHO     .g/cm3       UNKNOWN        : DRHO:Import:rC:NONE:v0 (auto-composite)
DT       .us/ft       UNKNOWN        : DT:Import:rC:NONE:v0 (auto-composite)
GR       .API         UNKNOWN        : GR:Import:rC:NONE:v0 (auto-composite)
ILD      .ohm.m       UNKNOWN        : ILD:Import:rC:NONE:v0 (auto-composite)
ILM      .ohm.m       UNKNOWN        : ILM:Import:rC:NONE:v0 (auto-composite)
NPHI     .v/v_decimal UNKNOWN        : NPHI:Import:rC:NONE:v0 (auto-composite)
RHOB     .g/cm3       UNKNOWN        : RHOB:Import:rC:NONE:v0 (auto-composite)
SN       .ohm.m       UNKNOWN        : SN:Import:rC:NONE:v0 (auto-composite)
SP       .mV          UNKNOWN        : SP:Import:rC:NONE:v0 (auto-composite)
~A     DEPTH         CALI         DRHO           DT           GR          ILD          ILM         NPHI         RHOB           SN           SP
# ...
   1074.5671    -999.2500    -999.2500    -999.2500      52.6398       0.7055       0.7793    -999.2500       2.1885       0.8800    -185.4082
   1074.7196    -999.2500    -999.2500    -999.2500      52.1695       0.7070       0.7693    -999.2500       2.2035       0.8800    -171.4285
   1074.8719    -999.2500    -999.2500    -999.2500      49.7452       0.7157       0.7612    -999.2500       2.2103       0.8800    -160.5602
   1075.0244    -999.2500    -999.2500    -999.2500      47.2632       0.7247       0.7532    -999.2500       2.2168       0.8800    -149.7836
   1075.1768    -999.2500    -999.2500    -999.2500      47.5515       0.7134       0.7641    -999.2500       2.2218       0.8800    -142.2384
   1075.3292    -999.2500    -999.2500    -999.2500      47.9263       0.7014       0.7756    -999.2500       2.2268       0.8800    -134.7941
   1075.4816    -999.2500    -999.2500    -999.2500      49.8131       0.6923       0.7591    -999.2500       2.2285       0.8800    -142.6493
   1075.6339    -999.2500    -999.2500    -999.2500      51.7484       0.6833       0.7416    -999.2500       2.2300       0.8800    -150.9969
   1075.7864    -999.2500    -999.2500    -999.2500      49.3652       0.6719       0.7284    -999.2500       2.2232       0.8800    -166.2758
   1075.9387    -999.2500    -999.2500    -999.2500      46.8353       0.6604       0.7154    -999.2500       2.2162       0.8800    -181.7901
   1076.0912    -999.2500    -999.2500    -999.2500      51.1237       0.6556       0.7111    -999.2500       2.1986       0.8800    -185.4004
   1076.2435    -999.2500    -999.2500    -999.2500      55.6499       0.6511       0.7071    -999.2500       2.1806       0.8800    -188.5955
   1076.3960    -999.2500    -999.2500    -999.2500      52.2877       0.6622       0.7298    -999.2500       2.1800       0.8800    -176.9192
   1076.5483    -999.2500    -999.2500    -999.2500      48.6903       0.6737       0.7533    -999.2500       2.1800       0.8800    -164.7995
   1076.7008    -999.2500    -999.2500    -999.2500      45.8014       0.6919       0.7627    -999.2500       2.1766       0.8800    -185.1248
   1076.8531    -999.2500    -999.2500    -999.2500      42.9343       0.7104       0.7717    -999.2500       2.1731       0.8800    -206.4476
   1077.0056    -999.2500    -999.2500    -999.2500      44.9617       0.7212       0.7812    -999.2500       2.1667       0.8800    -228.5715
   1077.1580    -999.2500    -999.2500    -999.2500      47.1483       0.7317       0.7907    -999.2500       2.1602       0.8800    -250.7214
   1077.3104    -999.2500    -999.2500    -999.2500      44.6660       0.7325       0.7857    -999.2500       2.1702       0.8800    -235.3734
   1077.4628    -999.2500    -999.2500    -999.2500      42.0277       0.7330       0.7802    -999.2500       2.1807       0.8800    -218.7717
   1077.6151    -999.2500    -999.2500    -999.2500      44.3292       0.7349       0.7853    -999.2500       2.1902       0.8800    -194.9866
   1077.7676    -999.2500    -999.2500    -999.2500      46.8045       0.7369       0.7908    -999.2500       2.1997       0.8800    -170.9484
   1077.9199    -999.2500    -999.2500    -999.2500      48.3005       0.7389       0.7949    -999.2500       2.1966       0.8800    -160.0486
   1078.0724    -999.2500    -999.2500    -999.2500      49.7678       0.7409       0.7989    -999.2500       2.1931       0.8800    -149.5339
   1078.2247    -999.2500    -999.2500    -999.2500      48.6865       0.7425       0.8058    -999.2500       2.1882       0.8800    -146.7793
   1078.3772    -999.2500    -999.2500    -999.2500      47.5260       0.7440       0.8128    -999.2500       2.1832       0.8800    -144.2659
   1078.5295    -999.2500    -999.2500    -999.2500      46.8142       0.7566       0.8174    -999.2500       2.1767       0.8800    -149.9972
   1078.6820    -999.2500    -999.2500    -999.2500      46.1168       0.7696       0.8219    -999.2500       2.1702       0.8800    -155.9922
   1078.8344    -999.2500    -999.2500    -999.2500      47.2872       0.7502       0.8317    -999.2500       2.1768       0.8800    -150.1636
   1078.9868    -999.2500    -999.2500    -999.2500      48.5206       0.7297       0.8417    -999.2500       2.1838       0.8800    -143.9358
   1079.1392    -999.2500    -999.2500    -999.2500      47.3060       0.7372       0.8299    -999.2500       2.1903       0.8800    -134.6797
   1079.2916    -999.2500    -999.2500    -999.2500      46.0064       0.7458       0.8174    -999.2500       2.1968       0.8800    -125.3185
   1079.4440    -999.2500    -999.2500    -999.2500      46.2418       0.7625       0.8253    -999.2500       2.1985       0.8800    -121.4760
   1079.5963    -999.2500    -999.2500    -999.2500      46.5227       0.7795       0.8337    -999.2500       2.2000       0.8800    -117.7971
   1079.7488    -999.2500    -999.2500    -999.2500      45.2585       0.8144       0.8733    -999.2500       2.2034       0.8800    -121.0814
   1079.9011    -999.2500    -999.2500    -999.2500      43.9471       0.8499       0.9137    -999.2500       2.2069       0.8800    -124.5785
   1080.0536    -999.2500    -999.2500    -999.2500      43.6185       0.8728       0.9503    -999.2500       2.2085       0.8800    -117.7009
   1080.2059    -999.2500    -999.2500    -999.2500      43.3218       0.8953       0.9868    -999.2500       2.2100       0.8800    -110.4879
   1080.3584    -999.2500    -999.2500    -999.2500      46.4278       0.8868       0.9909    -999.2500       2.2100       0.8800    -124.8998
   1080.5107    -999.2500    -999.2500    -999.2500      49.6500       0.8773       0.9939    -999.2500       2.2100       0.8800    -140.0493
   1080.6632    -999.2500    -999.2500    -999.2500      50.4357       0.8562       0.9427    -999.2500       2.2134       0.8800    -131.8211
   1080.8156    -999.2500    -999.2500    -999.2500      51.1362       0.8346       0.8895    -999.2500       2.2169       0.8800    -122.7740
   1080.9680    -999.2500    -999.2500    -999.2500      47.4093       0.8165       0.8666    -999.2500       2.2233       0.8800     -93.7582
   1081.1204    -999.2500    -999.2500    -999.2500      43.5535       0.7985       0.8447    -999.2500       2.2298       0.8800     -64.1609
   1081.2728    -999.2500    -999.2500    -999.2500      45.9677       0.7728       0.8343    -999.2500       2.2155       0.8800     -45.2027
   1081.4252    -999.2500    -999.2500    -999.2500      48.5755       0.7468       0.8243    -999.2500       2.2005       0.8800     -26.5732
   1081.5775    -999.2500    -999.2500    -999.2500      50.5779       0.7436       0.8114    -999.2500       2.2034       0.8800     -42.6623
   1081.7300    -999.2500    -999.2500    -999.2500      52.5606       0.7411       0.7984    -999.2500       2.2069       0.8800     -59.8854
   1081.8823    -999.2500    -999.2500    -999.2500      52.3683       0.7434       0.7999    -999.2500       2.2118       0.8800     -95.5237
   1082.0348    -999.2500    -999.2500    -999.2500      52.1031       0.7459       0.8019    -999.2500       2.2168       0.8800    -131.7806
   1082.1871    -999.2500    -999.2500    -999.2500      46.9787       0.7315       0.7991    -999.2500       2.2185       0.8800    -146.6496
   1082.3396    -999.2500    -999.2500    -999.2500      41.6825       0.7164       0.7961    -999.2500       2.2200       0.8800    -160.7622
   1082.4919    -999.2500    -999.2500    -999.2500      42.7035       0.6980       0.7737    -999.2500       2.2166       0.8800    -168.4589
   1082.6444    -999.2500    -999.2500    -999.2500      43.9105       0.6796       0.7507    -999.2500       2.2131       0.8800    -175.9667
   1082.7968    -999.2500    -999.2500    -999.2500      45.2144       0.6688       0.7243    -999.2500       2.2019       0.8800    -180.2496
   1082.9492    -999.2500    -999.2500    -999.2500      46.5213       0.6583       0.6978    -999.2500       2.1904       0.8800    -184.4318
