#------------------------------------------------------------------------------
#
#   Created by  : [OpenWorks] Log Export Utility (LEXP)
#   Created on  : 2016-05-23 11:56:43
#   Project     : CANT971
#   User        : R5K
#   Interpreter : PEP
#
#------------------------------------------------------------------------------
~VERSION INFORMATION
VERS. 2.0 : CWLS Log ASCII Standard - version 2.0
WRAP.  NO : One line per depth step
~WELL INFORMATION
#MNEMONIC   .UNIT                                           VALUE :DESCRIPTION
#------------------------------------------------------------------------------
STRT        .M                                           650.2150 :START DEPTH
STOP        .M                                          2618.6135 :STOP DEPTH
STEP        .M                                             0.1524 :STEP
NULL        .                                           -999.2500 :NULL VALUE
COMP        .                                   PEMEX EXPL & PROD :COMPANY
WELL        .                                                  4D :WELL
FLD         .                                           CANTARELL :FIELD
LOC         .                                             UNKNOWN :LOCATION
CNTY        .                                      CD. DEL CARMEN :COUNTY
STAT        .                                            CAMPECHE :STATE
CTRY        .                                              MEXICO :COUNTRY
SRVC        .                                             UNKNOWN :SERVICE COMPANY
DATE        .                                             UNKNOWN :LOG DATE
UWI         .                                          3060000662 :UNIQUE WELL ID
XCOORD      .                                       598468.500000 :SURFACE X
YCOORD      .                                      2145023.700000 :SURFACE Y
LAT         .                                           19.398162 :LATITUDE
LON         .                                          -92.062225 :LONGITUDE
ELEV        .M                                            26.5400 :SURFACE ELEV
ELEV_TYPE   .                                                  KB :ELEV TYPE
~CURVE INFORMATION
#MNEMONIC.UNIT        API CODE       : CURVE DESCRIPTION
#------------------------------------------------------------------------------
DEPTH    .M                          : Measured Depth
CAL      .inches      UNKNOWN        : CAL:UNKNOWN:rC:NONE:v0 (auto-composite)
CGR      .UNKNOWN     UNKNOWN        : CGR:UNKNOWN:rC:NONE:v0 (auto-composite)
DRHO     .UNKNOWN     UNKNOWN        : DRHO:UNKNOWN:rC:NONE:v0 (auto-composite)
DT       .us/ft       UNKNOWN        : DT:DT:rC:NONE:v0 (auto-composite)
GR       .API         UNKNOWN        : GR:UNKNOWN:rC:NONE:v0 (auto-composite)
ILD      .UNKNOWN     UNKNOWN        : ILD:UNKNOWN:rC:NONE:v0 (auto-composite)
ILM      .UNKNOWN     UNKNOWN        : ILM:UNKNOWN:rC:NONE:v0 (auto-composite)
LLD      .UNKNOWN     UNKNOWN        : LLD:UNKNOWN:rC:NONE:v0 (auto-composite)
LLS      .UNKNOWN     UNKNOWN        : LLS:UNKNOWN:rC:NONE:v0 (auto-composite)
MSFL     .UNKNOWN     UNKNOWN        : MSFL:UNKNOWN:rC:NONE:v0 (auto-composite)
NPHI     .v/v_decimal UNKNOWN        : NPHI:PETROWORKS:rC:NONE:v1 
PEF      .UNKNOWN     UNKNOWN        : PEF:UNKNOWN:rC:NONE:v0 (auto-composite)
POTA     .UNKNOWN     UNKNOWN        : POTA:UNKNOWN:rC:NONE:v0 (auto-composite)
RHOB     .UNKNOWN     UNKNOWN        : RHOB:UNKNOWN:rC:NONE:v0 (auto-composite)
THOR     .UNKNOWN     UNKNOWN        : THOR:UNKNOWN:rC:NONE:v0 (auto-composite)
URAN     .UNKNOWN     UNKNOWN        : URAN:UNKNOWN:rC:NONE:v0 (auto-composite)
~A     DEPTH          CAL          CGR         DRHO           DT           GR          ILD          ILM          LLD          LLS         MSFL         NPHI          PEF         POTA         RHOB         THOR         URAN
# ...
   2589.9622       6.5075       7.6342       0.0739      54.6547      30.1393    -999.2500    -999.2500     118.3834     118.4167      29.6177       0.0616       3.3699       0.0022       2.7627       0.8872       2.6322
   2590.1147       6.4868       9.6779       0.0636      55.3633      32.8402    -999.2500    -999.2500     114.0714     113.1596      19.9807       0.0641       3.1891       0.0033       2.7508       0.9465       2.6251
   2590.2671       6.5318      13.7856       0.0496      52.4852      37.8975    -999.2500    -999.2500      83.3636      82.1001      60.2768       0.0732       3.3117       0.0048       2.7613       1.4593       2.8075
   2590.4194       6.5861      17.2239       0.0361      50.5824      42.1435    -999.2500    -999.2500      57.7280      56.2251      86.2632       0.0819       3.3936       0.0060       2.7648       1.8614       2.9632
   2590.5718       6.6851      17.3879       0.0251      53.3422      42.5103    -999.2500    -999.2500      56.8972      55.1391      42.2679       0.0886       3.2817       0.0060       2.7348       1.7223       2.9877
   2590.7241       6.7646      17.2271       0.0195      55.4424      42.1813    -999.2500    -999.2500      56.6708      54.5673       5.5899       0.0930       3.1899       0.0058       2.7085       1.6380       2.9687
   2590.8767       6.7506      15.4859       0.0400      54.3700      38.5049    -999.2500    -999.2500      59.3851      56.4690       4.5098       0.0923       3.1954       0.0048       2.6994       1.8199       2.7383
   2591.0291       6.7208      14.4220       0.0602      53.8154      35.8795    -999.2500    -999.2500      59.2968      55.8686       3.5929       0.0921       3.2301       0.0042       2.6976       1.9890       2.5513
   2591.1814       6.6158      16.6738       0.0787      55.7386      38.3410    -999.2500    -999.2500      45.4897      43.2940       3.4743       0.0980       3.4042       0.0052       2.7301       2.0950       2.5768
   2591.3337       6.5300      18.2836       0.0918      57.1555      39.7660    -999.2500    -999.2500      34.2687      33.0951       9.8656       0.1037       3.5143       0.0058       2.7552       2.1913       2.5544
   2591.4863       6.5360      16.7673       0.0793      56.1620      36.0863    -999.2500    -999.2500      35.6406      34.3340      47.9552       0.1089       3.3198       0.0048       2.7447       2.2403       2.2985
   2591.6387       6.5471      15.7304       0.0674      55.4074      33.3781    -999.2500    -999.2500      38.5311      36.9565      76.3633       0.1122       3.1617       0.0042       2.7382       2.1532       2.0978
   2591.7910       6.5826      17.0424       0.0584      55.7975      35.2718    -999.2500    -999.2500      48.8614      46.2055      57.3403       0.1077       3.1772       0.0052       2.7513       1.3994       2.1673
   2591.9434       6.6303      17.7053       0.0478      56.3619      36.2223    -999.2500    -999.2500      56.1886      52.5630      38.2188       0.1035       3.1851       0.0063       2.7556       0.8375       2.2038
   2592.0959       6.7357      15.2049       0.0293      57.7563      32.6783    -999.2500    -999.2500      48.8792      44.9867      18.6173       0.0999       3.1572       0.0078       2.7186       1.2103       2.0794
   2592.2483       6.8171      14.3926       0.0154      58.7689      31.8982    -999.2500    -999.2500      41.0691      37.1137       2.5118       0.0976       3.1718       0.0091       2.6896       1.6271       2.0772
   2592.4006       6.7831      21.8584       0.0234      57.9511      44.3678    -999.2500    -999.2500      30.8033      27.8183       3.5497       0.1005       3.3909       0.0096       2.6986       2.2593       2.6750
   2592.5530       6.7504      28.2744       0.0323      57.5603      55.0809    -999.2500    -999.2500      21.9406      19.8363       4.3446       0.1042       3.5553       0.0101       2.7054       2.8144       3.1882
   2592.7053       6.7239      29.5698       0.0458      59.2061      57.2260    -999.2500    -999.2500      19.9220      18.1185       3.9543       0.1094       3.4588       0.0106       2.7019       2.9934       3.2891
   2592.8579       6.6887      30.3892       0.0606      60.6917      58.6098    -999.2500    -999.2500      18.7019      17.1943       5.4865       0.1157       3.3448       0.0109       2.7012       3.0970       3.3563
   2593.0103       6.6117      28.8722       0.0816      61.4090      56.2573    -999.2500    -999.2500      21.4014      20.0779      16.4545       0.1240       3.1462       0.0104       2.7137       2.8314       3.2578
   2593.1626       6.5389      26.9622       0.0979      61.8932      53.3571    -999.2500    -999.2500      25.1142      23.7548      29.4713       0.1311       2.9843       0.0099       2.7244       2.5166       3.1424
   2593.3149       6.4864      23.1338       0.0914      61.2650      47.8714    -999.2500    -999.2500      33.7739      31.2191      52.4909       0.1339       2.9978       0.0094       2.7269       1.9613       2.9450
   2593.4675       6.4710      20.3332       0.0845      60.5756      43.8673    -999.2500    -999.2500      40.4175      36.7615      66.4084       0.1343       3.0281       0.0089       2.7324       1.5675       2.7969
   2593.6199       6.6336      22.5810       0.0760      59.5928      46.8985    -999.2500    -999.2500      37.1568      33.0742      35.6136       0.1301       3.1392       0.0084       2.7519       1.9667       2.8909
   2593.7722       6.7606      24.5749       0.0662      58.7026      49.5811    -999.2500    -999.2500      34.2270      29.8355      12.2739       0.1258       3.2510       0.0082       2.7652       2.3098       2.9739
   2593.9246       6.7182      25.3277       0.0502      58.2553      50.5792    -999.2500    -999.2500      32.9146      28.7404      25.3652       0.1248       3.3664       0.0092       2.7492       2.3793       3.0029
   2594.0771       6.6840      25.4166       0.0405      58.4498      50.4664    -999.2500    -999.2500      30.4198      26.5729      33.4512       0.1219       3.4657       0.0098       2.7282       2.3499       2.9792
   2594.2295       6.6900      22.2784       0.0610      61.7295      44.9537    -999.2500    -999.2500      22.1779      19.2502      17.2052       0.1152       3.4872       0.0088       2.6832       1.8391       2.6994
   2594.3818       6.6771      21.0859       0.0803      64.6548      42.1372    -999.2500    -999.2500      14.7797      12.7347       3.6917       0.1135       3.5949       0.0087       2.6463       1.4965       2.4968
   2594.5342       6.5736      29.4095       0.0938      65.8853      51.9304    -999.2500    -999.2500      11.5085      10.0794       3.5426       0.1390       4.1146       0.0127       2.6483       1.9767       2.6724
   2594.6865       6.4941      36.5187       0.1020      67.1592      60.2667    -999.2500    -999.2500       9.0430       8.0922       4.5148       0.1614       4.4238       0.0161       2.6567       2.3802       2.8237
   2594.8391       6.5291      37.7191       0.0851      68.6401      61.7484    -999.2500    -999.2500      10.4973       9.3197      10.9426       0.1776       3.7316       0.0166       2.6952       2.4107       2.8572
   2594.9915       6.5624      39.1980       0.0658      69.7781      63.6006    -999.2500    -999.2500      12.3664      10.9233      15.5448       0.1854       3.1595       0.0173       2.7253       2.4583       2.9009
   2595.1438       6.5879      42.0395       0.0358      69.2754      67.2260    -999.2500    -999.2500      16.2659      14.3273      11.2107       0.1683       3.1625       0.0188       2.7153       2.5899       2.9944
   2595.2961       6.6169      42.5416       0.0141      68.3669      68.1144    -999.2500    -999.2500      20.1120      17.6506       7.2207       0.1480       3.2039       0.0191       2.7044       2.6304       3.0436
   2595.4487       6.6624      31.6508       0.0321      65.5256      55.8237    -999.2500    -999.2500      23.6984      20.5852       4.9062       0.1231       3.4278       0.0136       2.6894       2.2275       2.8772
