#------------------------------------------------------------------------------
#
#   Created by  : [OpenWorks] Log Export Utility (LEXP)
#   Created on  : 2016-05-23 11:51:58
#   Project     : CANT971
#   User        : R5K
#   Interpreter : PEP
#
#------------------------------------------------------------------------------
~VERSION INFORMATION
VERS. 2.0 : CWLS Log ASCII Standard - version 2.0
WRAP.  NO : One line per depth step
~WELL INFORMATION
#MNEMONIC   .UNIT                                           VALUE :DESCRIPTION
#------------------------------------------------------------------------------
STRT        .M                                           695.7060 :START DEPTH
STOP        .M                                          3054.7056 :STOP DEPTH
STEP        .M                                             0.1524 :STEP
NULL        .                                           -999.2500 :NULL VALUE
COMP        .                                   PEMEX EXPL & PROD :COMPANY
WELL        .                                                 17D :WELL
FLD         .                                           CANTARELL :FIELD
LOC         .                                             UNKNOWN :LOCATION
CNTY        .                                      CD. DEL CARMEN :COUNTY
STAT        .                                            CAMPECHE :STATE
CTRY        .                                              MEXICO :COUNTRY
SRVC        .                                             UNKNOWN :SERVICE COMPANY
DATE        .                                             UNKNOWN :LOG DATE
UWI         .                                          3060000460 :UNIQUE WELL ID
XCOORD      .                                       603362.626000 :SURFACE X
YCOORD      .                                      2145093.910000 :SURFACE Y
LAT         .                                           19.398550 :LATITUDE
LON         .                                          -92.015617 :LONGITUDE
ELEV        .M                                            27.1400 :SURFACE ELEV
ELEV_TYPE   .                                                  KB :ELEV TYPE
~CURVE INFORMATION
#MNEMONIC.UNIT        API CODE       : CURVE DESCRIPTION
#------------------------------------------------------------------------------
DEPTH    .M                          : Measured Depth
CALI     .in          UNKNOWN        : CALI:UNKNOWN:rC:NONE:v0 (auto-composite)
DT       .us/ft       UNKNOWN        : DT:DT:rC:NONE:v0 (auto-composite)
GR       .API         UNKNOWN        : GR:UNKNOWN:rC:NONE:v0 (auto-composite)
ILD      .ohmm        UNKNOWN        : ILD:UNKNOWN:rC:NONE:v0 (auto-composite)
LLD      .ohmm        UNKNOWN        : LLD:UNKNOWN:rC:NONE:v0 (auto-composite)
LLS      .ohmm        UNKNOWN        : LLS:UNKNOWN:rC:NONE:v0 (auto-composite)
MSFL     .ohmm        UNKNOWN        : MSFL:UNKNOWN:rC:NONE:v0 (auto-composite)
NPHI     .v/v_decimal UNKNOWN        : NPHI:UNKNOWN:rC:NONE:v0 (auto-composite)
PEF      .b/elec      UNKNOWN        : PEF:UNKNOWN:rC:NONE:v0 (auto-composite)
RHOB     .g/cm3       UNKNOWN        : RHOB:UNKNOWN:rC:NONE:v0 (auto-composite)
~A     DEPTH         CALI           DT           GR          ILD          LLD          LLS         MSFL         NPHI          PEF         RHOB
# ...
   3042.6660       5.2890    -999.2500    -999.2500    -999.2500      85.5772      74.3128     344.2897       0.0545       2.8750       2.6761
   3042.8184       5.2890    -999.2500    -999.2500    -999.2500      87.6140      76.0710     346.6980       0.0544       2.8790       2.6540
   3042.9707       5.2890    -999.2500    -999.2500    -999.2500      87.7687      76.2388     347.7804       0.0538       2.9064       2.6565
   3043.1233       5.2890    -999.2500    -999.2500    -999.2500      87.9250      76.4070     348.8650       0.0531       2.9340       2.6590
   3043.2756       5.2890    -999.2500    -999.2500    -999.2500      87.9759      76.4784     349.4319       0.0532       2.9664       2.6909
   3043.4280       5.2890    -999.2500    -999.2500    -999.2500      88.0270      76.5500     350.0000       0.0533       2.9990       2.7230
   3043.5803       5.2890    -999.2500    -999.2500    -999.2500      88.0660      76.6009     350.0000       0.0537       3.0214       2.7225
   3043.7329       5.2890    -999.2500    -999.2500    -999.2500      88.1050      76.6520     350.0000       0.0542       3.0440       2.7220
   3043.8853       5.2875    -999.2500    -999.2500    -999.2500      88.1489      76.6895     350.0000       0.0547       3.0839       2.7170
   3044.0376       5.2860    -999.2500    -999.2500    -999.2500      88.1930      76.7270     350.0000       0.0552       3.1240       2.7120
   3044.1899       5.2710    -999.2500    -999.2500    -999.2500      88.2304      76.7600     350.0000       0.0562       3.1220       2.6931
   3044.3423       5.2560    -999.2500    -999.2500    -999.2500      88.2680      76.7930     350.0000       0.0573       3.1200       2.6740
   3044.4949       5.2146    -999.2500    -999.2500    -999.2500      88.1953      76.7650     350.0000       0.0569       3.0941       2.6810
   3044.6472       5.1730    -999.2500    -999.2500    -999.2500      88.1220      76.7370     350.0000       0.0564       3.0680       2.6880
   3044.7996       5.0888    -999.2500    -999.2500    -999.2500      88.1260      76.7415     350.0000       0.0573       2.9803       2.6850
   3044.9519       5.0040    -999.2500    -999.2500    -999.2500      88.1300      76.7460     350.0000       0.0582       2.8920       2.6820
   3045.1045       5.0040    -999.2500    -999.2500    -999.2500      88.1955      76.7340     350.0000       0.0564       2.7574       2.6505
   3045.2568       5.0040    -999.2500    -999.2500    -999.2500      88.2610      76.7220     350.0000       0.0546       2.6220       2.6190
   3045.4092       5.0040    -999.2500    -999.2500    -999.2500      88.2605      76.7644     350.0000       0.0548       2.6235       2.6325
   3045.5615       5.0040    -999.2500    -999.2500    -999.2500      88.2600      76.8070     350.0000       0.0550       2.6250       2.6460
   3045.7141       5.0040    -999.2500    -999.2500    -999.2500      88.2525      76.7955     350.0000       0.0561       2.6400       2.6455
   3045.8665       5.0040    -999.2500    -999.2500    -999.2500      88.2450      76.7840     350.0000       0.0571       2.6550       2.6450
   3046.0188       5.0040    -999.2500    -999.2500    -999.2500      88.2196      76.5957     350.0000       0.0572       2.6181       2.6425
   3046.1711       5.0040    -999.2500    -999.2500    -999.2500      88.1940      76.4070     350.0000       0.0573       2.5810       2.6400
   3046.3235       5.0040    -999.2500    -999.2500    -999.2500      87.8741      76.5629     350.0000       0.0578       2.5835       2.6380
   3046.4761       5.0040    -999.2500    -999.2500    -999.2500      87.5520      76.7190     350.0000       0.0583       2.5860       2.6360
   3046.6284       5.0040    -999.2500    -999.2500    -999.2500      84.8521      78.2440     350.0000       0.0582       2.6458       2.6320
   3046.7808       5.0040    -999.2500    -999.2500    -999.2500      82.1470      79.7720     350.0000       0.0580       2.7060       2.6280
   3046.9331       5.0040    -999.2500    -999.2500    -999.2500      71.3532      84.5411     350.0000       0.0566       2.6846       2.6220
   3047.0857       5.0040    -999.2500    -999.2500    -999.2500      60.5200      89.3200     350.0000       0.0552       2.6630       2.6160
   3047.2380       5.0040    -999.2500    -999.2500    -999.2500      60.5200      93.9550     350.0000       0.0559       2.6660       2.6230
   3047.3904       5.0040    -999.2500     103.2500    -999.2500      60.5200      98.6000     350.0000       0.0566       2.6690       2.6300
   3047.5427       5.0040    -999.2500     101.8711    -999.2500      58.4194      95.1590     337.7646       0.0557       2.7229       2.6280
   3047.6953       5.0040    -999.2500     100.4780    -999.2500      56.2970      91.7100     325.5010       0.0547       2.7770       2.6260
   3047.8477       5.0040    -999.2500      78.8003    -999.2500      28.3276      46.0104     163.0475       0.0549       2.7591       2.6120
   3048.0000       5.0040    -999.2500      57.0000    -999.2500       0.2000       0.2000       0.2000       0.0551       2.7410       2.5980
   3048.1523       5.0040    -999.2500      57.0000    -999.2500       0.2000       0.2000       0.2000       0.0562       2.7515       2.5985
   3048.3047       5.0040    -999.2500      57.0000    -999.2500       0.2000       0.2000       0.2000       0.0574       2.7620       2.5990
   3048.4573       5.0040    -999.2500    -999.2500    -999.2500     498.6582    -999.2500    -999.2500       0.0572       2.7515       2.6020
   3048.6096       5.0040    -999.2500    -999.2500    -999.2500     999.2500    -999.2500    -999.2500       0.0570       2.7410       2.6050
   3048.7620       5.0040    -999.2500    -999.2500    -999.2500     999.2500    -999.2500    -999.2500       0.0570       2.6508       2.6175
   3048.9143       5.0040    -999.2500    -999.2500    -999.2500     999.2500    -999.2500    -999.2500       0.0571       2.5600       2.6300
   3049.0669       5.0040    -999.2500    -999.2500    -999.2500     999.2500    -999.2500    -999.2500       0.0571       2.5600       2.6295
   3049.2192       5.0040    -999.2500    -999.2500    -999.2500     999.2500    -999.2500    -999.2500       0.0572       2.5600       2.6290
   3049.3716       5.0040    -999.2500    -999.2500    -999.2500     999.2500    -999.2500    -999.2500       0.0572       2.5680       2.6275
   3049.5239       5.0040    -999.2500    -999.2500    -999.2500     999.2500    -999.2500    -999.2500       0.0572       2.5760       2.6260
   3049.6765       5.0040    -999.2500    -999.2500    -999.2500     999.2500    -999.2500    -999.2500       0.0572       2.6513       2.6170
   3049.8289       5.0040    -999.2500    -999.2500    -999.2500     999.2500    -999.2500    -999.2500       0.0572       2.7270       2.6080
   3049.9812       5.0040    -999.2500    -999.2500    -999.2500     999.2500    -999.2500    -999.2500       0.0572       2.7225       2.6085
   3050.1335       5.0040    -999.2500    -999.2500    -999.2500     999.2500    -999.2500    -999.2500       0.0572       2.7180       2.6090
   3050.2859       5.0040    -999.2500    -999.2500    -999.2500     999.2500    -999.2500    -999.2500       0.0572       2.6452       2.6120
   3050.4385       5.0040    -999.2500    -999.2500    -999.2500     999.2500    -999.2500    -999.2500       0.0572       2.5720       2.6150
   3050.5908       5.0040    -999.2500    -999.2500    -999.2500     999.2500    -999.2500    -999.2500       0.0572       2.5750       2.6250
   3050.7432       5.0040    -999.2500    -999.2500    -999.2500     999.2500    -999.2500    -999.2500       0.0572       2.5780       2.6350
   3050.8955       5.0040    -999.2500    -999.2500    -999.2500     999.2500    -999.2500    -999.2500       0.0572       2.6483       2.6345
   3051.0481       5.0040    -999.2500    -999.2500    -999.2500     999.2500    -999.2500    -999.2500       0.0572       2.7190       2.6340
