#------------------------------------------------------------------------------
#
#   Created by  : [OpenWorks] Log Export Utility (LEXP)
#   Created on  : 2016-05-23 11:56:20
#   Project     : CANT971
#   User        : R5K
#   Interpreter : PEP
#
#------------------------------------------------------------------------------
~VERSION INFORMATION
VERS. 2.0 : CWLS Log ASCII Standard - version 2.0
WRAP.  NO : One line per depth step
~WELL INFORMATION
#MNEMONIC   .UNIT                                           VALUE :DESCRIPTION
#------------------------------------------------------------------------------
STRT        .M                                          1446.1469 :START DEPTH
STOP        .M                                          3739.7668 :STOP DEPTH
STEP        .M                                             0.1524 :STEP
NULL        .                                           -999.2500 :NULL VALUE
COMP        .                                             UNKNOWN :COMPANY
WELL        .                                               468-V :WELL
FLD         .                                             UNKNOWN :FIELD
LOC         .                                             UNKNOWN :LOCATION
CNTY        .                                             UNKNOWN :COUNTY
STAT        .                                             UNKNOWN :STATE
CTRY        .                                             UNKNOWN :COUNTRY
SRVC        .                                             UNKNOWN :SERVICE COMPANY
DATE        .                                             UNKNOWN :LOG DATE
UWI         .                                               468-V :UNIQUE WELL ID
XCOORD      .                                       598699.140000 :SURFACE X
YCOORD      .                                      2143301.650000 :SURFACE Y
LAT         .                                           19.382589 :LATITUDE
LON         .                                          -92.060118 :LONGITUDE
ELEV        .M                                             0.0000 :SURFACE ELEV
ELEV_TYPE   .                                                  NA :ELEV TYPE
~CURVE INFORMATION
#MNEMONIC.UNIT        API CODE       : CURVE DESCRIPTION
#------------------------------------------------------------------------------
DEPTH    .M                          : Measured Depth
CALI     .inches      UNKNOWN        : CALI:PETROWORKS:rC:NONE:v1 
DRHO     .g/cm3       UNKNOWN        : DRHO:PETROWORKS:rC:NONE:v1 
DT       .us/ft       UNKNOWN        : DT:sonico:rC:NONE:v0 (auto-composite)
GR       .API         UNKNOWN        : GR:PETROWORKS:rC:NONE:v1 
GR-LWD   .API         UNKNOWN        : GR-LWD:PETROWORKS:rC:NONE:v3 
ILD-LWD  .ohm.m       UNKNOWN        : ILD-LWD:PETROWORKS:rC:NONE:v3 
ILM-LWD  .UNKNOWN     UNKNOWN        : ILM-LWD:PETROWORKS:rC:NONE:v3 
NPHI     .v/v_decimal UNKNOWN        : NPHI:PETROWORKS:rC:NONE:v1 
PEF      .b/elec      UNKNOWN        : PEF:PETROWORKS:rC:NONE:v1 
RHOB     .g/cm3       UNKNOWN        : RHOB:PETROWORKS:rC:NONE:v1 
~A     DEPTH         CALI         DRHO           DT           GR       GR-LWD      ILD-LWD      ILM-LWD         NPHI          PEF         RHOB
# ...
   3733.3660       6.0084       0.0077      45.1570      65.4738      43.4725      23.4800      23.2283       0.0687       3.3566       2.7052
   3733.5186       6.0138       0.0125      45.1570      66.0714      42.1197      23.5454      23.2091       0.0663       3.3585       2.7173
   3733.6709       6.0128       0.0158      45.1570      68.3928      40.9448      23.1810      22.9997       0.0636       3.3442       2.7321
   3733.8232       6.0045       0.0137      45.1570      72.5401      41.2724      22.6842      22.6372       0.0616       3.3432       2.7392
   3733.9756       5.9922       0.0061      45.1570      76.9390      43.4164      21.8201      21.9249       0.0600       3.3526       2.7497
   3734.1279       5.9897       0.0018      45.1570      78.3901      45.9637      21.1475      21.3100       0.0584       3.3330       2.7591
   3734.2805       6.0052      -0.0005      45.1570    -999.2500      49.1377      20.4954      20.6943       0.0569       3.3015       2.7678
   3734.4329       6.0034       0.0001      45.1570    -999.2500      49.8523      20.1766      20.3989       0.0565       3.3207       2.7651
   3734.5852       5.9889       0.0093      45.1570    -999.2500      50.0905      19.7145      19.8974       0.0582       3.3852       2.7527
   3734.7375       5.9855       0.0272      45.1570    -999.2500      47.5428      17.9593      17.7534       0.0613       3.4169       2.7426
   3734.8901       6.0041       0.0508      45.1570    -999.2500      46.2917      17.5628      17.1711       0.0654       3.3852       2.7366
   3735.0425       6.0136       0.0624      45.1570    -999.2500      43.6264      18.3100      17.6959       0.0671       3.3216       2.7373
   3735.1948       6.0153       0.0606      45.1570    -999.2500      42.3406      18.7878      18.0536       0.0657       3.2826       2.7421
   3735.3472       6.0134       0.0455      45.1570    -999.2500      42.5006      18.7132      18.0252       0.0664       3.2843       2.7465
   3735.4998       6.0014       0.0234      45.1570    -999.2500      43.5200      18.2816      17.6904       0.0712       3.2957       2.7508
   3735.6521       5.9767       0.0117      45.1570    -999.2500      45.2856      18.0165      17.5086       0.0725       3.3110       2.7508
   3735.8044       5.9929       0.0050      45.1570    -999.2500      47.5054      17.9095      17.5730       0.0726       3.3215       2.7439
   3735.9568       5.9774       0.0011      45.1570    -999.2500    -999.2500    -999.2500    -999.2500       0.0726       3.3076       2.7294
   3736.1091       5.9694      -0.0027      45.1570    -999.2500    -999.2500    -999.2500    -999.2500       0.0721       3.2782       2.7145
   3736.2617       5.9698      -0.0030      45.1570    -999.2500    -999.2500    -999.2500    -999.2500       0.0701       3.2542       2.7143
   3736.4141       5.9699      -0.0031      45.1570    -999.2500    -999.2500    -999.2500    -999.2500       0.0693       3.2443       2.7177
   3736.5664       5.9566      -0.0030      45.1570    -999.2500    -999.2500    -999.2500    -999.2500       0.0689       3.2572       2.7206
   3736.7188       5.9517      -0.0011      45.1570    -999.2500    -999.2500    -999.2500    -999.2500       0.0691       3.2698       2.7216
   3736.8713       5.9715       0.0036      45.1570    -999.2500    -999.2500    -999.2500    -999.2500    -999.2500       3.2894       2.7223
   3737.0237       5.9884       0.0087      45.1570    -999.2500    -999.2500    -999.2500    -999.2500    -999.2500       3.3052       2.7254
   3737.1760       5.9950       0.0157      45.1570    -999.2500    -999.2500    -999.2500    -999.2500    -999.2500       3.3204       2.7307
   3737.3284       5.9941       0.0181      45.1570    -999.2500    -999.2500    -999.2500    -999.2500    -999.2500       3.3344       2.7335
   3737.4810       5.9850       0.0185      45.1570    -999.2500    -999.2500    -999.2500    -999.2500    -999.2500       3.3574       2.7391
   3737.6333       5.9807       0.0187      45.1570    -999.2500    -999.2500    -999.2500    -999.2500    -999.2500       3.3640       2.7418
   3737.7856       5.9396       0.0183      45.1570    -999.2500    -999.2500    -999.2500    -999.2500    -999.2500       3.3547       2.7359
   3737.9380       5.9291       0.0197      45.1570    -999.2500    -999.2500    -999.2500    -999.2500    -999.2500       3.3526       2.7301
   3738.0903       5.9278       0.0238      45.1570    -999.2500    -999.2500    -999.2500    -999.2500    -999.2500       3.3516       2.7264
   3738.2429       5.9457       0.0245      45.1570    -999.2500    -999.2500    -999.2500    -999.2500    -999.2500       3.3260       2.7071
   3738.3953       5.9998       0.0237      45.1570    -999.2500    -999.2500    -999.2500    -999.2500    -999.2500       3.2845       2.6664
   3738.5476       6.0177       0.0299      45.1570    -999.2500    -999.2500    -999.2500    -999.2500    -999.2500       3.2838       2.6363
   3738.7000       6.0212       0.0382      45.1570    -999.2500    -999.2500    -999.2500    -999.2500    -999.2500       3.3142       2.6178
   3738.8525       6.0333       0.0326      45.1570    -999.2500    -999.2500    -999.2500    -999.2500    -999.2500       3.3249       2.6061
   3739.0049       6.0286       0.0194      45.1570    -999.2500    -999.2500    -999.2500    -999.2500    -999.2500       3.3160       2.6000
   3739.1572       5.9925       0.0171    -999.2500    -999.2500    -999.2500    -999.2500    -999.2500    -999.2500       3.2992       2.6326
   3739.3096       5.9683       0.0221    -999.2500    -999.2500    -999.2500    -999.2500    -999.2500    -999.2500       3.2876       2.6860
   3739.4622       5.9526       0.0269    -999.2500    -999.2500    -999.2500    -999.2500    -999.2500    -999.2500       3.2993       2.7062
   3739.6145       5.9549       0.0319    -999.2500    -999.2500    -999.2500    -999.2500    -999.2500    -999.2500    -999.2500       2.7145
   3739.7668       5.9764    -999.2500    -999.2500    -999.2500    -999.2500    -999.2500    -999.2500    -999.2500    -999.2500    -999.2500
