#------------------------------------------------------------------------------
#
#   Created by  : [OpenWorks] Log Export Utility (LEXP)
#   Created on  : 2016-05-23 11:55:49
#   Project     : CANT971
#   User        : R5K
#   Interpreter : PEP
#
#------------------------------------------------------------------------------
~VERSION INFORMATION
VERS. 2.0 : CWLS Log ASCII Standard - version 2.0
WRAP.  NO : One line per depth step
~WELL INFORMATION
#MNEMONIC   .UNIT                                           VALUE :DESCRIPTION
#------------------------------------------------------------------------------
STRT        .M                                           773.4315 :START DEPTH
STOP        .M                                          2865.1216 :STOP DEPTH
STEP        .M                                             0.1524 :STEP
NULL        .                                           -999.2500 :NULL VALUE
COMP        .                                             UNKNOWN :COMPANY
WELL        .                                                408D :WELL
FLD         .                                             UNKNOWN :FIELD
LOC         .                                             UNKNOWN :LOCATION
CNTY        .                                             UNKNOWN :COUNTY
STAT        .                                             UNKNOWN :STATE
CTRY        .                                             UNKNOWN :COUNTRY
SRVC        .                                             UNKNOWN :SERVICE COMPANY
DATE        .                                             UNKNOWN :LOG DATE
UWI         .                                                408D :UNIQUE WELL ID
XCOORD      .                                       597130.770000 :SURFACE X
YCOORD      .                                      2144867.260000 :SURFACE Y
LAT         .                                           19.396814 :LATITUDE
LON         .                                          -92.074972 :LONGITUDE
ELEV        .M                                             0.0000 :SURFACE ELEV
ELEV_TYPE   .                                                  KB :ELEV TYPE
~CURVE INFORMATION
#MNEMONIC.UNIT        API CODE       : CURVE DESCRIPTION
#------------------------------------------------------------------------------
DEPTH    .M                          : Measured Depth
CALI     .inches      UNKNOWN        : CALI:litodensidad:rC:NONE:v0 (auto-composite)
CGR      .API         UNKNOWN        : CGR:PETROWORKS:rC:NONE:v1 
DRHO     .g/cm3       UNKNOWN        : DRHO:litodensidad:rC:NONE:v0 (auto-composite)
DT       .us/ft       UNKNOWN        : DT:PETROWORKS:rC:NONE:v1 
GR       .API         UNKNOWN        : GR:PETROWORKS:rC:NONE:v3 
GR-LWD   .UNKNOWN     UNKNOWN        : GR-LWD:resistivos-LWD:rC:NONE:v0 (auto-composite)
LLD      .ohm.m       UNKNOWN        : LLD:PETROWORKS:rC:NONE:v1 
LLD-LWD  .UNKNOWN     UNKNOWN        : LLD-LWD:resistivos-LWD:rC:NONE:v0 (auto-composite)
LLS      .UNKNOWN     UNKNOWN        : LLS:PETROWORKS:rC:NONE:v1 
LLS-LWD  .UNKNOWN     UNKNOWN        : LLS-LWD:resistivos-LWD:rC:NONE:v0 (auto-composite)
MSFL     .UNKNOWN     UNKNOWN        : MSFL:PETROWORKS:rC:NONE:v1 
MSFL-LWD .UNKNOWN     UNKNOWN        : MSFL-LWD:resistivos-LWD:rC:NONE:v0 (auto-composite)
NPHI     .v/v_decimal UNKNOWN        : NPHI:PETROWORKS:rC:NONE:v3 
PEF      .UNKNOWN     UNKNOWN        : PEF:litodensidad:rC:NONE:v0 (auto-composite)
POTA     .wtpercent   UNKNOWN        : POTA:PETROWORKS:rC:NONE:v1 
RHOB     .g/cm3       UNKNOWN        : RHOB:litodensidad:rC:NONE:v0 (auto-composite)
THOR     .ppm         UNKNOWN        : THOR:PETROWORKS:rC:NONE:v1 
URAN     .ppm         UNKNOWN        : URAN:PETROWORKS:rC:NONE:v1 
~A     DEPTH         CALI          CGR         DRHO           DT           GR       GR-LWD          LLD      LLD-LWD          LLS      LLS-LWD         MSFL     MSFL-LWD         NPHI          PEF         POTA         RHOB         THOR         URAN
# ...
   1859.7388    -999.2500    -999.2500    -999.2500      91.3070      40.5463      40.5840       5.3765       5.3650      10.3472      10.3510       8.5095       8.5020    -999.2500    -999.2500    -999.2500    -999.2500    -999.2500    -999.2500
   1859.8911    -999.2500    -999.2500    -999.2500      86.0762      37.0216      37.0800       6.2082       6.2030       9.6346       9.6430       9.0732       9.0690    -999.2500    -999.2500    -999.2500    -999.2500    -999.2500    -999.2500
   1860.0436    -999.2500    -999.2500    -999.2500      85.5070      33.2718      33.3020       6.0443       6.0500       8.2916       8.3080       8.5764       8.5890    -999.2500    -999.2500    -999.2500    -999.2500    -999.2500    -999.2500
   1860.1959    -999.2500    -999.2500    -999.2500      96.6368      29.9132      29.8150       5.0912       5.1030       6.2367       6.2590       6.6459       6.6690    -999.2500    -999.2500    -999.2500    -999.2500    -999.2500    -999.2500
   1860.3483    -999.2500    -999.2500    -999.2500      96.6028      28.1795      28.0700       3.5849       3.5990       4.1331       4.1510       4.3125       4.3320    -999.2500    -999.2500    -999.2500    -999.2500    -999.2500    -999.2500
   1860.5007    -999.2500    -999.2500    -999.2500      98.4724      30.4756      30.0310       2.4425       2.4480       2.6350       2.6420       2.7050       2.7120    -999.2500    -999.2500    -999.2500    -999.2500    -999.2500    -999.2500
   1860.6531    -999.2500    -999.2500    -999.2500     101.1618      36.3141      36.2650       1.9918       1.9940       1.9051       1.9100       1.9183       1.9230    -999.2500    -999.2500    -999.2500    -999.2500    -999.2500    -999.2500
   1860.8055    -999.2500    -999.2500    -999.2500     106.1272      42.6997      42.7750       1.7025       1.7070       1.5284       1.5320       1.5662       1.5690    -999.2500    -999.2500    -999.2500    -999.2500    -999.2500    -999.2500
   1860.9579    -999.2500    -999.2500    -999.2500     151.1521      48.0256      47.9970       1.2833       1.2870       1.2233       1.2260       1.3397       1.3420    -999.2500    -999.2500    -999.2500    -999.2500    -999.2500    -999.2500
   1861.1104    -999.2500    -999.2500    -999.2500     153.5737      52.6579      52.7130       0.9946       0.9950       1.0389       1.0390       1.2192       1.2190    -999.2500    -999.2500    -999.2500    -999.2500    -999.2500    -999.2500
   1861.2627    -999.2500    -999.2500    -999.2500     156.6558      55.6147      55.6680       0.9836       0.9830       1.0294       1.0290       1.2423       1.2420    -999.2500    -999.2500    -999.2500    -999.2500    -999.2500    -999.2500
   1861.4152    -999.2500    -999.2500    -999.2500     148.7126      56.8246      56.7510       1.1599       1.1580       1.1526       1.1510       1.3661       1.3650    -999.2500    -999.2500    -999.2500    -999.2500    -999.2500    -999.2500
   1861.5675    -999.2500    -999.2500    -999.2500     147.6143      58.7280      58.7310       1.2828       1.2820       1.2848       1.2840       1.4847       1.4840    -999.2500    -999.2500    -999.2500    -999.2500    -999.2500    -999.2500
   1861.7200    -999.2500    -999.2500    -999.2500     148.8818      60.5766      60.7080       1.2570       1.2580       1.3510       1.3510       1.5395       1.5400    -999.2500    -999.2500    -999.2500    -999.2500    -999.2500    -999.2500
   1861.8723    -999.2500    -999.2500    -999.2500     119.9229      59.7924      59.7900       1.1381       1.1390       1.3170       1.3180       1.4977       1.4990    -999.2500    -999.2500    -999.2500    -999.2500    -999.2500    -999.2500
   1862.0247    -999.2500    -999.2500    -999.2500     121.1761      58.5376      58.5000       0.9802       0.9820       1.1690       1.1710       1.3497       1.3510    -999.2500    -999.2500    -999.2500    -999.2500    -999.2500    -999.2500
   1862.1771    -999.2500    -999.2500    -999.2500     120.7072      58.7526      58.7190       0.8951       0.8950       1.0765       1.0770       1.2648       1.2650    -999.2500    -999.2500    -999.2500    -999.2500    -999.2500    -999.2500
   1862.3295    -999.2500    -999.2500    -999.2500     113.3057      59.5932      59.5830       0.9093       0.9090       1.1034       1.1040       1.3016       1.3020    -999.2500    -999.2500    -999.2500    -999.2500    -999.2500    -999.2500
   1862.4819    -999.2500    -999.2500    -999.2500     111.7218      60.0134      60.1760       0.8952       0.8950       1.0363       1.0370       1.2363       1.2370    -999.2500    -999.2500    -999.2500    -999.2500    -999.2500    -999.2500
   1862.6343    -999.2500    -999.2500    -999.2500     112.4887      58.6823      58.7100       0.9433       0.9420       1.0204       1.0200       1.2365       1.2360    -999.2500    -999.2500    -999.2500    -999.2500    -999.2500    -999.2500
   1862.7867    -999.2500    -999.2500    -999.2500      93.1856      56.0243      55.9060       1.1080       1.1060       1.1208       1.1200       1.3772       1.3750    -999.2500    -999.2500    -999.2500    -999.2500    -999.2500    -999.2500
   1862.9391    -999.2500    -999.2500    -999.2500      85.6052      54.6539      54.6420       1.2887       1.2870       1.3197       1.3180       1.5843       1.5820    -999.2500    -999.2500    -999.2500    -999.2500    -999.2500    -999.2500
   1863.0916    -999.2500    -999.2500    -999.2500      89.7371      55.1585      55.1080       1.3908       1.3900       1.4943       1.4930       1.7474       1.7460    -999.2500    -999.2500    -999.2500    -999.2500    -999.2500    -999.2500
   1863.2439    -999.2500    -999.2500    -999.2500      62.2984      56.0068      56.0540       1.4252       1.4250       1.5494       1.5490       1.7784       1.7790    -999.2500    -999.2500    -999.2500    -999.2500    -999.2500    -999.2500
   1863.3964    -999.2500    -999.2500    -999.2500      60.8153      54.8600      55.3690       1.4735       1.4730       1.5478       1.5480       1.7483       1.7490    -999.2500    -999.2500    -999.2500    -999.2500    -999.2500    -999.2500
   1863.5487    -999.2500    -999.2500    -999.2500      53.7032      48.9616      49.0850       1.7216       1.7180       1.5964       1.5950       1.8529       1.8500    -999.2500    -999.2500    -999.2500    -999.2500    -999.2500    -999.2500
   1863.7012    -999.2500    -999.2500    -999.2500      73.7150      39.4321      39.2920       2.2975       2.2960       1.9150       1.9140       2.3725       2.3710    -999.2500    -999.2500    -999.2500    -999.2500    -999.2500    -999.2500
   1863.8535    -999.2500    -999.2500    -999.2500      73.0144      32.1393      32.0020       3.1884       3.1800       2.9248       2.9120       3.6827       3.6680    -999.2500    -999.2500    -999.2500    -999.2500    -999.2500    -999.2500
   1864.0059    -999.2500    -999.2500    -999.2500      84.9302      30.2573      29.8770       4.0129       4.0070       4.3534       4.3420       5.2244       5.2130    -999.2500    -999.2500    -999.2500    -999.2500    -999.2500    -999.2500
   1864.1583    -999.2500    -999.2500    -999.2500      91.6046      33.3201      33.2210       4.4971       4.4940       5.2692       5.2650       6.0671       6.0640    -999.2500    -999.2500    -999.2500    -999.2500    -999.2500    -999.2500
   1864.3107    -999.2500    -999.2500    -999.2500     103.7280      39.4269      39.2160       4.4194       4.4270       5.2048       5.2130       5.7650       5.7760    -999.2500    -999.2500    -999.2500    -999.2500    -999.2500    -999.2500
   1864.4631    -999.2500    -999.2500    -999.2500     108.0390      46.8644      46.8180       3.5190       3.5300       4.2408       4.2520       4.4718       4.4860    -999.2500    -999.2500    -999.2500    -999.2500    -999.2500    -999.2500
   1864.6155    -999.2500    -999.2500    -999.2500     104.9453      53.7626      53.8780       2.3920       2.4010       2.8296       2.8430       2.8896       2.9030    -999.2500    -999.2500    -999.2500    -999.2500    -999.2500    -999.2500
