#------------------------------------------------------------------------------
#
#   Created by  : [OpenWorks] Log Export Utility (LEXP)
#   Created on  : 2016-05-23 11:57:10
#   Project     : CANT971
#   User        : R5K
#   Interpreter : PEP
#
#------------------------------------------------------------------------------
~VERSION INFORMATION
VERS. 2.0 : CWLS Log ASCII Standard - version 2.0
WRAP.  NO : One line per depth step
~WELL INFORMATION
#MNEMONIC   .UNIT                                           VALUE :DESCRIPTION
#------------------------------------------------------------------------------
STRT        .M                                           345.0980 :START DEPTH
STOP        .M                                          2040.8528 :STOP DEPTH
STEP        .M                                             0.1524 :STEP
NULL        .                                           -999.2500 :NULL VALUE
COMP        .                                   PEMEX EXPL & PROD :COMPANY
WELL        .                                                  71 :WELL
FLD         .                                           CANTARELL :FIELD
LOC         .                                             UNKNOWN :LOCATION
CNTY        .                                      CD. DEL CARMEN :COUNTY
STAT        .                                            CAMPECHE :STATE
CTRY        .                                              MEXICO :COUNTRY
SRVC        .                                             UNKNOWN :SERVICE COMPANY
DATE        .                                             UNKNOWN :LOG DATE
UWI         .                                          3060000175 :UNIQUE WELL ID
XCOORD      .                                       599724.470000 :SURFACE X
YCOORD      .                                      2147216.900000 :SURFACE Y
LAT         .                                           19.417919 :LATITUDE
LON         .                                          -92.050150 :LONGITUDE
ELEV        .M                                            27.8000 :SURFACE ELEV
ELEV_TYPE   .                                                  KB :ELEV TYPE
~CURVE INFORMATION
#MNEMONIC.UNIT        API CODE       : CURVE DESCRIPTION
#------------------------------------------------------------------------------
DEPTH    .M                          : Measured Depth
DT       .us/ft       UNKNOWN        : DT:DT:rC:NONE:v0 (auto-composite)
GR       .UNKNOWN     UNKNOWN        : GR:GR-Load:rC:NONE:v0 (auto-composite)
ILD      .UNKNOWN     UNKNOWN        : ILD:ILD-Load:rC:NONE:v0 (auto-composite)
NPHI     .v/v_decimal UNKNOWN        : NPHI:NPHI:rC:NONE:v0 (auto-composite)
RG       .UNKNOWN     UNKNOWN        : RG:RG-Loader:rC:NONE:v0 (auto-composite)
RHOB     .UNKNOWN     UNKNOWN        : RHOB:RHOB-Load:rC:NONE:v0 (auto-composite)
~A     DEPTH           DT           GR          ILD         NPHI           RG         RHOB
# ...
   1645.9844    -999.2500      33.1098      19.6756       7.3211    -999.2500    -999.2500
   1646.1368    -999.2500      31.9948      19.6771       7.2546    -999.2500    -999.2500
   1646.2892    -999.2500      30.7656      19.6479       6.7879    -999.2500    -999.2500
   1646.4417    -999.2500      29.3792      19.5764       5.7684    -999.2500    -999.2500
   1646.5940    -999.2500      28.1721      19.5350       5.1804    -999.2500    -999.2500
   1646.7465    -999.2500      27.2122      19.5350       5.1884    -999.2500    -999.2500
   1646.8988    -999.2500      27.8851      19.5354       5.2165    -999.2500    -999.2500
   1647.0513    -999.2500      30.8070      19.5364       5.2725    -999.2500    -999.2500
   1647.2036    -999.2500      32.4205      19.5374       5.3571    -999.2500    -999.2500
   1647.3561    -999.2500      32.2315      19.5384       5.4810    -999.2500    -999.2500
   1647.5084    -999.2500      31.5863      19.5392       5.6839    -999.2500    -999.2500
   1647.6608    -999.2500      30.3123      19.5397       5.9959    -999.2500    -999.2500
   1647.8132    -999.2500      28.8859      19.5404       6.2563    -999.2500    -999.2500
   1647.9656    -999.2500      27.2493      19.5414       6.4454    -999.2500    -999.2500
   1648.1180    -999.2500      25.9619      19.5422       6.5827    -999.2500    -999.2500
   1648.2704    -999.2500      25.1544      19.5427       6.6487    -999.2500    -999.2500
   1648.4229    -999.2500      25.1839      19.5434       6.7452    -999.2500    -999.2500
   1648.5752    -999.2500      26.3639      19.5444       6.8837    -999.2500    -999.2500
   1648.7277    -999.2500      26.8857      19.5452       6.9426    -999.2500    -999.2500
   1648.8800    -999.2500      26.5028      19.5457       6.8916    -999.2500    -999.2500
   1649.0325    -999.2500      28.2940      19.5464       6.7580    -999.2500    -999.2500
   1649.1848    -999.2500      33.0753      19.5474       6.5105    -999.2500    -999.2500
   1649.3373    -999.2500      35.8293      19.5484       6.5420    -999.2500    -999.2500
   1649.4896    -999.2500      35.7943      19.5494       6.9585    -999.2500    -999.2500
   1649.6420    -999.2500      35.6951      19.5502       7.1899    -999.2500    -999.2500
   1649.7944    -999.2500      35.5076      19.5507       7.1659    -999.2500    -999.2500
   1649.9468    -999.2500      35.2690      19.5518       6.8093    -999.2500    -999.2500
   1650.0992    -999.2500      34.9600      19.5538       5.9933    -999.2500    -999.2500
   1650.2516    -999.2500      34.2538      19.5636       5.5433    -999.2500    -999.2500
   1650.4041    -999.2500      33.0009      19.5841       5.5988    -999.2500    -999.2500
   1650.5564    -999.2500      30.7776      19.6320       5.7444    -999.2500    -999.2500
   1650.7089    -999.2500      27.2182      19.7175       6.0144    -999.2500    -999.2500
   1650.8612    -999.2500      30.5779      19.8058       6.3354    -999.2500    -999.2500
   1651.0137    -999.2500      43.4680      19.8978       6.7268    -999.2500    -999.2500
   1651.1660    -999.2500      50.8426      19.9936       6.9431    -999.2500    -999.2500
   1651.3185    -999.2500      50.6181      20.0946       6.9171    -999.2500    -999.2500
   1651.4708    -999.2500      45.8240      20.1661       6.6082    -999.2500    -999.2500
   1651.6232    -999.2500      34.7324      20.1971       5.9082    -999.2500    -999.2500
   1651.7756    -999.2500      28.3608      20.2321       5.5201    -999.2500    -999.2500
   1651.9280    -999.2500      28.4743      20.2726       5.5631    -999.2500    -999.2500
   1652.0804    -999.2500      29.0218      20.2964       5.6908    -999.2500    -999.2500
   1652.2328    -999.2500      30.1658      20.2974       5.9353    -999.2500    -999.2500
   1652.3853    -999.2500      30.6139      20.2982       6.1888    -999.2500    -999.2500
   1652.5376    -999.2500      30.1054      20.2987       6.4548    -999.2500    -999.2500
   1652.6901    -999.2500      28.0384      20.2994       6.5775    -999.2500    -999.2500
   1652.8424    -999.2500      23.8286      20.3004       6.5025    -999.2500    -999.2500
   1652.9949    -999.2500      21.3910      20.3014       6.2651    -999.2500    -999.2500
   1653.1472    -999.2500      21.3910      20.3024       5.8036    -999.2500    -999.2500
   1653.2997    -999.2500      21.6896      20.3032       5.5616    -999.2500    -999.2500
   1653.4520    -999.2500      22.3991      20.3037       5.6226    -999.2500    -999.2500
   1653.6044    -999.2500      24.3657      20.3044       5.7693    -999.2500    -999.2500
   1653.7568    -999.2500      28.0620      20.3054       6.0343    -999.2500    -999.2500
   1653.9092    -999.2500      30.1599      20.3066       6.2502    -999.2500    -999.2500
   1654.0616    -999.2500      30.0574      20.3081       6.3982    -999.2500    -999.2500
   1654.2140    -999.2500      29.7891      20.3029       6.3599    -999.2500    -999.2500
   1654.3665    -999.2500      29.2926      20.2884       6.0644    -999.2500    -999.2500
   1654.5188    -999.2500      28.1593      20.2524       6.0845    -999.2500    -999.2500
   1654.6713    -999.2500      26.1488      20.1869       6.5404    -999.2500    -999.2500
   1654.8236    -999.2500      25.1384      20.1265       6.7968    -999.2500    -999.2500
   1654.9761    -999.2500      25.5053      20.0730       6.7773    -999.2500    -999.2500
   1655.1284    -999.2500      26.4434      19.9754       6.6103    -999.2500    -999.2500
   1655.2808    -999.2500      28.1684      19.8174       6.2393    -999.2500    -999.2500
   1655.4332    -999.2500      29.8227      19.7264       6.0620    -999.2500    -999.2500
   1655.5856    -999.2500      31.3798      19.7274       6.1525    -999.2500    -999.2500
   1655.7380    -999.2500      32.2719      19.7225       6.4383    -999.2500    -999.2500
   1655.8904    -999.2500      32.2504      19.7095       6.9933    -999.2500    -999.2500
   1656.0428    -999.2500      31.6747      19.6776       7.2931    -999.2500    -999.2500
   1656.1952    -999.2500      30.3373      19.6196       7.2411    -999.2500    -999.2500
   1656.3477    -999.2500      29.5636      19.5862       7.0513    -999.2500    -999.2500
   1656.5000    -999.2500      29.5651      19.5867       6.6713    -999.2500    -999.2500
   1656.6525    -999.2500      29.5685      19.5872       6.4663    -999.2500    -999.2500
   1656.8048    -999.2500      29.5745      19.5877       6.5028    -999.2500    -999.2500
   1656.9573    -999.2500      29.7369      19.5884       6.9089    -999.2500    -999.2500
   1657.1096    -999.2500      30.1144      19.5894       7.8248    -999.2500    -999.2500
   1657.2620    -999.2500      31.0843      19.5902       8.3358    -999.2500    -999.2500
   1657.4144    -999.2500      32.8692      19.5907       8.2878    -999.2500    -999.2500
   1657.5668    -999.2500      35.3174      19.5914       8.1594    -999.2500    -999.2500
   1657.7192    -999.2500      38.6783      19.5924       7.9199    -999.2500    -999.2500
   1657.8716    -999.2500      40.5385      19.5934       7.6798    -999.2500    -999.2500
   1658.0240    -999.2500      40.3330      19.5944       7.4388    -999.2500    -999.2500
   1658.1764    -999.2500      39.6240      19.5952       7.2291    -999.2500    -999.2500
   1658.3289    -999.2500      38.2215      19.5957       7.0626    -999.2500    -999.2500
   1658.4812    -999.2500      35.4925      19.5964       6.9440    -999.2500    -999.2500
   1658.6337    -999.2500      30.9367      19.5974       6.8915    -999.2500    -999.2500
   1658.7860    -999.2500      28.3700      19.5982       6.7594    -999.2500    -999.2500
   1658.9385    -999.2500      28.5435      19.5987       6.5174    -999.2500    -999.2500
   1659.0908    -999.2500      29.4474      19.5996       6.1012    -999.2500    -999.2500
   1659.2432    -999.2500      31.3578      19.6011       5.4443    -999.2500    -999.2500
