#------------------------------------------------------------------------------
#
#   Created by  : [OpenWorks] Log Export Utility (LEXP)
#   Created on  : 2016-05-23 11:57:04
#   Project     : CANT971
#   User        : R5K
#   Interpreter : PEP
#
#------------------------------------------------------------------------------
~VERSION INFORMATION
VERS. 2.0 : CWLS Log ASCII Standard - version 2.0
WRAP.  NO : One line per depth step
~WELL INFORMATION
#MNEMONIC   .UNIT                                           VALUE :DESCRIPTION
#------------------------------------------------------------------------------
STRT        .M                                           125.9451 :START DEPTH
STOP        .M                                          3005.5432 :STOP DEPTH
STEP        .M                                             0.1524 :STEP
NULL        .                                           -999.2500 :NULL VALUE
COMP        .                                   PEMEX EXPL & PROD :COMPANY
WELL        .                                                 66A :WELL
FLD         .                                           CANTARELL :FIELD
LOC         .                                             UNKNOWN :LOCATION
CNTY        .                                      CD. DEL CARMEN :COUNTY
STAT        .                                            CAMPECHE :STATE
CTRY        .                                              MEXICO :COUNTRY
SRVC        .                                             UNKNOWN :SERVICE COMPANY
DATE        .                                             UNKNOWN :LOG DATE
UWI         .                                          3060000173 :UNIQUE WELL ID
XCOORD      .                                       599692.990000 :SURFACE X
YCOORD      .                                      2143036.380000 :SURFACE Y
LAT         .                                           19.380143 :LATITUDE
LON         .                                          -92.050669 :LONGITUDE
ELEV        .M                                            26.7400 :SURFACE ELEV
ELEV_TYPE   .                                                  KB :ELEV TYPE
~CURVE INFORMATION
#MNEMONIC.UNIT        API CODE       : CURVE DESCRIPTION
#------------------------------------------------------------------------------
DEPTH    .M                          : Measured Depth
CALI     .UNKNOWN     UNKNOWN        : CALI:UNKNOWN:rC:NONE:v0 (auto-composite)
DT       .us/ft       UNKNOWN        : DT:DT:rC:NONE:v0 (auto-composite)
GR       .API         UNKNOWN        : GR:UNKNOWN:rC:NONE:v0 (auto-composite)
GR-ENT   .API         UNKNOWN        : GR-ENT:porosidad-entubado:rC:NONE:v0 (auto-composite)
GR-LWD   .UNKNOWN     UNKNOWN        : GR-LWD:GR-LWD:rC:NONE:v0 (auto-composite)
ILD      .UNKNOWN     UNKNOWN        : ILD:UNKNOWN:rC:NONE:v0 (auto-composite)
LLD      .UNKNOWN     UNKNOWN        : LLD:UNKNOWN:rC:NONE:v0 (auto-composite)
LLD-LWD  .UNKNOWN     UNKNOWN        : LLD-LWD:LLD-LWD:rC:NONE:v0 (auto-composite)
LLS      .UNKNOWN     UNKNOWN        : LLS:UNKNOWN:rC:NONE:v0 (auto-composite)
LLS-LWD  .UNKNOWN     UNKNOWN        : LLS-LWD:LLS-LWD:rC:NONE:v0 (auto-composite)
MSFL     .UNKNOWN     UNKNOWN        : MSFL:UNKNOWN:rC:NONE:v0 (auto-composite)
MSFL-LWD .UNKNOWN     UNKNOWN        : MSFL-LWD:MSFL-LWD:rC:NONE:v0 (auto-composite)
NPHI     .v/v_decimal UNKNOWN        : NPHI:PETROWORKS:rC:NONE:v1 
NPHI-ENT .UNKNOWN     UNKNOWN        : NPHI-ENT:porosidad-entubado:rC:NONE:v0 (auto-composite)
RHOB     .g/cm3       UNKNOWN        : RHOB:UNKNOWN:rC:NONE:v0 (auto-composite)
~A     DEPTH         CALI           DT           GR       GR-ENT       GR-LWD          ILD          LLD      LLD-LWD          LLS      LLS-LWD         MSFL     MSFL-LWD         NPHI     NPHI-ENT         RHOB
# ...
   2675.7495    -999.2500      52.3022      43.2793    -999.2500      56.5028    -999.2500      55.1700       6.3375      44.6176       6.1046    -999.2500       5.2618       0.0636    -999.2500    -999.2500
   2675.9019    -999.2500      52.7241      44.0002    -999.2500      56.4800    -999.2500      47.1988       9.1100      38.8421       9.2800    -999.2500       8.9800       0.0680    -999.2500    -999.2500
   2676.0542    -999.2500      52.9082      43.3260    -999.2500      61.6865    -999.2500      44.5455      11.0401      37.1264      13.5382    -999.2500      13.3890       0.0711    -999.2500    -999.2500
   2676.2068    -999.2500      53.0873      43.4542    -999.2500      70.8785    -999.2500      43.5536      13.6823      36.8140      17.7920    -999.2500      17.9622       0.0747    -999.2500    -999.2500
   2676.3591    -999.2500      53.2594      44.7318    -999.2500      66.1331    -999.2500      44.9414      16.3652      38.5117      20.6838    -999.2500      20.6561       0.0788    -999.2500    -999.2500
   2676.5115    -999.2500      53.5479      44.8464    -999.2500      57.4269    -999.2500      47.4570      17.9678      41.6359      21.7714    -999.2500      20.9609       0.0839    -999.2500    -999.2500
   2676.6638    -999.2500      54.0007      43.3331    -999.2500      56.1540    -999.2500      51.5512      17.5768      46.7572      20.8345    -999.2500      19.8393       0.0903    -999.2500    -999.2500
   2676.8164    -999.2500      54.4442      40.5145    -999.2500      61.1719    -999.2500      53.6934      18.8861      49.4149      20.2768    -999.2500      20.0132       0.0938    -999.2500    -999.2500
   2676.9688    -999.2500      54.8743      35.8623    -999.2500      45.8718    -999.2500      53.0931      19.1200      48.6114      20.2100    -999.2500      20.0800       0.0933    -999.2500    -999.2500
   2677.1211    -999.2500      55.5793      34.0306    -999.2500      42.3852    -999.2500      47.6965      19.5986      43.4671      20.8984    -999.2500      20.7165       0.0925    -999.2500    -999.2500
   2677.2734    -999.2500      56.6719      36.2022    -999.2500      47.5358    -999.2500      35.4922      20.3584      32.1620      22.2641    -999.2500      21.6769       0.0915    -999.2500    -999.2500
   2677.4258    -999.2500      57.8613      40.1486    -999.2500      52.7384    -999.2500      25.1164      19.7414      22.7535      22.1636    -999.2500      20.7483       0.0938    -999.2500    -999.2500
   2677.5784    -999.2500      59.1878      46.6230    -999.2500      63.6841    -999.2500      17.3449      19.8640      16.0464      23.5730    -999.2500      21.1636       0.1012    -999.2500    -999.2500
   2677.7307    -999.2500      60.3055      52.0269    -999.2500      64.0217    -999.2500      11.8704      21.4703      11.3015      27.4993    -999.2500      25.6887       0.1095    -999.2500    -999.2500
   2677.8831    -999.2500      61.1286      55.9402    -999.2500      59.6445    -999.2500       9.5938      23.9843       9.2883      35.3690    -999.2500      34.9693       0.1184    -999.2500    -999.2500
   2678.0354    -999.2500      61.3981      57.3725    -999.2500      51.3758    -999.2500       8.5018      25.8370       8.4317      47.4215    -999.2500      45.6794       0.1224    -999.2500    -999.2500
   2678.1880    -999.2500      60.8840      55.3385    -999.2500      42.2011    -999.2500       9.0646      28.1682       9.1907      57.1476    -999.2500      56.8245       0.1189    -999.2500    -999.2500
   2678.3403    -999.2500      59.7347      52.6240    -999.2500      25.3266    -999.2500      10.9345      30.6072      11.3244      58.7899    -999.2500      62.5207       0.1132    -999.2500    -999.2500
   2678.4927    -999.2500      57.6891      48.9491    -999.2500      26.1348    -999.2500      14.6494      32.6557      15.3981      58.5846    -999.2500      62.4612       0.1052    -999.2500    -999.2500
   2678.6450    -999.2500      55.4354      43.0082    -999.2500      28.6313    -999.2500      26.9929      34.3452      27.7856      57.9198    -999.2500      57.0375       0.0924    -999.2500    -999.2500
   2678.7976    -999.2500      52.8869      33.8577    -999.2500      34.7490    -999.2500      51.5583      36.0602      51.9492      59.9958    -999.2500      62.4249       0.0737    -999.2500    -999.2500
   2678.9500    -999.2500      51.5170      28.4936    -999.2500      41.6226    -999.2500      82.3646      35.4745      78.5329      47.8124    -999.2500      45.8043       0.0637    -999.2500    -999.2500
   2679.1023    -999.2500      51.8114      28.5121    -999.2500      50.8549    -999.2500     122.0425      34.2163     108.5569      38.8099    -999.2500      34.5424       0.0642    -999.2500    -999.2500
   2679.2546    -999.2500      51.8623      29.2902    -999.2500      55.9247    -999.2500     135.4726      32.5189     116.6385      34.6607    -999.2500      31.5484       0.0634    -999.2500    -999.2500
   2679.4070    -999.2500      51.5682      31.1519    -999.2500      55.2129    -999.2500     111.4583      29.8225      93.4172      29.0983    -999.2500      26.9425       0.0598    -999.2500    -999.2500
   2679.5596    -999.2500      51.2179      32.6328    -999.2500      48.2029    -999.2500      98.4622      26.6235      81.5961      27.2661    -999.2500      25.9706       0.0579    -999.2500    -999.2500
   2679.7119    -999.2500      50.7883      33.5794    -999.2500      46.5238    -999.2500     100.9311      25.3644      85.7763      26.4833    -999.2500      24.3469       0.0583    -999.2500    -999.2500
   2679.8643    -999.2500      50.4756      33.2308    -999.2500      52.6633    -999.2500     116.9762      25.2049     102.1526      28.1300    -999.2500      26.3293       0.0581    -999.2500    -999.2500
   2680.0166    -999.2500      50.3276      31.0577    -999.2500      57.7200    -999.2500     152.1445      24.4334     135.7081      28.9817    -999.2500      29.4096       0.0571    -999.2500    -999.2500
   2680.1692    -999.2500      50.0934      30.2658    -999.2500      54.2730    -999.2500     155.9286      23.7301     139.3527      30.5677    -999.2500      31.3366       0.0579    -999.2500    -999.2500
   2680.3215    -999.2500      49.7373      31.4263    -999.2500      47.5921    -999.2500     115.3477      23.4284     100.7149      33.5306    -999.2500      34.1494       0.0614    -999.2500    -999.2500
   2680.4739    -999.2500      50.3536      33.5973    -999.2500      42.0894    -999.2500      79.2290      20.2038      67.9246      24.2141    -999.2500      23.6879       0.0675    -999.2500    -999.2500
   2680.6262    -999.2500      52.3402      37.2019    -999.2500      38.6281    -999.2500      49.4407      19.2083      43.4298      21.8631    -999.2500      21.7098       0.0759    -999.2500    -999.2500
   2680.7788    -999.2500      54.5324      40.5445    -999.2500      34.5655    -999.2500      28.4506      17.3105      26.1806      17.1023    -999.2500      17.3358       0.0861    -999.2500    -999.2500
   2680.9312    -999.2500      57.0153      43.5117    -999.2500      32.3031    -999.2500      20.0697      14.3789      19.3155      11.8558    -999.2500      12.0633       0.0976    -999.2500    -999.2500
   2681.0835    -999.2500      58.1022      45.9640    -999.2500      45.7408    -999.2500      15.9216      11.2870      16.2715       9.4657    -999.2500       8.9249       0.1019    -999.2500    -999.2500
   2681.2358    -999.2500      57.2206      47.6758    -999.2500      57.9164    -999.2500      17.8615       9.7284      18.7233       7.6864    -999.2500       7.0452       0.0981    -999.2500    -999.2500
   2681.3882    -999.2500      55.7604      47.6911    -999.2500      63.4006    -999.2500      22.3584       9.2559      24.0360       6.6943    -999.2500       6.3085       0.0906    -999.2500    -999.2500
   2681.5408    -999.2500      53.4816      45.3216    -999.2500      67.2265    -999.2500      30.4499       9.0636      33.3705       7.2604    -999.2500       6.4118       0.0791    -999.2500    -999.2500
