#------------------------------------------------------------------------------
#
#   Created by  : [OpenWorks] Log Export Utility (LEXP)
#   Created on  : 2016-05-23 11:56:46
#   Project     : CANT971
#   User        : R5K
#   Interpreter : PEP
#
#------------------------------------------------------------------------------
~VERSION INFORMATION
VERS. 2.0 : CWLS Log ASCII Standard - version 2.0
WRAP.  NO : One line per depth step
~WELL INFORMATION
#MNEMONIC   .UNIT                                           VALUE :DESCRIPTION
#------------------------------------------------------------------------------
STRT        .M                                           170.6880 :START DEPTH
STOP        .M                                          2221.8396 :STOP DEPTH
STEP        .M                                             0.1524 :STEP
NULL        .                                           -999.2500 :NULL VALUE
COMP        .                                   PEMEX EXPL & PROD :COMPANY
WELL        .                                                  51 :WELL
FLD         .                                           CANTARELL :FIELD
LOC         .                                             UNKNOWN :LOCATION
CNTY        .                                      CD. DEL CARMEN :COUNTY
STAT        .                                            CAMPECHE :STATE
CTRY        .                                              MEXICO :COUNTRY
SRVC        .                                             UNKNOWN :SERVICE COMPANY
DATE        .                                             UNKNOWN :LOG DATE
UWI         .                                          3060000165 :UNIQUE WELL ID
XCOORD      .                                       599727.990000 :SURFACE X
YCOORD      .                                      2147220.270000 :SURFACE Y
LAT         .                                           19.417949 :LATITUDE
LON         .                                          -92.050116 :LONGITUDE
ELEV        .M                                            27.8000 :SURFACE ELEV
ELEV_TYPE   .                                                  KB :ELEV TYPE
~CURVE INFORMATION
#MNEMONIC.UNIT        API CODE       : CURVE DESCRIPTION
#------------------------------------------------------------------------------
DEPTH    .M                          : Measured Depth
CAL      .inches      UNKNOWN        : CAL:CAL-Load:rC:NONE:v0 (auto-composite)
DRHO     .UNKNOWN     UNKNOWN        : DRHO:DRHO-Load:rC:NONE:v0 (auto-composite)
DT       .us/ft       UNKNOWN        : DT:DT:rC:NONE:v0 (auto-composite)
GR       .UNKNOWN     UNKNOWN        : GR:GR-Load:rC:NONE:v0 (auto-composite)
ILD      .UNKNOWN     UNKNOWN        : ILD:ILD-Load:rC:NONE:v0 (auto-composite)
NPHI     .v/v_decimal UNKNOWN        : NPHI:NPHI:rC:NONE:v0 (auto-composite)
RHOB     .UNKNOWN     UNKNOWN        : RHOB:RHOB-Load:rC:NONE:v0 (auto-composite)
SN       .UNKNOWN     UNKNOWN        : SN:SN-Load:rC:NONE:v0 (auto-composite)
~A     DEPTH          CAL         DRHO           DT           GR          ILD         NPHI         RHOB           SN
# ...
   1148.6388    -999.2500    -999.2500    -999.2500      30.0693       0.9045      32.2020    -999.2500       0.9385
   1148.7913    -999.2500    -999.2500    -999.2500      30.2970       0.9080      32.1500    -999.2500       0.9340
   1148.9436    -999.2500    -999.2500    -999.2500      30.3781       0.9000      31.9654    -999.2500       0.9260
   1149.0959    -999.2500    -999.2500    -999.2500      30.4590       0.8920      31.7810    -999.2500       0.9180
   1149.2484    -999.2500    -999.2500    -999.2500      30.0951       0.8930      31.4124    -999.2500       0.9240
   1149.4008    -999.2500    -999.2500    -999.2500      29.7320       0.8940      31.0440    -999.2500       0.9300
   1149.5532    -999.2500    -999.2500    -999.2500      29.1714       0.8990      30.7929    -999.2500       0.9430
   1149.7056    -999.2500    -999.2500    -999.2500      28.6120       0.9040      30.5420    -999.2500       0.9560
   1149.8580    -999.2500    -999.2500    -999.2500      28.1734       0.9135      30.6520    -999.2500       0.9695
   1150.0104    -999.2500    -999.2500    -999.2500      27.7360       0.9230      30.7620    -999.2500       0.9830
   1150.1628    -999.2500    -999.2500    -999.2500      27.2737       0.9355      30.9760    -999.2500       1.0025
   1150.3152    -999.2500    -999.2500    -999.2500      26.8130       0.9480      31.1900    -999.2500       1.0220
   1150.4677    -999.2500    -999.2500    -999.2500      26.4003       0.9645      31.5730    -999.2500       1.0405
   1150.6200    -999.2500    -999.2500    -999.2500      25.9890       0.9810      31.9560    -999.2500       1.0590
   1150.7725    -999.2500    -999.2500    -999.2500      25.6755       1.0100      31.7790    -999.2500       1.0730
   1150.9248    -999.2500    -999.2500    -999.2500      25.3630       1.0390      31.6020    -999.2500       1.0870
   1151.0771    -999.2500    -999.2500    -999.2500      25.1006       1.0630      31.1230    -999.2500       1.1065
   1151.2296    -999.2500    -999.2500    -999.2500      24.8390       1.0870      30.6440    -999.2500       1.1260
   1151.3820    -999.2500    -999.2500    -999.2500      24.8460       1.1135      30.0616    -999.2500       1.1486
   1151.5344    -999.2500    -999.2500    -999.2500      24.8530       1.1400      29.4790    -999.2500       1.1710
   1151.6868    -999.2500    -999.2500    -999.2500      24.7609       1.1610      28.9991    -999.2500       1.2261
   1151.8392    -999.2500    -999.2500    -999.2500      24.6690       1.1820      28.5190    -999.2500       1.2810
   1151.9916    -999.2500    -999.2500    -999.2500      24.6730       1.1910      27.8774    -999.2500       1.3917
   1152.1440    -999.2500    -999.2500    -999.2500      24.6770       1.2000      27.2360    -999.2500       1.5020
   1152.2964    -999.2500    -999.2500    -999.2500      25.2763       1.1900      27.5236    -999.2500       1.4845
   1152.4489    -999.2500    -999.2500    -999.2500      25.8740       1.1800      27.8110    -999.2500       1.4670
   1152.6012    -999.2500    -999.2500    -999.2500      26.8903       1.1570      28.7469    -999.2500       1.4194
   1152.7537    -999.2500    -999.2500    -999.2500      27.9040       1.1340      29.6820    -999.2500       1.3720
   1152.9060    -999.2500    -999.2500    -999.2500      28.8456       1.0754      30.3598    -999.2500       1.3319
   1153.0583    -999.2500    -999.2500    -999.2500      29.7850       1.0170      31.0370    -999.2500       1.2920
   1153.2108    -999.2500    -999.2500    -999.2500      30.5323       0.9709      31.2291    -999.2500       1.2709
   1153.3632    -999.2500    -999.2500    -999.2500      31.2780       0.9250      31.4210    -999.2500       1.2500
   1153.5156    -999.2500    -999.2500    -999.2500      31.7525       0.9045      31.3765    -999.2500       1.2575
   1153.6680    -999.2500    -999.2500    -999.2500      32.2260       0.8840      31.3320    -999.2500       1.2650
   1153.8204    -999.2500    -999.2500    -999.2500      32.4789       0.8715      31.0739    -999.2500       1.2775
   1153.9728    -999.2500    -999.2500    -999.2500      32.7310       0.8590      30.8160    -999.2500       1.2900
   1154.1252    -999.2500    -999.2500    -999.2500      32.7871       0.8745      30.4695    -999.2500       1.3216
   1154.2776    -999.2500    -999.2500    -999.2500      32.8430       0.8900      30.1230    -999.2500       1.3530
   1154.4301    -999.2500    -999.2500    -999.2500      32.8485       0.9541      30.2700    -999.2500       1.3961
   1154.5824    -999.2500    -999.2500    -999.2500      32.8540       1.0180      30.4170    -999.2500       1.4390
   1154.7349    -999.2500    -999.2500    -999.2500      33.1595       1.1111      30.3725    -999.2500       1.4255
   1154.8872    -999.2500    -999.2500    -999.2500      33.4640       1.2040      30.3280    -999.2500       1.4120
   1155.0396    -999.2500    -999.2500    -999.2500      33.2722       1.1584      29.8705    -999.2500       1.4366
   1155.1920    -999.2500    -999.2500    -999.2500      33.0810       1.1130      29.4130    -999.2500       1.4610
   1155.3444    -999.2500    -999.2500    -999.2500      33.0895       1.0174      28.7351    -999.2500       1.4269
   1155.4968    -999.2500    -999.2500    -999.2500      33.0980       0.9220      28.0570    -999.2500       1.3930
   1155.6492    -999.2500    -999.2500    -999.2500      32.6589       0.8804      28.4989    -999.2500       1.3554
   1155.8016    -999.2500    -999.2500    -999.2500      32.2210       0.8390      28.9410    -999.2500       1.3180
   1155.9540    -999.2500    -999.2500    -999.2500      31.6367       0.8195      31.0053    -999.2500       1.2960
   1156.1064    -999.2500    -999.2500    -999.2500      31.0540       0.8000      33.0690    -999.2500       1.2740
   1156.2588    -999.2500    -999.2500    -999.2500      30.0988       0.7699      32.9584    -999.2500       1.2339
   1156.4113    -999.2500    -999.2500    -999.2500      29.1460       0.7400      32.8480    -999.2500       1.1940
   1156.5636    -999.2500    -999.2500    -999.2500      27.1796       0.7215      32.2127    -999.2500       1.1649
   1156.7161    -999.2500    -999.2500    -999.2500      25.2180       0.7030      31.5780    -999.2500       1.1360
   1156.8684    -999.2500    -999.2500    -999.2500      18.0847       0.7205      30.8042    -999.2500       1.1455
   1157.0208    -999.2500    -999.2500    -999.2500      10.9680       0.7380      30.0310    -999.2500       1.1550
   1157.1732    -999.2500    -999.2500    -999.2500       5.1375       0.7911      29.3373    -999.2500       1.1891
   1157.3256    -999.2500    -999.2500    -999.2500      -0.6800       0.8440      28.6440    -999.2500       1.2230
   1157.4780    -999.2500    -999.2500    -999.2500      -0.6004       0.8430      28.7325    -999.2500       1.2225
   1157.6304    -999.2500    -999.2500    -999.2500      -0.5210       0.8420      28.8210    -999.2500       1.2220
   1157.7828    -999.2500    -999.2500    -999.2500      -0.4899       0.8295      28.7615    -999.2500       1.2090
   1157.9352    -999.2500    -999.2500    -999.2500      -0.4590       0.8170      28.7020    -999.2500       1.1960
   1158.0876    -999.2500    -999.2500    -999.2500      -0.4515       0.8000      28.7465    -999.2500       1.1719
   1158.2400    -999.2500    -999.2500    -999.2500      -0.4440       0.7830      28.7910    -999.2500       1.1480
   1158.3925    -999.2500    -999.2500    -999.2500      -0.4380       0.7890      28.9820    -999.2500       1.1290
   1158.5448    -999.2500    -999.2500    -999.2500      -0.4320       0.7950      29.1730    -999.2500       1.1100
   1158.6971    -999.2500    -999.2500    -999.2500      -0.4245       0.8135      28.8855    -999.2500       1.1100
   1158.8496    -999.2500    -999.2500    -999.2500      -0.4170       0.8320      28.5980    -999.2500       1.1100
   1159.0020    -999.2500    -999.2500    -999.2500      -0.4110       0.8440      27.9480    -999.2500       1.1055
