#------------------------------------------------------------------------------
#
#   Created by  : [OpenWorks] Log Export Utility (LEXP)
#   Created on  : 2016-05-23 11:56:24
#   Project     : CANT971
#   User        : R5K
#   Interpreter : PEP
#
#------------------------------------------------------------------------------
~VERSION INFORMATION
VERS. 2.0 : CWLS Log ASCII Standard - version 2.0
WRAP.  NO : One line per depth step
~WELL INFORMATION
#MNEMONIC   .UNIT                                           VALUE :DESCRIPTION
#------------------------------------------------------------------------------
STRT        .M                                           741.4294 :START DEPTH
STOP        .M                                          2768.5020 :STOP DEPTH
STEP        .M                                             0.1524 :STEP
NULL        .                                           -999.2500 :NULL VALUE
COMP        .                                             UNKNOWN :COMPANY
WELL        .                                                 470 :WELL
FLD         .                                             UNKNOWN :FIELD
LOC         .                                             UNKNOWN :LOCATION
CNTY        .                                             UNKNOWN :COUNTY
STAT        .                                             UNKNOWN :STATE
CTRY        .                                             UNKNOWN :COUNTRY
SRVC        .                                             UNKNOWN :SERVICE COMPANY
DATE        .                                             UNKNOWN :LOG DATE
UWI         .                                                 470 :UNIQUE WELL ID
XCOORD      .                                       598706.890000 :SURFACE X
YCOORD      .                                      2143306.000000 :SURFACE Y
LAT         .                                           19.382628 :LATITUDE
LON         .                                          -92.060044 :LONGITUDE
ELEV        .M                                             0.0000 :SURFACE ELEV
ELEV_TYPE   .                                                  NA :ELEV TYPE
~CURVE INFORMATION
#MNEMONIC.UNIT        API CODE       : CURVE DESCRIPTION
#------------------------------------------------------------------------------
DEPTH    .M                          : Measured Depth
CALI     .inches      UNKNOWN        : CALI:litodensidad:rC:NONE:v0 (auto-composite)
CGR      .API         UNKNOWN        : CGR:PETROWORKS:rC:NONE:v1 
DRHO     .g/cm3       UNKNOWN        : DRHO:litodensidad:rC:NONE:v0 (auto-composite)
DT       .us/ft       UNKNOWN        : DT:PETROWORKS:rC:NONE:v1 
GR       .API         UNKNOWN        : GR:PETROWORKS:rC:NONE:v8 
ILD      .ohm.m       UNKNOWN        : ILD:PETROWORKS:rC:NONE:v1 
ILM      .ohm.m       UNKNOWN        : ILM:PETROWORKS:rC:NONE:v1 
LLD      .ohm.m       UNKNOWN        : LLD:resistivos:rC:NONE:v0 (auto-composite)
LLS      .ohm.m       UNKNOWN        : LLS:resistivos:rC:NONE:v0 (auto-composite)
MSFL     .ohm.m       UNKNOWN        : MSFL:resistivos:rC:NONE:v0 (auto-composite)
NPHI     .v/v_decimal UNKNOWN        : NPHI:PETROWORKS:rC:NONE:v1 
PEF      .UNKNOWN     UNKNOWN        : PEF:litodensidad:rC:NONE:v0 (auto-composite)
POTA     .wtpercent   UNKNOWN        : POTA:PETROWORKS:rC:NONE:v1 
RHOB     .g/cm3       UNKNOWN        : RHOB:litodensidad:rC:NONE:v0 (auto-composite)
THOR     .ppm         UNKNOWN        : THOR:PETROWORKS:rC:NONE:v1 
URAN     .ppm         UNKNOWN        : URAN:PETROWORKS:rC:NONE:v1 
~A     DEPTH         CALI          CGR         DRHO           DT           GR          ILD          ILM          LLD          LLS         MSFL         NPHI          PEF         POTA         RHOB         THOR         URAN
# ...
   2156.7683    -999.2500      15.5404    -999.2500    -999.2500      22.6254     111.1031     521.3123    -999.2500    -999.2500    -999.2500       0.0575    -999.2500       0.0058    -999.2500       0.8164       1.0188
   2156.9207    -999.2500      16.4609    -999.2500    -999.2500      23.6683     133.4804     775.3447    -999.2500    -999.2500    -999.2500       0.0517    -999.2500       0.0058    -999.2500       1.0192       1.1005
   2157.0730    -999.2500      14.3694    -999.2500    -999.2500      24.2920     121.8216     919.8878    -999.2500    -999.2500    -999.2500       0.0483    -999.2500       0.0049    -999.2500       0.9632       0.9959
   2157.2253    -999.2500      12.4260    -999.2500    -999.2500      24.6600     109.2108     683.5485    -999.2500    -999.2500    -999.2500       0.0408    -999.2500       0.0050    -999.2500       0.5173       0.7534
   2157.3779    -999.2500      14.6517    -999.2500    -999.2500      24.0667     137.6103     770.6617    -999.2500    -999.2500    -999.2500       0.0435    -999.2500       0.0051    -999.2500       0.9058       0.9807
   2157.5303    -999.2500      12.3896    -999.2500    -999.2500      24.8769     268.4406     601.8016    -999.2500    -999.2500    -999.2500       0.0399    -999.2500       0.0043    -999.2500       0.7995       0.9099
   2157.6826    -999.2500      14.3685    -999.2500    -999.2500      24.1940     140.8570     440.0298    -999.2500    -999.2500    -999.2500       0.0422    -999.2500       0.0048    -999.2500       0.9944       1.0636
   2157.8350    -999.2500      11.1404    -999.2500    -999.2500      22.4961     109.7931     425.6499    -999.2500    -999.2500    -999.2500       0.0408    -999.2500       0.0039    -999.2500       0.6943       1.0080
   2157.9875    -999.2500      13.1986    -999.2500    -999.2500      23.0961     186.3682     744.3013    -999.2500    -999.2500    -999.2500       0.0405    -999.2500       0.0044    -999.2500       0.9136       1.1467
   2158.1399    -999.2500      12.8650    -999.2500    -999.2500      27.9921     143.5953     436.9558    -999.2500    -999.2500    -999.2500       0.0385    -999.2500       0.0042    -999.2500       0.9191       1.1010
   2158.2922    -999.2500      13.8603    -999.2500    -999.2500      29.1343     220.5636     444.3420    -999.2500    -999.2500    -999.2500       0.0365    -999.2500       0.0043    -999.2500       1.0822       1.0966
   2158.4446    -999.2500      12.9383    -999.2500    -999.2500      27.1269     207.3429     401.1800    -999.2500    -999.2500    -999.2500       0.0337    -999.2500       0.0043    -999.2500       0.8970       1.0527
   2158.5969    -999.2500      14.0508    -999.2500    -999.2500      26.8566     139.7609     398.2485    -999.2500    -999.2500    -999.2500       0.0338    -999.2500       0.0046    -999.2500       1.0225       1.1305
   2158.7495    -999.2500      12.2724    -999.2500    -999.2500      28.2706     156.1948     334.8579    -999.2500    -999.2500    -999.2500       0.0417    -999.2500       0.0040    -999.2500       0.8665       1.1110
   2158.9019    -999.2500      11.0431    -999.2500    -999.2500      26.0904     241.0609     384.1808    -999.2500    -999.2500    -999.2500       0.0557    -999.2500       0.0037    -999.2500       0.7720       1.0783
   2159.0542    -999.2500      12.3476    -999.2500    -999.2500      27.1839     238.4829     399.3617    -999.2500    -999.2500    -999.2500       0.0647    -999.2500       0.0041    -999.2500       0.8677       1.1157
   2159.2065    -999.2500      15.5268    -999.2500    -999.2500      27.7356     136.3998     357.3776    -999.2500    -999.2500    -999.2500       0.0628    -999.2500       0.0046    -999.2500       1.2950       1.4437
   2159.3591    -999.2500      14.2729    -999.2500    -999.2500      30.7356     130.2976     463.0906    -999.2500    -999.2500    -999.2500       0.0551    -999.2500       0.0041    -999.2500       1.2691       1.4152
   2159.5115    -999.2500      12.6220    -999.2500    -999.2500      27.6999     125.9527     407.8983    -999.2500    -999.2500    -999.2500       0.0518    -999.2500       0.0037    -999.2500       1.1013       1.3573
   2159.6638    -999.2500      13.0296    -999.2500    -999.2500      25.4572     110.0369     745.5970    -999.2500    -999.2500    -999.2500       0.0471    -999.2500       0.0039    -999.2500       1.0696       1.3874
   2159.8162    -999.2500      13.9224    -999.2500    -999.2500      26.3776     130.5398     386.5309    -999.2500    -999.2500    -999.2500       0.0429    -999.2500       0.0042    -999.2500       1.1640       1.4735
   2159.9688    -999.2500      11.1707    -999.2500    -999.2500      25.1806      94.2540     535.9309    -999.2500    -999.2500    -999.2500       0.0392    -999.2500       0.0033    -999.2500       0.9477       1.3350
   2160.1211    -999.2500      13.3727    -999.2500    -999.2500      24.2180     111.0688     943.7022    -999.2500    -999.2500    -999.2500       0.0366    -999.2500       0.0035    -999.2500       1.3206       1.4845
   2160.2734    -999.2500      12.9800    -999.2500    -999.2500      23.0576     136.2721     629.2126    -999.2500    -999.2500    -999.2500       0.0377    -999.2500       0.0035    -999.2500       1.2391       1.4216
   2160.4258    -999.2500      16.4759    -999.2500    -999.2500      24.2294     102.2969     858.9964    -999.2500    -999.2500    -999.2500       0.0399    -999.2500       0.0050    -999.2500       1.3513       1.5720
   2160.5781    -999.2500      11.0359    -999.2500    -999.2500      23.4884     107.8909     919.6319    -999.2500    -999.2500    -999.2500       0.0409    -999.2500       0.0036    -999.2500       0.8002       1.4111
   2160.7307    -999.2500      11.0834    -999.2500    -999.2500      22.0037      92.8770     838.3947    -999.2500    -999.2500    -999.2500       0.0379    -999.2500       0.0034    -999.2500       0.8683       1.4236
   2160.8831    -999.2500      11.9386    -999.2500    -999.2500      21.1861      99.0714     690.8162    -999.2500    -999.2500    -999.2500       0.0361    -999.2500       0.0036    -999.2500       0.9662       1.4669
   2161.0354    -999.2500      10.5901    -999.2500    -999.2500      22.1951     102.4275     817.2108    -999.2500    -999.2500    -999.2500       0.0328    -999.2500       0.0032    -999.2500       0.8517       1.3586
   2161.1877    -999.2500      10.7688    -999.2500    -999.2500      25.0435      86.2953    1022.4635    -999.2500    -999.2500    -999.2500       0.0319    -999.2500       0.0031    -999.2500       0.9335       1.3195
   2161.3403    -999.2500       9.9635    -999.2500    -999.2500      26.8851      91.6135     575.1111    -999.2500    -999.2500    -999.2500       0.0295    -999.2500       0.0030    -999.2500       0.8252       1.2380
   2161.4927    -999.2500      12.0482    -999.2500    -999.2500      27.5586     145.3862     946.1165    -999.2500    -999.2500    -999.2500       0.0296    -999.2500       0.0038    -999.2500       0.9071       1.2861
   2161.6450    -999.2500      10.6407    -999.2500    -999.2500      28.5404     106.5541     817.2084    -999.2500    -999.2500    -999.2500       0.0338    -999.2500       0.0033    -999.2500       0.8245       1.1884
   2161.7974    -999.2500      10.3592    -999.2500    -999.2500      27.7721      95.0701     350.5552    -999.2500    -999.2500    -999.2500       0.0405    -999.2500       0.0031    -999.2500       0.8647       1.1148
   2161.9500    -999.2500      10.8529    -999.2500    -999.2500      28.7761     178.4049     693.8857    -999.2500    -999.2500    -999.2500       0.0487    -999.2500       0.0033    -999.2500       0.8947       0.9959
   2162.1023    -999.2500      12.9024    -999.2500    -999.2500      30.1484      90.3697     340.4951    -999.2500    -999.2500    -999.2500       0.0516    -999.2500       0.0038    -999.2500       1.1121       0.9781
   2162.2546    -999.2500      15.1972    -999.2500    -999.2500      28.2669     103.3007     393.9072    -999.2500    -999.2500    -999.2500       0.0458    -999.2500       0.0048    -999.2500       1.1419       1.0813
