#------------------------------------------------------------------------------
#
#   Created by  : [OpenWorks] Log Export Utility (LEXP)
#   Created on  : 2016-05-23 11:57:04
#   Project     : CANT971
#   User        : R5K
#   Interpreter : PEP
#
#------------------------------------------------------------------------------
~VERSION INFORMATION
VERS. 2.0 : CWLS Log ASCII Standard - version 2.0
WRAP.  NO : One line per depth step
~WELL INFORMATION
#MNEMONIC   .UNIT                                           VALUE :DESCRIPTION
#------------------------------------------------------------------------------
STRT        .M                                           125.9451 :START DEPTH
STOP        .M                                          3005.5432 :STOP DEPTH
STEP        .M                                             0.1524 :STEP
NULL        .                                           -999.2500 :NULL VALUE
COMP        .                                   PEMEX EXPL & PROD :COMPANY
WELL        .                                                 66A :WELL
FLD         .                                           CANTARELL :FIELD
LOC         .                                             UNKNOWN :LOCATION
CNTY        .                                      CD. DEL CARMEN :COUNTY
STAT        .                                            CAMPECHE :STATE
CTRY        .                                              MEXICO :COUNTRY
SRVC        .                                             UNKNOWN :SERVICE COMPANY
DATE        .                                             UNKNOWN :LOG DATE
UWI         .                                          3060000173 :UNIQUE WELL ID
XCOORD      .                                       599692.990000 :SURFACE X
YCOORD      .                                      2143036.380000 :SURFACE Y
LAT         .                                           19.380143 :LATITUDE
LON         .                                          -92.050669 :LONGITUDE
ELEV        .M                                            26.7400 :SURFACE ELEV
ELEV_TYPE   .                                                  KB :ELEV TYPE
~CURVE INFORMATION
#MNEMONIC.UNIT        API CODE       : CURVE DESCRIPTION
#------------------------------------------------------------------------------
DEPTH    .M                          : Measured Depth
CALI     .UNKNOWN     UNKNOWN        : CALI:UNKNOWN:rC:NONE:v0 (auto-composite)
DT       .us/ft       UNKNOWN        : DT:DT:rC:NONE:v0 (auto-composite)
GR       .API         UNKNOWN        : GR:UNKNOWN:rC:NONE:v0 (auto-composite)
GR-ENT   .API         UNKNOWN        : GR-ENT:porosidad-entubado:rC:NONE:v0 (auto-composite)
GR-LWD   .UNKNOWN     UNKNOWN        : GR-LWD:GR-LWD:rC:NONE:v0 (auto-composite)
ILD      .UNKNOWN     UNKNOWN        : ILD:UNKNOWN:rC:NONE:v0 (auto-composite)
LLD      .UNKNOWN     UNKNOWN        : LLD:UNKNOWN:rC:NONE:v0 (auto-composite)
LLD-LWD  .UNKNOWN     UNKNOWN        : LLD-LWD:LLD-LWD:rC:NONE:v0 (auto-composite)
LLS      .UNKNOWN     UNKNOWN        : LLS:UNKNOWN:rC:NONE:v0 (auto-composite)
LLS-LWD  .UNKNOWN     UNKNOWN        : LLS-LWD:LLS-LWD:rC:NONE:v0 (auto-composite)
MSFL     .UNKNOWN     UNKNOWN        : MSFL:UNKNOWN:rC:NONE:v0 (auto-composite)
MSFL-LWD .UNKNOWN     UNKNOWN        : MSFL-LWD:MSFL-LWD:rC:NONE:v0 (auto-composite)
NPHI     .v/v_decimal UNKNOWN        : NPHI:PETROWORKS:rC:NONE:v1 
NPHI-ENT .UNKNOWN     UNKNOWN        : NPHI-ENT:porosidad-entubado:rC:NONE:v0 (auto-composite)
RHOB     .g/cm3       UNKNOWN        : RHOB:UNKNOWN:rC:NONE:v0 (auto-composite)
~A     DEPTH         CALI           DT           GR       GR-ENT       GR-LWD          ILD          LLD      LLD-LWD          LLS      LLS-LWD         MSFL     MSFL-LWD         NPHI     NPHI-ENT         RHOB
# ...
   2717.3547    -999.2500      49.9857      34.0788    -999.2500      30.8346    -999.2500     343.8706     226.0412     287.8680     252.5265    -999.2500     178.1741       0.0407    -999.2500    -999.2500
   2717.5071    -999.2500      50.8338      38.0278    -999.2500      36.5070    -999.2500     270.0304     247.4146     231.0339     253.6600    -999.2500     239.8189       0.0435    -999.2500    -999.2500
   2717.6594    -999.2500      51.0872      40.2571    -999.2500      38.3255    -999.2500     215.3694     247.9516     187.2184     252.0631    -999.2500     175.0735       0.0444    -999.2500    -999.2500
   2717.8120    -999.2500      50.4980      40.0821    -999.2500      33.5468    -999.2500     187.5220     218.4806     161.6035     224.1296    -999.2500     156.2284       0.0424    -999.2500    -999.2500
   2717.9644    -999.2500      50.4176      40.9355    -999.2500      28.2006    -999.2500     163.8766     216.3873     141.2186     236.0629    -999.2500     171.5304       0.0431    -999.2500    -999.2500
   2718.1167    -999.2500      51.0558      43.2317    -999.2500      24.9045    -999.2500     146.1270     249.6200     128.1717     285.3647    -999.2500     194.5700       0.0468    -999.2500    -999.2500
   2718.2690    -999.2500      51.3489      43.4930    -999.2500      21.4545    -999.2500     141.0494     244.8003     125.9810     251.3471    -999.2500     188.6146       0.0487    -999.2500    -999.2500
   2718.4214    -999.2500      51.1528      40.8701    -999.2500      20.1331    -999.2500     153.9323     204.6799     139.1773     191.8021    -999.2500     140.0817       0.0477    -999.2500    -999.2500
   2718.5740    -999.2500      51.1603      39.5569    -999.2500      25.1908    -999.2500     179.4375     181.7991     161.7022     186.0765    -999.2500     135.0309       0.0480    -999.2500    -999.2500
   2718.7263    -999.2500      51.4554      40.1067    -999.2500      29.6593    -999.2500     222.8967     183.9292     197.4962     229.2457    -999.2500     174.2080       0.0500    -999.2500    -999.2500
   2718.8787    -999.2500      51.3429      40.2339    -999.2500      25.4602    -999.2500     245.0661     238.9904     215.1496     600.4821    -999.2500     531.6926       0.0508    -999.2500    -999.2500
   2719.0310    -999.2500      50.6562      39.7580    -999.2500      18.8797    -999.2500     236.8444     269.0095     206.9074     894.7300    -999.2500     932.0815       0.0497    -999.2500    -999.2500
   2719.1836    -999.2500      50.7569      39.7677    -999.2500      13.6778    -999.2500     220.9328     250.6867     191.4392    1158.0979    -999.2500    1178.4813       0.0497    -999.2500    -999.2500
   2719.3359    -999.2500      51.9709      40.4594    -999.2500      14.8886    -999.2500     194.2208     234.5721     165.8222    1591.8146    -999.2500    1095.5483       0.0512    -999.2500    -999.2500
   2719.4883    -999.2500      53.2576      41.5410    -999.2500      17.3269    -999.2500     166.8880     183.3423     141.2316     515.6978    -999.2500     347.7802       0.0538    -999.2500    -999.2500
   2719.6406    -999.2500      54.6470      43.1723    -999.2500      17.6918    -999.2500     138.6802     185.7280     118.0876     422.6305    -999.2500     496.2397       0.0575    -999.2500    -999.2500
   2719.7932    -999.2500      54.8739      43.5542    -999.2500      18.7372    -999.2500     128.4529     192.3400     110.5895     697.5477    -999.2500     728.5009       0.0588    -999.2500    -999.2500
   2719.9456    -999.2500      53.4564      42.1688    -999.2500      18.6061    -999.2500     143.6594     204.1198     125.2227     624.2241    -999.2500     733.5416       0.0562    -999.2500    -999.2500
   2720.0979    -999.2500      51.8909      39.4629    -999.2500      17.1594    -999.2500     160.2795     188.7000     140.9809     238.7400    -999.2500     489.3200       0.0518    -999.2500    -999.2500
   2720.2502    -999.2500      50.1166      34.8826    -999.2500      22.8791    -999.2500     178.9066     110.8676     158.3360     116.9919    -999.2500     114.5504       0.0457    -999.2500    -999.2500
   2720.4026    -999.2500      49.1837      32.4229    -999.2500      31.7346    -999.2500     176.1647     123.4931     158.2219     145.4572    -999.2500      98.2799       0.0428    -999.2500    -999.2500
   2720.5552    -999.2500      49.4412      33.0046    -999.2500      30.4508    -999.2500     142.7782     126.0300     133.0556     137.6836    -999.2500     115.7598       0.0449    -999.2500    -999.2500
   2720.7075    -999.2500      49.8109      34.0010    -999.2500      40.2466    -999.2500     118.5234     118.7126     114.6312     123.6668    -999.2500     112.2288       0.0480    -999.2500    -999.2500
   2720.8599    -999.2500      50.3387      35.5788    -999.2500      45.4757    -999.2500     107.0683      99.7880     105.6565     103.9514    -999.2500      84.2020       0.0522    -999.2500    -999.2500
   2721.0122    -999.2500      51.0248      37.2339    -999.2500      47.6821    -999.2500     104.8842      94.6902     103.4078      94.3361    -999.2500      84.4396       0.0561    -999.2500    -999.2500
   2721.1648    -999.2500      51.9351      38.9976    -999.2500      43.9068    -999.2500     115.7410     102.6023     110.6202     108.7308    -999.2500      95.1198       0.0593    -999.2500    -999.2500
   2721.3171    -999.2500      52.2927      39.6500    -999.2500      35.5978    -999.2500     116.5134      99.5166     110.4985     109.4445    -999.2500      91.3402       0.0592    -999.2500    -999.2500
   2721.4695    -999.2500      51.8699      38.7337    -999.2500      35.2286    -999.2500     103.0500      92.6830     100.0234     104.7942    -999.2500      85.6045       0.0547    -999.2500    -999.2500
   2721.6218    -999.2500      51.3349      37.0039    -999.2500      41.0830    -999.2500     106.4728      89.3400     106.3957     101.5048    -999.2500      86.5623       0.0488    -999.2500    -999.2500
   2721.7744    -999.2500      50.6412      34.1141    -999.2500      46.8788    -999.2500     133.9769      89.3400     136.7941      95.0760    -999.2500      83.0279       0.0414    -999.2500    -999.2500
   2721.9268    -999.2500      49.5074      29.7788    -999.2500      36.4946    -999.2500     354.0269      89.3400     309.2954     101.2947    -999.2500      95.4958       0.0349    -999.2500    -999.2500
   2722.0791    -999.2500      47.7522      23.3745    -999.2500      37.7617    -999.2500     849.6478      89.3400     685.1739     104.4700    -999.2500     100.3100       0.0300    -999.2500    -999.2500
   2722.2314    -999.2500      46.8142      20.2006    -999.2500      39.7560    -999.2500    1072.6987      92.9257     846.4427     108.4827    -999.2500     100.3100       0.0285    -999.2500    -999.2500
   2722.3838    -999.2500      47.0348      21.5456    -999.2500      42.0204    -999.2500     914.4621      94.7024     707.5022     111.7638    -999.2500     100.3100       0.0309    -999.2500    -999.2500
   2722.5364    -999.2500      47.6430      24.1702    -999.2500      40.9066    -999.2500     750.9240      80.9013     579.8249     100.1265    -999.2500      97.9480       0.0336    -999.2500    -999.2500
   2722.6887    -999.2500      48.7989      28.5912    -999.2500      34.9907    -999.2500     579.9432      81.5198     467.9593      96.9208    -999.2500      84.1831       0.0366    -999.2500    -999.2500
   2722.8411    -999.2500      49.3937      30.8019    -999.2500      34.8682    -999.2500     451.2051      84.1479     385.5504     107.9809    -999.2500      92.7998       0.0375    -999.2500    -999.2500
   2722.9934    -999.2500      49.1978      29.8778    -999.2500      43.4859    -999.2500     382.3743      82.6736     344.9165     102.8844    -999.2500      86.7602       0.0363    -999.2500    -999.2500
   2723.1460    -999.2500      49.1288      29.6673    -999.2500      42.5850    -999.2500     324.1506      75.0026     305.8498      74.1326    -999.2500      56.2430       0.0363    -999.2500    -999.2500
