#------------------------------------------------------------------------------
#
#   Created by  : [OpenWorks] Log Export Utility (LEXP)
#   Created on  : 2016-05-11 12:45:43
#   Project     : CANT971
#   User        : R5K
#   Interpreter : PEP
#
#------------------------------------------------------------------------------
~VERSION INFORMATION
VERS. 2.0 : CWLS Log ASCII Standard - version 2.0
WRAP.  NO : One line per depth step
~WELL INFORMATION
#MNEMONIC   .UNIT                                           VALUE :DESCRIPTION
#------------------------------------------------------------------------------
STRT        .M                                            80.3144 :START DEPTH
STOP        .M                                          1350.4160 :STOP DEPTH
STEP        .M                                             0.1524 :STEP
NULL        .                                           -999.2500 :NULL VALUE
COMP        .                                   PEMEX EXPL & PROD :COMPANY
WELL        .                                         CANTARELL-3 :WELL
FLD         .                                           CANTARELL :FIELD
LOC         .                                             UNKNOWN :LOCATION
CNTY        .                                      CD. DEL CARMEN :COUNTY
STAT        .                                            CAMPECHE :STATE
CTRY        .                                              MEXICO :COUNTRY
SRVC        .                                             UNKNOWN :SERVICE COMPANY
DATE        .                                             UNKNOWN :LOG DATE
UWI         .                                          3060000139 :UNIQUE WELL ID
XCOORD      .                                       600825.370000 :SURFACE X
YCOORD      .                                      2145118.460000 :SURFACE Y
LAT         .                                           19.398901 :LATITUDE
LON         .                                          -92.039777 :LONGITUDE
ELEV        .M                                            27.7000 :SURFACE ELEV
ELEV_TYPE   .                                                  KB :ELEV TYPE
~CURVE INFORMATION
#MNEMONIC.UNIT        API CODE       : CURVE DESCRIPTION
#------------------------------------------------------------------------------
DEPTH    .M                          : Measured Depth
CALI     .inches      UNKNOWN        : CALI:Import:rC:NONE:v0 (auto-composite)
DRHO     .g/cm3       UNKNOWN        : DRHO:Import:rC:NONE:v0 (auto-composite)
DT       .us/ft       UNKNOWN        : DT:Import:rC:NONE:v0 (auto-composite)
GR       .API         UNKNOWN        : GR:Import:rC:NONE:v0 (auto-composite)
ILD      .ohm.m       UNKNOWN        : ILD:Import:rC:NONE:v0 (auto-composite)
NPHI     .v/v_decimal UNKNOWN        : NPHI:Import:rC:NONE:v0 (auto-composite)
RHOB     .g/cm3       UNKNOWN        : RHOB:Import:rC:NONE:v0 (auto-composite)
SP       .mV          UNKNOWN        : SP:Import:rC:NONE:v0 (auto-composite)
~A     DEPTH         CALI         DRHO           DT           GR          ILD         NPHI         RHOB           SP
# ...
    111.8612      17.4470       0.1540      39.1915    -999.2500    -999.2500    -999.2500       1.6770    -999.2500
    112.0136      17.4490       0.1490      39.1920    -999.2500    -999.2500    -999.2500       1.6955    -999.2500
    112.1660      17.4510       0.1440      39.1925    -999.2500    -999.2500    -999.2500       1.7140    -999.2500
    112.3184      17.4510       0.1395      39.1930    -999.2500    -999.2500    -999.2500       1.7360    -999.2500
    112.4708      17.4510       0.1350      39.1935    -999.2500    -999.2500    -999.2500       1.7580    -999.2500
    112.6232      17.4510       0.1340      39.1940    -999.2500    -999.2500    -999.2500       1.7790    -999.2500
    112.7756      17.4510       0.1330      39.1940    -999.2500    -999.2500    -999.2500       1.8000    -999.2500
    112.9280      17.4510       0.1315      39.1940    -999.2500    -999.2500    -999.2500       1.8230    -999.2500
    113.0804      17.4510       0.1300      39.1995    -999.2500    -999.2500    -999.2500       1.8460    -999.2500
    113.2328      17.4510       0.1270      39.2050    -999.2500    -999.2500    -999.2500       1.8725    -999.2500
    113.3852      17.4510       0.1240      39.2355    -999.2500    -999.2500    -999.2500       1.8990    -999.2500
    113.5376      17.4510       0.1160      39.2660    -999.2500    -999.2500    -999.2500       1.9180    -999.2500
    113.6900      17.4510       0.1080      39.3140    -999.2500    -999.2500    -999.2500       1.9370    -999.2500
    113.8424      17.4510       0.0915      39.3620    -999.2500    -999.2500    -999.2500       1.9515    -999.2500
    113.9948      17.4510       0.0750      39.3785    -999.2500    -999.2500    -999.2500       1.9660    -999.2500
    114.1472      17.4510       0.0590      39.3950    -999.2500    -999.2500    -999.2500       1.9890    -999.2500
    114.2996      17.4510       0.0430      39.3830    -999.2500    -999.2500    -999.2500       2.0120    -999.2500
    114.4520      17.4510       0.0290      39.3710    -999.2500    -999.2500    -999.2500       2.0385    -999.2500
    114.6044      17.4510       0.0150      39.2850    -999.2500    -999.2500    -999.2500       2.0650    -999.2500
    114.7568      17.4510       0.0180      39.1990    -999.2500    -999.2500    -999.2500       2.0825    -999.2500
    114.9092      17.4510       0.0210      39.1995    -999.2500    -999.2500    -999.2500       2.1000    -999.2500
    115.0616      17.4505       0.0205      39.2000    -999.2500    -999.2500    -999.2500       2.1060    -999.2500
    115.2140      17.4500       0.0200      39.1925    -999.2500    -999.2500    -999.2500       2.1120    -999.2500
    115.3664      17.4430       0.0165      39.1850    -999.2500    -999.2500    -999.2500       2.1170    -999.2500
    115.5188      17.4360       0.0130      39.1435    -999.2500    -999.2500    -999.2500       2.1220    -999.2500
    115.6712      17.4380       0.0085      39.1020    -999.2500    -999.2500    -999.2500       2.1220    -999.2500
    115.8236      17.4400       0.0040      39.0275    -999.2500    -999.2500    -999.2500       2.1220    -999.2500
    115.9760      17.4455      -0.0015      38.9530    -999.2500    -999.2500    -999.2500       2.1210    -999.2500
    116.1284      17.4510      -0.0070      38.8870    -999.2500    -999.2500    -999.2500       2.1200    -999.2500
    116.2808      17.4510      -0.0120      38.8210    -999.2500    -999.2500    -999.2500       2.1160    -999.2500
    116.4332      17.4510      -0.0170      38.7290    -999.2500    -999.2500    -999.2500       2.1120    -999.2500
    116.5856      17.4510      -0.0220      38.6370    -999.2500    -999.2500    -999.2500       2.1050    -999.2500
    116.7380      17.4510      -0.0270      38.6370    -999.2500    -999.2500    -999.2500       2.0980    -999.2500
    116.8904      17.4495      -0.0335      38.6370    -999.2500    -999.2500    -999.2500       2.0910    -999.2500
    117.0428      17.4480      -0.0400      38.6680    -999.2500    -999.2500    -999.2500       2.0840    -999.2500
    117.1952      17.4400      -0.0470      38.6990    -999.2500    -999.2500    -999.2500       2.0775    -999.2500
    117.3476      17.4320      -0.0540      38.7950    -999.2500    -999.2500    -999.2500       2.0710    -999.2500
    117.5000      17.4195      -0.0625      38.8910    -999.2500    -999.2500    -999.2500       2.0645    -999.2500
    117.6524      17.4070      -0.0710      38.9005    -999.2500    -999.2500    -999.2500       2.0580    -999.2500
    117.8048      17.3880      -0.0855      38.9100    -999.2500    -999.2500    -999.2500       2.0480    -999.2500
    117.9572      17.3690      -0.1000      38.9110    -999.2500    -999.2500    -999.2500       2.0380    -999.2500
    118.1096      17.2891      -0.1000      38.9120    -999.2500    -999.2500    -999.2500       2.0225    -999.2500
    118.2620      17.2090      -0.1000      38.8630    -999.2500    -999.2500    -999.2500       2.0070    -999.2500
    118.4144      16.9698      -0.0965      38.8140    -999.2500    -999.2500    -999.2500       1.9780    -999.2500
    118.5668      16.7300      -0.0930      38.8140    -999.2500    -999.2500    -999.2500       1.9490    -999.2500
    118.7192      16.3475      -0.0750      38.8140    -999.2500    -999.2500    -999.2500       1.9170    -999.2500
    118.8716      15.9640      -0.0570      38.8175    -999.2500    -999.2500    -999.2500       1.8850    -999.2500
    119.0240      15.4371      -0.0169      38.8210    -999.2500    -999.2500    -999.2500       1.8720    -999.2500
    119.1764      14.9090       0.0230      38.8520    -999.2500    -999.2500    -999.2500       1.8590    -999.2500
    119.3288      14.4281       0.0651      38.8830    -999.2500    -999.2500    -999.2500       1.8605    -999.2500
    119.4812      13.9460       0.1070      40.9526    -999.2500    -999.2500    -999.2500       1.8620    -999.2500
    119.6336      13.5250       0.1245      43.0220    -999.2500    -999.2500    -999.2500       1.8595    -999.2500
    119.7860      13.1030       0.1420      53.9338    -999.2500    -999.2500    -999.2500       1.8570    -999.2500
    119.9384      13.1519       0.1405      64.8440    -999.2500    -999.2500    -999.2500       1.8475    -999.2500
    120.0908      13.2010       0.1390      83.7222    -999.2500    -999.2500    -999.2500       1.8380    -999.2500
    120.2432      13.1785       0.1325     102.5970    -999.2500    -999.2500    -999.2500       1.8265    -999.2500
    120.3956      13.1560       0.1260     116.7681    -999.2500    -999.2500    -999.2500       1.8150    -999.2500
    120.5480      13.0267       0.1275     130.9370    -999.2500    -999.2500    -999.2500       1.8000    -999.2500
    120.7004      12.8970       0.1290     139.9163    -999.2500    -999.2500    -999.2500       1.7850    -999.2500
    120.8528      12.9295       0.1350     148.8940    -999.2500    -999.2500    -999.2500       1.7790    -999.2500
    121.0052      12.9620       0.1410     147.3393    -999.2500    -999.2500    -999.2500       1.7730    -999.2500
    121.1576      13.1093       0.1460     145.7850    -999.2500    -999.2500    -999.2500       1.7695    -999.2500
    121.3100      13.2570       0.1510     139.9510    -999.2500    -999.2500    -999.2500       1.7660    -999.2500
    121.4624      13.4248       0.1490     134.1180    -999.2500    -999.2500    -999.2500       1.7620    -999.2500
    121.6148      13.5930       0.1470     130.4307    -999.2500    -999.2500    -999.2500       1.7580    -999.2500
    121.7672      13.7009       0.1470     126.7440    -999.2500    -999.2500    -999.2500       1.7520    -999.2500
    121.9196      13.8090       0.1470     128.9432    -999.2500    -999.2500    -999.2500       1.7460    -999.2500
    122.0720      13.8030       0.1465     131.1420    -999.2500    -999.2500    -999.2500       1.7425    -999.2500
    122.2244      13.7970       0.1460     142.8057    -999.2500    -999.2500    -999.2500       1.7390    -999.2500
