#------------------------------------------------------------------------------
#
#   Created by  : [OpenWorks] Log Export Utility (LEXP)
#   Created on  : 2016-05-12 17:01:25
#   Project     : CANT971
#   User        : R5K
#   Interpreter : PEP
#
#------------------------------------------------------------------------------
~VERSION INFORMATION
VERS. 2.0 : CWLS Log ASCII Standard - version 2.0
WRAP.  NO : One line per depth step
~WELL INFORMATION
#MNEMONIC   .UNIT                                           VALUE :DESCRIPTION
#------------------------------------------------------------------------------
STRT        .M                                           310.6675 :START DEPTH
STOP        .M                                          2665.7046 :STOP DEPTH
STEP        .M                                             0.1524 :STEP
NULL        .                                           -999.2500 :NULL VALUE
COMP        .                                   PEMEX EXPL & PROD :COMPANY
WELL        .                                                 77A :WELL
FLD         .                                           CANTARELL :FIELD
LOC         .                                             UNKNOWN :LOCATION
CNTY        .                                      CD. DEL CARMEN :COUNTY
STAT        .                                            CAMPECHE :STATE
CTRY        .                                              MEXICO :COUNTRY
SRVC        .                                             UNKNOWN :SERVICE COMPANY
DATE        .                                             UNKNOWN :LOG DATE
UWI         .                                          3060000181 :UNIQUE WELL ID
XCOORD      .                                       602151.310000 :SURFACE X
YCOORD      .                                      2147165.430000 :SURFACE Y
LAT         .                                           19.417331 :LATITUDE
LON         .                                          -92.027040 :LONGITUDE
ELEV        .M                                            28.1700 :SURFACE ELEV
ELEV_TYPE   .                                                  KB :ELEV TYPE
~CURVE INFORMATION
#MNEMONIC.UNIT        API CODE       : CURVE DESCRIPTION
#------------------------------------------------------------------------------
DEPTH    .M                          : Measured Depth
CALI     .inches      UNKNOWN        : CALI:UNKNOWN:rC:NONE:v0 (auto-composite)
DRHO     .UNKNOWN     UNKNOWN        : DRHO:PETROWORKS:rC:NONE:v1 
DT       .us/ft       UNKNOWN        : DT:DT:rC:NONE:v0 (auto-composite)
GR       .API         UNKNOWN        : GR:UNKNOWN:rC:NONE:v0 (auto-composite)
ILD      .UNKNOWN     UNKNOWN        : ILD:UNKNOWN:rC:NONE:v0 (auto-composite)
LLD      .ohm.m       UNKNOWN        : LLD:UNKNOWN:rC:NONE:v0 (auto-composite)
LLS      .ohm.m       UNKNOWN        : LLS:UNKNOWN:rC:NONE:v0 (auto-composite)
MSFL     .ohm.m       UNKNOWN        : MSFL:UNKNOWN:rC:NONE:v0 (auto-composite)
NPHI     .v/v_decimal UNKNOWN        : NPHI:PETROWORKS:rC:NONE:v1 
RHOB     .UNKNOWN     UNKNOWN        : RHOB:PETROWORKS:rC:NONE:v1 
SP       .UNKNOWN     UNKNOWN        : SP:UNKNOWN:rC:NONE:v0 (auto-composite)
~A     DEPTH         CALI         DRHO           DT           GR          ILD          LLD          LLS         MSFL         NPHI         RHOB           SP
# ...
    500.8627      22.8560       0.1416     134.7382      34.2821       1.2707    -999.2500    -999.2500    -999.2500       0.4803       2.1796     100.9438
    501.0151      22.8560       0.1568     133.6746      33.0619       1.2768    -999.2500    -999.2500    -999.2500       0.5038       2.1664     100.8360
    501.1675      22.8560       0.1660     129.6855      31.9882       1.2862    -999.2500    -999.2500    -999.2500       0.5138       2.1417     100.7281
    501.3199      22.8560       0.1679     122.7942      31.9120       1.3193    -999.2500    -999.2500    -999.2500       0.5103       2.1113     100.6198
    501.4723      22.8560       0.1624     119.5028      31.7714       1.3540    -999.2500    -999.2500    -999.2500       0.5010       2.0897     100.4901
    501.6247      22.8560       0.1500     119.7833      31.2119       1.3991    -999.2500    -999.2500    -999.2500       0.4860       2.0853     100.2209
    501.7771      22.8560       0.1301     120.6239      30.7265       1.4442    -999.2500    -999.2500    -999.2500       0.4707       2.0865      99.9292
    501.9295      22.8560       0.1028     122.0205      30.7015       1.4888    -999.2500    -999.2500    -999.2500       0.4553       2.0864      99.4981
    502.0819      22.8560       0.0846     122.4843      30.6324       1.5332    -999.2500    -999.2500    -999.2500       0.4445       2.0941      99.0747
    502.2343      22.8560       0.0845     122.0228      30.3015       1.5763    -999.2500    -999.2500    -999.2500       0.4384       2.1141      98.6972
    502.3867      22.8560       0.1003     119.2742      30.2589       1.6170    -999.2500    -999.2500    -999.2500       0.4338       2.1346      98.4081
    502.5391      22.8560       0.1303     114.2564      31.8607       1.6435    -999.2500    -999.2500    -999.2500       0.4306       2.1488      98.6237
    502.6915      22.8560       0.1452     112.6486      33.4232       1.6672    -999.2500    -999.2500    -999.2500       0.4251       2.1549      98.8726
    502.8439      22.8560       0.1299     114.4250      34.7706       1.6747    -999.2500    -999.2500    -999.2500       0.4172       2.1521      99.3037
    502.9963      22.8560       0.1049     114.9584      36.1099       1.6785    -999.2500    -999.2500    -999.2500       0.4092       2.1504      99.7004
    503.1487      22.8560       0.0813     114.2579      37.4064       1.6630    -999.2500    -999.2500    -999.2500       0.4012       2.1551      99.9160
    503.3011      22.8560       0.0639     114.1078      38.5393       1.6457    -999.2500    -999.2500    -999.2500       0.3932       2.1608     100.1494
    503.4535      22.8560       0.0550     114.5038      38.8441       1.6196    -999.2500    -999.2500    -999.2500       0.3855       2.1645     100.4733
    503.6059      22.8560       0.0639     115.3372      39.1446       1.5884    -999.2500    -999.2500    -999.2500       0.3775       2.1734     100.7420
    503.7583      22.8560       0.0945     116.6046      39.4243       1.5317    -999.2500    -999.2500    -999.2500       0.3692       2.1910     100.7420
    503.9107      22.8560       0.1292     116.6583      40.0475       1.4752    -999.2500    -999.2500    -999.2500       0.3584       2.2027     100.6569
    504.0631      22.8560       0.1590     115.5072      42.2848       1.4196    -999.2500    -999.2500    -999.2500       0.3450       2.2015     100.1716
    504.2155      22.8560       0.1678     115.4839      44.4348       1.3651    -999.2500    -999.2500    -999.2500       0.3418       2.1824      99.7448
    504.3679      22.8560       0.1489     116.5794      46.1890       1.3160    -999.2500    -999.2500    -999.2500       0.3487       2.1438      99.5828
    504.5203      22.8560       0.1231     119.7495      47.4846       1.2681    -999.2500    -999.2500    -999.2500       0.3635       2.1172      99.5713
    504.6727      22.8560       0.1005     124.9783      46.7728       1.2255    -999.2500    -999.2500    -999.2500       0.3862       2.1171     100.2185
    504.8251      22.8560       0.0913     132.0612      46.2019       1.1858    -999.2500    -999.2500    -999.2500       0.3959       2.1331     100.7934
    504.9775      22.8560       0.0997     140.9843      46.2275       1.1588    -999.2500    -999.2500    -999.2500       0.3926       2.1598     101.0627
    505.1299      22.8560       0.1171     144.9898      46.2879       1.1355    -999.2500    -999.2500    -999.2500       0.3919       2.1813     101.2367
    505.2823      22.8560       0.1392     144.1168      46.4909       1.1280    -999.2500    -999.2500    -999.2500       0.3940       2.1906     101.0211
    505.4347      22.8560       0.1512     141.6342      46.3558       1.1204    -999.2500    -999.2500    -999.2500       0.3994       2.1818     100.7621
    505.5871      22.8560       0.1472     137.5543      44.8814       1.1124    -999.2500    -999.2500    -999.2500       0.4081       2.1529     100.3309
    505.7395      22.8560       0.1401     136.1263      43.5279       1.1029    -999.2500    -999.2500    -999.2500       0.4190       2.1271     100.0001
    505.8919      22.8560       0.1358     137.3304      42.6381       1.0878    -999.2500    -999.2500    -999.2500       0.4319       2.1141     100.0537
    506.0443      22.8560       0.1272     142.3551      41.8238       1.0709    -999.2500    -999.2500    -999.2500       0.4521       2.1011     100.1761
    506.1967      22.8560       0.1118     151.1698      41.2899       1.0468    -999.2500    -999.2500    -999.2500       0.4794       2.0827     100.5536
    506.3491      22.8560       0.0973     155.5239      41.0433       1.0244    -999.2500    -999.2500    -999.2500       0.4923       2.0605     100.8959
    506.5015      22.8560       0.0870     155.4519      41.8313       1.0079    -999.2500    -999.2500    -999.2500       0.4909       2.0353     101.1114
    506.6539      22.8560       0.0786     155.1947      43.0947       0.9930    -999.2500    -999.2500    -999.2500       0.4849       2.0061     101.3030
    506.8063      22.8560       0.0708     154.7536      46.0185       0.9840    -999.2500    -999.2500    -999.2500       0.4743       1.9728     101.4108
    506.9587      22.8560       0.0677     154.8206      47.6388       0.9749    -999.2500    -999.2500    -999.2500       0.4698       1.9211     101.5431
    507.1111      22.8560       0.0705     155.3916      44.8426       0.9659    -999.2500    -999.2500    -999.2500       0.4713       1.8464     101.7587
    507.2635      22.8560       0.0758     156.5805      42.6625       0.9596    -999.2500    -999.2500    -999.2500       0.4700       1.7709     101.9491
    507.4159      22.8560       0.0820     158.3824      42.5101       0.9621    -999.2500    -999.2500    -999.2500       0.4660       1.7031     102.0569
    507.5683      22.8560       0.0887     159.4702      42.2788       0.9728    -999.2500    -999.2500    -999.2500       0.4662       1.6631     102.1005
    507.7207      22.8560       0.0957     159.8492      41.7955       1.0099    -999.2500    -999.2500    -999.2500       0.4705       1.6573     101.9391
    507.8731      22.8560       0.1021     159.4496      41.5787       1.0595    -999.2500    -999.2500    -999.2500       0.4723       1.6828     101.8301
    508.0255      22.8560       0.1078     158.2770      42.1888       1.1477    -999.2500    -999.2500    -999.2500       0.4718       1.7372     101.8837
    508.1779      22.8560       0.0939     154.9598      42.6470       1.2356    -999.2500    -999.2500    -999.2500       0.4683       1.8269     101.8972
    508.3303      22.8560       0.0545     149.5150      42.6470       1.3223    -999.2500    -999.2500    -999.2500       0.4619       1.9528     101.7894
    508.4827      22.8560       0.0283     142.8548      42.9056       1.4057    -999.2500    -999.2500    -999.2500       0.4469       2.0751     101.6954
    508.6351      22.8560       0.0282     134.9886      43.9227       1.4794    -999.2500    -999.2500    -999.2500       0.4235       2.1802     101.6417
