#------------------------------------------------------------------------------
#
#   Created by  : [OpenWorks] Log Export Utility (LEXP)
#   Created on  : 2016-05-23 11:50:23
#   Project     : CANT971
#   User        : R5K
#   Interpreter : PEP
#
#------------------------------------------------------------------------------
~VERSION INFORMATION
VERS. 2.0 : CWLS Log ASCII Standard - version 2.0
WRAP.  NO : One line per depth step
~WELL INFORMATION
#MNEMONIC   .UNIT                                           VALUE :DESCRIPTION
#------------------------------------------------------------------------------
STRT        .M                                           790.6004 :START DEPTH
STOP        .M                                          2649.8804 :STOP DEPTH
STEP        .M                                             0.1524 :STEP
NULL        .                                           -999.2500 :NULL VALUE
COMP        .                                             UNKNOWN :COMPANY
WELL        .                                               1012D :WELL
FLD         .                                             UNKNOWN :FIELD
LOC         .                                             UNKNOWN :LOCATION
CNTY        .                                             UNKNOWN :COUNTY
STAT        .                                             UNKNOWN :STATE
CTRY        .                                             UNKNOWN :COUNTRY
SRVC        .                                             UNKNOWN :SERVICE COMPANY
DATE        .                                             UNKNOWN :LOG DATE
UWI         .                                               1012D :UNIQUE WELL ID
XCOORD      .                                       594334.990000 :SURFACE X
YCOORD      .                                      2152041.060000 :SURFACE Y
LAT         .                                           19.461774 :LATITUDE
LON         .                                          -92.101239 :LONGITUDE
ELEV        .M                                             0.0000 :SURFACE ELEV
ELEV_TYPE   .                                                  KB :ELEV TYPE
~CURVE INFORMATION
#MNEMONIC.UNIT        API CODE       : CURVE DESCRIPTION
#------------------------------------------------------------------------------
DEPTH    .M                          : Measured Depth
DT       .us/ft       UNKNOWN        : DT:UNKNOWN:rC:NONE:v0 (auto-composite)
GR       .API         UNKNOWN        : GR:PETROWORKS:rC:NONE:v1 
GR-LWD   .API         UNKNOWN        : GR-LWD:PETROWORKS:rC:NONE:v1 
ILD      .ohm.m       UNKNOWN        : ILD:resistivos:rC:NONE:v0 (auto-composite)
ILD-LWD  .ohm.m       UNKNOWN        : ILD-LWD:PETROWORKS:rC:NONE:v1 
ILM      .ohm.m       UNKNOWN        : ILM:resistivos:rC:NONE:v0 (auto-composite)
ILM-LWD  .ohm.m       UNKNOWN        : ILM-LWD:PETROWORKS:rC:NONE:v1 
~A     DEPTH           DT           GR       GR-LWD          ILD      ILD-LWD          ILM      ILM-LWD
# ...
   2187.0415     105.9518      36.0746      62.3858    -999.2500       1.3687    -999.2500       1.3630
   2187.1941     105.9909      36.1416      61.4172    -999.2500       1.3674    -999.2500       1.3604
   2187.3464     105.9196      35.2624      60.5190    -999.2500       1.3613    -999.2500       1.3550
   2187.4988     105.1654      33.9288      61.2338    -999.2500       1.3125    -999.2500       1.3069
   2187.6511     103.5446      31.7467      62.5901    -999.2500       1.2396    -999.2500       1.2351
   2187.8037     101.6570      30.0870      63.8694    -999.2500       1.1849    -999.2500       1.1817
   2187.9561      99.7290      27.7422      63.5330    -999.2500       1.1351    -999.2500       1.1292
   2188.1084      98.3537      26.3556      64.6099    -999.2500       1.0987    -999.2500       1.0880
   2188.2607      97.0829      27.4106      67.4846    -999.2500       1.0454    -999.2500       1.0347
   2188.4131      97.4865      30.1441      70.7847    -999.2500       0.9694    -999.2500       0.9625
   2188.5657      98.6760      31.7009      73.8066    -999.2500       0.9234    -999.2500       0.9166
   2188.7180      99.3434      32.1803      75.9555    -999.2500       0.9042    -999.2500       0.8994
   2188.8704     100.2831      33.4493      78.7391    -999.2500       0.9019    -999.2500       0.8967
   2189.0227     102.1074      33.9663      81.9943    -999.2500       0.9047    -999.2500       0.8983
   2189.1753     103.9699      33.0159      87.1052    -999.2500       0.9098    -999.2500       0.9016
   2189.3276     106.1964      31.7460      93.4040    -999.2500       0.8924    -999.2500       0.8894
   2189.4800     108.0770      31.6469      95.8936    -999.2500       0.8848    -999.2500       0.8826
   2189.6323     109.5068      31.9432      94.6707    -999.2500       0.9029    -999.2500       0.8942
   2189.7849     110.9602      31.3545      91.6682    -999.2500       0.8969    -999.2500       0.8862
   2189.9373     112.2729      32.4287      91.0654    -999.2500       0.8826    -999.2500       0.8766
   2190.0896     112.7510      33.9923      90.0684    -999.2500       0.8989    -999.2500       0.8941
   2190.2419     112.9817      35.5541      86.3412    -999.2500       0.9559    -999.2500       0.9478
   2190.3943     113.3449      36.8235      79.4956    -999.2500       1.0428    -999.2500       1.0329
   2190.5469     112.5186      38.5814      75.2919    -999.2500       1.1066    -999.2500       1.0966
   2190.6992     110.6410      41.0244      72.8569    -999.2500       1.1780    -999.2500       1.1674
   2190.8516     109.2905      41.2867      71.6231    -999.2500       1.2283    -999.2500       1.2199
   2191.0039     108.3306      39.5598      70.5940    -999.2500       1.2634    -999.2500       1.2535
   2191.1565     109.8538      38.9930      69.9922    -999.2500       1.3164    -999.2500       1.3094
   2191.3088     113.0159      38.6188      67.8836    -999.2500       1.3571    -999.2500       1.3527
   2191.4612     114.4143      38.1970      66.5623    -999.2500       1.3625    -999.2500       1.3559
   2191.6135     113.9068      35.7710      67.3388    -999.2500       1.3128    -999.2500       1.3069
   2191.7661     111.2487      34.1885      71.8071    -999.2500       1.2487    -999.2500       1.2445
   2191.9185     108.2564      33.3083      75.2536    -999.2500       1.2105    -999.2500       1.2063
   2192.0708     107.3840      32.1363      76.3869    -999.2500       1.1878    -999.2500       1.1846
   2192.2231     106.0800      30.9643      77.8822    -999.2500       1.1691    -999.2500       1.1737
   2192.3755     105.0470      30.0862      79.4561    -999.2500       1.1869    -999.2500       1.1820
   2192.5281     105.5882      29.6943      81.3211    -999.2500       1.2010    -999.2500       1.1938
   2192.6804     106.0864      29.6146      82.3211    -999.2500       1.1971    -999.2500       1.1921
   2192.8328     106.4911      31.0079      81.3032    -999.2500       1.1816    -999.2500       1.1757
   2192.9851     107.0141      36.0277      79.3766    -999.2500       1.1557    -999.2500       1.1501
   2193.1377     107.3443      38.8627      79.5490    -999.2500       1.1235    -999.2500       1.1201
   2193.2900     107.1383      39.3680      80.9189    -999.2500       1.1023    -999.2500       1.1020
   2193.4424     106.7900      38.1843      81.9857    -999.2500       1.1052    -999.2500       1.1048
   2193.5947     106.1223      37.4103      81.7045    -999.2500       1.1273    -999.2500       1.1209
   2193.7473     105.4709      35.4615      80.6784    -999.2500       1.1055    -999.2500       1.0952
   2193.8997     105.7368      33.9917      79.8767    -999.2500       1.0516    -999.2500       1.0490
   2194.0520     106.6303      33.9927      78.4063    -999.2500       1.0292    -999.2500       1.0281
   2194.2043     107.5977      34.1864      78.1603    -999.2500       1.0324    -999.2500       1.0241
   2194.3567     108.1320      33.7993      80.3165    -999.2500       1.0209    -999.2500       1.0130
   2194.5093     108.3465      34.4778      82.7620    -999.2500       1.0146    -999.2500       1.0043
   2194.6616     108.4819      39.1675      82.9081    -999.2500       1.0014    -999.2500       0.9988
   2194.8140     108.6939      42.1372      81.2706    -999.2500       1.0198    -999.2500       1.0141
   2194.9663     108.5690      41.1443      79.8431    -999.2500       1.0414    -999.2500       1.0316
   2195.1189     108.5143      36.4567      79.7314    -999.2500       1.0738    -999.2500       1.0692
   2195.2712     108.5821      32.9269      78.0126    -999.2500       1.1289    -999.2500       1.1280
   2195.4236     108.7399      33.0791      76.8574    -999.2500       1.1929    -999.2500       1.1850
   2195.5759     109.3537      35.5520      75.2483    -999.2500       1.2484    -999.2500       1.2329
   2195.7285     108.9035      36.6297      74.6677    -999.2500       1.2463    -999.2500       1.2334
   2195.8809     107.4404      35.9466      72.2680    -999.2500       1.2554    -999.2500       1.2533
   2196.0332     105.4294      36.0433      70.8615    -999.2500       1.2910    -999.2500       1.2912
   2196.1855     104.2541      37.5076      70.2311    -999.2500       1.3261    -999.2500       1.3183
   2196.3379     103.5713      38.0949      67.3654    -999.2500       1.3622    -999.2500       1.3478
   2196.4905     102.8781      35.4602      62.2872    -999.2500       1.3735    -999.2500       1.3624
   2196.6428     102.7965      33.1129      61.0312    -999.2500       1.3745    -999.2500       1.3687
   2196.7952     102.7397      32.5547      63.2158    -999.2500       1.3528    -999.2500       1.3537
   2196.9475     102.7374      32.7011      67.2827    -999.2500       1.3515    -999.2500       1.3528
   2197.1001     102.1285      32.9020      68.6820    -999.2500       1.3786    -999.2500       1.3774
   2197.2524     100.3639      31.2483      69.0557    -999.2500       1.3936    -999.2500       1.3889
   2197.4048      98.7483      30.3463      70.2741    -999.2500       1.3715    -999.2500       1.3728
   2197.5571      97.0158      29.0117      75.5072    -999.2500       1.3424    -999.2500       1.3474
   2197.7097      96.4812      28.9126      76.5280    -999.2500       1.3712    -999.2500       1.3763
   2197.8621      96.7254      29.6934      77.1781    -999.2500       1.4808    -999.2500       1.4917
   2198.0144      96.8485      32.7212      76.1546    -999.2500       1.5301    -999.2500       1.5163
   2198.1667      97.5802      36.9204      78.2686    -999.2500       1.3078    -999.2500       1.3067
   2198.3191      98.9177      37.7060      79.1355    -999.2500       1.3026    -999.2500       1.3044
   2198.4717      99.2035      36.6296      77.6047    -999.2500       1.3031    -999.2500       1.3026
   2198.6240      98.6566      35.6315      77.0668    -999.2500       1.3255    -999.2500       1.3297
