#------------------------------------------------------------------------------
#
#   Created by  : [OpenWorks] Log Export Utility (LEXP)
#   Created on  : 2016-05-23 11:57:25
#   Project     : CANT971
#   User        : R5K
#   Interpreter : PEP
#
#------------------------------------------------------------------------------
~VERSION INFORMATION
VERS. 2.0 : CWLS Log ASCII Standard - version 2.0
WRAP.  NO : One line per depth step
~WELL INFORMATION
#MNEMONIC   .UNIT                                           VALUE :DESCRIPTION
#------------------------------------------------------------------------------
STRT        .M                                           497.5860 :START DEPTH
STOP        .M                                          2904.1343 :STOP DEPTH
STEP        .M                                             0.1524 :STEP
NULL        .                                           -999.2500 :NULL VALUE
COMP        .                                   PEMEX EXPL & PROD :COMPANY
WELL        .                                                 82A :WELL
FLD         .                                           CANTARELL :FIELD
LOC         .                                             UNKNOWN :LOCATION
CNTY        .                                      CD. DEL CARMEN :COUNTY
STAT        .                                            CAMPECHE :STATE
CTRY        .                                              MEXICO :COUNTRY
SRVC        .                                             UNKNOWN :SERVICE COMPANY
DATE        .                                             UNKNOWN :LOG DATE
UWI         .                                          3060000184 :UNIQUE WELL ID
XCOORD      .                                       601716.340000 :SURFACE X
YCOORD      .                                      2142348.150000 :SURFACE Y
LAT         .                                           19.373822 :LATITUDE
LON         .                                          -92.031440 :LONGITUDE
ELEV        .M                                            24.0000 :SURFACE ELEV
ELEV_TYPE   .                                                  KB :ELEV TYPE
~CURVE INFORMATION
#MNEMONIC.UNIT        API CODE       : CURVE DESCRIPTION
#------------------------------------------------------------------------------
DEPTH    .M                          : Measured Depth
CAL      .inches      UNKNOWN        : CAL:UNKNOWN:rC:NONE:v0 (auto-composite)
DRHO     .g/cm3       UNKNOWN        : DRHO:UNKNOWN:rC:NONE:v0 (auto-composite)
DT       .us/ft       UNKNOWN        : DT:DT:rC:NONE:v0 (auto-composite)
GR       .api         UNKNOWN        : GR:GR-Load:rC:NONE:v0 (auto-composite)
ILD      .ohm.m       UNKNOWN        : ILD:PETROWORKS:rC:NONE:v1 
LLD      .ohmm        UNKNOWN        : LLD:UNKNOWN:rC:NONE:v0 (auto-composite)
LLS      .ohmm        UNKNOWN        : LLS:UNKNOWN:rC:NONE:v0 (auto-composite)
MSFL     .ohmm        UNKNOWN        : MSFL:PETROWORKS:rC:NONE:v1 
NPHI     .v/v_decimal UNKNOWN        : NPHI:NPHI:rC:NONE:v0 (auto-composite)
PEF      .b/elec      UNKNOWN        : PEF:UNKNOWN:rC:NONE:v0 (auto-composite)
RG       .API         UNKNOWN        : RG:UNKNOWN:rC:NONE:v0 (auto-composite)
RHOB     .g/cm3       UNKNOWN        : RHOB:UNKNOWN:rC:NONE:v0 (auto-composite)
~A     DEPTH          CAL         DRHO           DT           GR          ILD          LLD          LLS         MSFL         NPHI          PEF           RG         RHOB
# ...
   2611.6787       8.0844       0.0364    -999.2500      15.5252    -999.2500     455.8679     137.8660      89.3237       3.2350       3.2021      16.1354       2.7777
   2611.8313       8.0889       0.0294    -999.2500      15.5682    -999.2500     411.3741     132.7377      78.8018       2.9616       3.1366      16.0515       2.7632
   2611.9836       8.0951       0.0248    -999.2500      15.6005    -999.2500     366.9141     127.4809      86.7049       2.6860       3.0744      16.0182       2.7511
   2612.1360       8.1191       0.0453    -999.2500      15.5345    -999.2500     322.7981     120.9152     114.9424       2.5639       3.0454      16.5015       2.7636
   2612.2883       8.1426       0.0638    -999.2500      15.4746    -999.2500     282.2978     114.8944     153.7420       2.4410       3.0268      16.9659       2.7762
   2612.4409       8.1611       0.0618    -999.2500      15.4701    -999.2500     279.0097     114.4805     196.2583       2.6300       3.1148      17.2363       2.7902
   2612.5933       8.1782       0.0580    -999.2500      15.4484    -999.2500     278.3504     114.5300     239.5576       2.8200       3.1896      17.4843       2.8014
   2612.7456       8.1807       0.0350    -999.2500      15.2709    -999.2500     305.0385     119.3995     241.5305       2.7711       3.1276      17.4993       2.7829
   2612.8979       8.1834       0.0144    -999.2500      15.0909    -999.2500     331.1983     124.0789     220.3226       2.7220       3.0601      17.5112       2.7662
   2613.0503       8.1879       0.0194    -999.2500      14.8890    -999.2500     351.6885     126.7178     204.9496       2.4537       2.9327      17.4897       2.7682
   2613.2029       8.1919       0.0257    -999.2500      14.8162    -999.2500     371.0518     129.2121     193.3036       2.1850       2.8266      17.4800       2.7723
   2613.3552       8.1904       0.0462    -999.2500      15.9222    -999.2500     378.1847     130.1371     178.9297       2.1360       2.9520      17.5990       2.7993
   2613.5076       8.1889       0.0642    -999.2500      16.9812    -999.2500     384.8883     131.0358     163.4752       2.0870       3.0786      17.6641       2.8231
   2613.6599       8.1874       0.0542    -999.2500      17.6165    -999.2500     386.8804     131.6440     138.9688       2.5141       3.2174      17.1382       2.8121
   2613.8125       8.1869       0.0452    -999.2500      18.0718    -999.2500     388.5108     132.1681     110.1792       2.9420       3.3265      16.6271       2.8007
   2613.9648       8.1973       0.0472    -999.2500      16.9123    -999.2500     386.0404     131.7378     105.9952       3.2224       3.0981      16.2833       2.7842
   2614.1172       8.2090       0.0493    -999.2500      15.7760    -999.2500     381.1999     130.9544     115.5833       3.5030       2.8997      15.9879       2.7702
   2614.2695       8.2345       0.0528    -999.2500      14.8507    -999.2500     349.1667     126.1200     127.0859       3.2164       3.0456      16.2488       2.7852
   2614.4221       8.2590       0.0554    -999.2500      14.0214    -999.2500     317.7833     121.3686     139.2974       2.9300       3.1844      16.5150       2.7990
   2614.5745       8.2715       0.0479    -999.2500      14.0554    -999.2500     293.9426     117.5813     124.0917       2.5571       3.2404      16.8434       2.7985
   2614.7268       8.2830       0.0417    -999.2500      14.0036    -999.2500     271.0777     113.8512      94.2123       2.1850       3.2856      17.0948       2.7987
   2614.8792       8.2830       0.0507    -999.2500      13.1868    -999.2500     259.6767     110.7945      78.2918       2.1730       3.2042      16.4421       2.8082
   2615.0315       8.2830       0.0591    -999.2500      12.4655    -999.2500     249.0295     107.9293      70.5447       2.1610       3.1303      15.7849       2.8170
   2615.1841       8.2830       0.0606    -999.2500      12.5884    -999.2500     247.5492     107.3930      72.7304       2.4668       3.1473      15.0727       2.8165
   2615.3364       8.2830       0.0620    -999.2500      12.8199    -999.2500     247.4063     107.1027      80.3091       2.7710       3.1630      14.4475       2.8160
   2615.4888       8.2830       0.0620    -999.2500      14.0198    -999.2500     263.7317     109.8410      93.6805       3.5120       3.1630      14.8933       2.8160
   2615.6411       8.2830       0.0616    -999.2500      15.2006    -999.2500     279.7039     112.4374     109.8228       4.2480       3.1618      15.3246       2.8156
   2615.7937       8.2830       0.0566    -999.2500      16.2115    -999.2500     291.2722     113.2638     116.0028       4.7079       3.1453      15.5748       2.8096
   2615.9460       8.2843       0.0531    -999.2500      17.2156    -999.2500     301.1366     113.8186     116.5440       5.1640       3.1278      15.8371       2.8043
   2616.0984       8.3023       0.0681    -999.2500      18.1602    -999.2500     288.9688     110.8599      98.5621       5.3172       3.0968      16.2570       2.8083
   2616.2507       8.3248       0.0815    -999.2500      19.0064    -999.2500     274.9658     107.5133      71.0119       5.4690       3.0710      16.6590       2.8115
   2616.4033       8.4062       0.0750    -999.2500      18.9809    -999.2500     236.9202      99.0849      53.2320       5.6344       3.1135      16.8279       2.8040
   2616.5557       8.4855       0.0674    -999.2500      18.7739    -999.2500     199.9959      90.8774      41.3131       5.7980       3.1565      16.9999       2.7953
   2616.7080       8.5360       0.0444    -999.2500      16.9702    -999.2500     177.9554      85.6011      37.3975       6.8733       3.2070      17.2128       2.7708
   2616.8604       8.5783       0.0236    -999.2500      15.5617    -999.2500     156.3770      80.3444      37.9506       7.9350       3.2540      17.4432       2.7482
   2617.0127       8.5109       0.0321    -999.2500      17.6008    -999.2500     141.0145      75.3501      40.5127       8.6480       3.2540      17.9086       2.7507
   2617.1653       8.4430       0.0398    -999.2500      19.3373    -999.2500     125.9114      70.4233      44.0869       9.3510       3.2520      18.3650       2.7529
   2617.3176       8.3680       0.0373    -999.2500      18.4090    -999.2500     114.4379      66.4410      55.2514       8.5019       3.2220      18.6949       2.7514
   2617.4700       8.3024       0.0344    -999.2500      17.4125    -999.2500     103.3493      62.4917      70.1859       7.6660       3.1883      19.0360       2.7464
   2617.6223       8.3688       0.0254    -999.2500      15.8204    -999.2500      97.7212      59.0107      73.5899       7.1612       3.1024      19.5378       2.6919
   2617.7749       8.4296       0.0174    -999.2500      14.4426    -999.2500      92.6622      55.8007      70.6654       6.6650       3.0185      19.9889       2.6401
   2617.9272       8.4081       0.0234    -999.2500      14.9219    -999.2500      95.7883      56.4889      60.4898       6.8684       2.9640      19.7108       2.6266
   2618.0796       8.3840       0.0296    -999.2500      15.3625    -999.2500      99.3924      57.3954      46.7150       7.0680       2.9078      19.3715       2.6165
   2618.2319       8.3200       0.0391    -999.2500      15.4651    -999.2500     110.1618      61.5756      44.7507       7.1296       2.8248      18.1166       2.6560
   2618.3843       8.2620       0.0476    -999.2500      15.5304    -999.2500     121.3410      65.8605      49.1939       7.1900       2.7518      16.9186       2.6931
   2618.5369       8.2950       0.0416    -999.2500      15.2733    -999.2500     138.7560      71.7390      49.9390       6.7518       2.8292      16.5877       2.6946
   2618.6892       8.3245       0.0379    -999.2500      15.0218    -999.2500     155.5395      77.3705      48.6783       6.3230       2.9059      16.3532       2.6980
   2618.8416       8.2990       0.0683    -999.2500      14.8179    -999.2500     162.5705      79.1882      45.2843       5.4713       2.9699      17.6072       2.7305
