#------------------------------------------------------------------------------
#
#   Created by  : [OpenWorks] Log Export Utility (LEXP)
#   Created on  : 2016-05-23 11:57:01
#   Project     : CANT971
#   User        : R5K
#   Interpreter : PEP
#
#------------------------------------------------------------------------------
~VERSION INFORMATION
VERS. 2.0 : CWLS Log ASCII Standard - version 2.0
WRAP.  NO : One line per depth step
~WELL INFORMATION
#MNEMONIC   .UNIT                                           VALUE :DESCRIPTION
#------------------------------------------------------------------------------
STRT        .M                                           485.8514 :START DEPTH
STOP        .M                                          3526.5361 :STOP DEPTH
STEP        .M                                             0.1524 :STEP
NULL        .                                           -999.2500 :NULL VALUE
COMP        .                                   PEMEX EXPL & PROD :COMPANY
WELL        .                                                  62 :WELL
FLD         .                                           CANTARELL :FIELD
LOC         .                                             UNKNOWN :LOCATION
CNTY        .                                      CD. DEL CARMEN :COUNTY
STAT        .                                            CAMPECHE :STATE
CTRY        .                                              MEXICO :COUNTRY
SRVC        .                                             UNKNOWN :SERVICE COMPANY
DATE        .                                             UNKNOWN :LOG DATE
UWI         .                                          3060000468 :UNIQUE WELL ID
XCOORD      .                                       601711.280000 :SURFACE X
YCOORD      .                                      2142346.320000 :SURFACE Y
LAT         .                                           19.373806 :LATITUDE
LON         .                                          -92.031488 :LONGITUDE
ELEV        .M                                            24.0000 :SURFACE ELEV
ELEV_TYPE   .                                                  KB :ELEV TYPE
~CURVE INFORMATION
#MNEMONIC.UNIT        API CODE       : CURVE DESCRIPTION
#------------------------------------------------------------------------------
DEPTH    .M                          : Measured Depth
CALI     .inches      UNKNOWN        : CALI:editado:rC:NONE:v0 (auto-composite)
DRHO     .g/cm3       UNKNOWN        : DRHO:editado:rC:NONE:v0 (auto-composite)
DT       .us/ft       UNKNOWN        : DT:editado:rC:NONE:v0 (auto-composite)
GR       .API         UNKNOWN        : GR:editado:rC:NONE:v0 (auto-composite)
ILD      .ohm.m       UNKNOWN        : ILD:editado:rC:NONE:v0 (auto-composite)
ILM      .ohm.m       UNKNOWN        : ILM:editado:rC:NONE:v0 (auto-composite)
LLD      .ohm.m       UNKNOWN        : LLD:editado:rC:NONE:v0 (auto-composite)
LLS      .ohm.m       UNKNOWN        : LLS:editado:rC:NONE:v0 (auto-composite)
MSFL     .ohm.m       UNKNOWN        : MSFL:editado:rC:NONE:v0 (auto-composite)
NPHI     .v/v_decimal UNKNOWN        : NPHI:editado:rC:NONE:v0 (auto-composite)
PEF      .b/elec      UNKNOWN        : PEF:editado:rC:NONE:v0 (auto-composite)
RHOB     .g/cm3       UNKNOWN        : RHOB:editado:rC:NONE:v0 (auto-composite)
~A     DEPTH         CALI         DRHO           DT           GR          ILD          ILM          LLD          LLS         MSFL         NPHI          PEF         RHOB
# ...
   3514.3442       5.4730       0.1440      68.1250      48.8040    -999.2500    -999.2500       1.4130       1.0030       2.4000       0.1233       6.3100       2.2710
   3514.4966       5.4730       0.1460      68.7054      50.1389    -999.2500    -999.2500       1.4516       1.0215       2.3464       0.1233       6.4097       2.2605
   3514.6489       5.4730       0.1480      69.2810      51.4690    -999.2500    -999.2500       1.4900       1.0400       2.2930       0.1233       6.5090       2.2500
   3514.8015       5.4730       0.1535      68.4074      51.1171    -999.2500    -999.2500       1.4945       1.0430       2.2449       0.1219       6.7199       2.2565
   3514.9539       5.4730       0.1590      67.5410      50.7670    -999.2500    -999.2500       1.4990       1.0460       2.1970       0.1208       6.9300       2.2630
   3515.1062       5.4730       0.1600      66.3427      48.9726    -999.2500    -999.2500       1.4689       1.0239       2.1739       0.1285       6.9065       2.2620
   3515.2585       5.4730       0.1610      65.1560      47.1870    -999.2500    -999.2500       1.4390       1.0020       2.1510       0.1375       6.8830       2.2610
   3515.4109       5.4730       0.1610      65.5710      47.5398    -999.2500    -999.2500       1.4109       0.9850       2.1465       0.1758       6.8304       2.2560
   3515.5635       5.4730       0.1610      65.9820      47.8910    -999.2500    -999.2500       1.3830       0.9680       2.1420       0.2155       6.7780       2.2510
   3515.7158       5.4730       0.1610      66.6532      48.4623    -999.2500    -999.2500       1.3960       0.9850       2.1265       0.2649       6.7780       2.2400
   3515.8682       5.4730       0.1610      67.3180      49.0310    -999.2500    -999.2500       1.4090       1.0020       2.1110       0.3142       6.7780       2.2290
   3516.0205       5.4730       0.1610      67.5159      47.4339    -999.2500    -999.2500       1.5162       1.0732       2.0995       0.3561       6.7780       2.2110
   3516.1731       5.4730       0.1610      67.7120      45.8440    -999.2500    -999.2500       1.6230       1.1440       2.0880       0.3966       6.7780       2.1930
   3516.3254       5.4730       0.1610      67.8722      47.6219    -999.2500    -999.2500       1.7217       1.2091       2.0855       0.4162       6.7780       2.1375
   3516.4778       5.4730       0.1610      68.0310      49.3920    -999.2500    -999.2500       1.8200       1.2740       2.0830       0.4344       6.7780       2.0820
   3516.6301       5.4730       0.1560      67.8768      50.8241    -999.2500    -999.2500       1.8100       1.2695       2.0860       0.4409       6.7780       1.9295
   3516.7827       5.4730       0.1510      67.7240      52.2500    -999.2500    -999.2500       1.8000       1.2650       2.0890       0.4468       6.7780       1.7770
   3516.9351       5.4730       0.1038      67.4387      51.3702    -999.2500    -999.2500       1.7644       1.2515       2.0905       0.4485       6.7780       1.6975
   3517.0874       5.4730       0.0570      67.1560      50.4940    -999.2500    -999.2500       1.7290       1.2380       2.0920    -999.2500       6.7780       1.6180
   3517.2397       5.4730       0.0087      67.4197      49.2836    -999.2500    -999.2500       1.7851       1.2811       2.0975    -999.2500       6.5215       1.5855
   3517.3921       5.4730      -0.0390      67.6810      48.0780    -999.2500    -999.2500       1.8410       1.3240       2.1030    -999.2500       6.2660       1.5530
   3517.5447       5.4730      -0.0566      67.6840      48.3646    -999.2500    -999.2500       1.8956       1.3591       2.1000    -999.2500       4.9344       1.5515
   3517.6970       5.4730      -0.0740      67.6870      48.6500    -999.2500    -999.2500       1.9500       1.3940       2.0970    -999.2500       3.6080       1.5500
   3517.8494       5.4730      -0.0871      66.9257      50.2029    -999.2500    -999.2500       1.8563       1.3339       2.0855    -999.2500       2.4193    -999.2500
   3518.0017       5.4730      -0.1000      66.1710      51.7500    -999.2500    -999.2500       1.7630       1.2740       2.0740    -999.2500       1.2350    -999.2500
   3518.1543       5.4730    -999.2500      65.4258      50.6475    -999.2500    -999.2500       1.6468       1.1984       2.0690    -999.2500       0.9009    -999.2500
   3518.3066       5.4730    -999.2500      64.6870      49.5490    -999.2500    -999.2500       1.5310       1.1230       2.0640    -999.2500       0.5680    -999.2500
   3518.4590       5.4630    -999.2500      64.9521      48.0063    -999.2500    -999.2500       1.5500       1.1325       2.0390    -999.2500       0.3947    -999.2500
   3518.6113       5.4530    -999.2500      65.2150      46.4690    -999.2500    -999.2500       1.5690       1.1420       2.0140    -999.2500       0.2220    -999.2500
   3518.7639       5.4470    -999.2500      65.3736      46.8114    -999.2500    -999.2500       1.5610       1.1410       1.9809    -999.2500       0.2220    -999.2500
   3518.9163       5.4410    -999.2500      65.5310      47.1520    -999.2500    -999.2500       1.5530       1.1400       1.9480    -999.2500       0.2220    -999.2500
   3519.0686       5.4410    -999.2500      65.4215      47.3264    -999.2500    -999.2500       1.5274       1.1335       1.9435    -999.2500       0.2220    -999.2500
   3519.2209       5.4410    -999.2500      65.3130      47.5000    -999.2500    -999.2500       1.5020       1.1270       1.9390    -999.2500       0.2220    -999.2500
   3519.3733    -999.2500    -999.2500      65.7355      47.1086    -999.2500    -999.2500       1.4845       1.1295       1.9270    -999.2500       0.2220    -999.2500
   3519.5259    -999.2500    -999.2500      66.1540      46.7190    -999.2500    -999.2500       1.4670       1.1320       1.9150    -999.2500       0.2220    -999.2500
   3519.6782    -999.2500    -999.2500      66.2022      47.5474    -999.2500    -999.2500       1.4334       1.1130       1.9150    -999.2500       0.2040    -999.2500
   3519.8306    -999.2500    -999.2500      66.2500      48.3720    -999.2500    -999.2500       1.4000       1.0940       1.9150    -999.2500       0.1860    -999.2500
   3519.9829    -999.2500    -999.2500      66.2184      48.4752    -999.2500    -999.2500       1.3424       1.0564    -999.2500    -999.2500       0.1184    -999.2500
   3520.1355    -999.2500    -999.2500      66.1870      48.5780    -999.2500    -999.2500       1.2850       1.0190    -999.2500    -999.2500       0.0510    -999.2500
   3520.2878    -999.2500    -999.2500      66.2186      47.6620    -999.2500    -999.2500       1.2690       1.0320    -999.2500    -999.2500       0.0255    -999.2500
   3520.4402    -999.2500    -999.2500      66.2500      46.7500    -999.2500    -999.2500       1.2530       1.0450    -999.2500    -999.2500       0.0000    -999.2500
   3520.5925    -999.2500    -999.2500      66.2500      46.7500    -999.2500    -999.2500       1.3111       1.1126    -999.2500    -999.2500    -999.2500    -999.2500
   3520.7451    -999.2500    -999.2500      66.2500      46.7500    -999.2500    -999.2500       1.3690       1.1800    -999.2500    -999.2500    -999.2500    -999.2500
   3520.8975    -999.2500    -999.2500      66.2816      46.7500    -999.2500    -999.2500       1.4076       1.2271    -999.2500    -999.2500    -999.2500    -999.2500
   3521.0498    -999.2500    -999.2500      66.3130      46.7500    -999.2500    -999.2500       1.4460       1.2740    -999.2500    -999.2500    -999.2500    -999.2500
   3521.2021    -999.2500    -999.2500      66.2969      46.7500    -999.2500    -999.2500       1.4460       1.2720    -999.2500    -999.2500    -999.2500    -999.2500
   3521.3545    -999.2500    -999.2500      66.2810      46.7500    -999.2500    -999.2500       1.4460       1.2700    -999.2500    -999.2500    -999.2500    -999.2500
   3521.5071    -999.2500    -999.2500      66.3593      46.7500    -999.2500    -999.2500       1.4465       1.2700    -999.2500    -999.2500    -999.2500    -999.2500
