#------------------------------------------------------------------------------
#
#   Created by  : [OpenWorks] Log Export Utility (LEXP)
#   Created on  : 2016-05-12 17:01:28
#   Project     : CANT971
#   User        : R5K
#   Interpreter : PEP
#
#------------------------------------------------------------------------------
~VERSION INFORMATION
VERS. 2.0 : CWLS Log ASCII Standard - version 2.0
WRAP.  NO : One line per depth step
~WELL INFORMATION
#MNEMONIC   .UNIT                                           VALUE :DESCRIPTION
#------------------------------------------------------------------------------
STRT        .M                                           350.5962 :START DEPTH
STOP        .M                                          2218.5630 :STOP DEPTH
STEP        .M                                             0.1524 :STEP
NULL        .                                           -999.2500 :NULL VALUE
COMP        .                                   PEMEX EXPL & PROD :COMPANY
WELL        .                                                  79 :WELL
FLD         .                                           CANTARELL :FIELD
LOC         .                                             UNKNOWN :LOCATION
CNTY        .                                      CD. DEL CARMEN :COUNTY
STAT        .                                            CAMPECHE :STATE
CTRY        .                                              MEXICO :COUNTRY
SRVC        .                                             UNKNOWN :SERVICE COMPANY
DATE        .                                             UNKNOWN :LOG DATE
UWI         .                                          3060000183 :UNIQUE WELL ID
XCOORD      .                                       602154.470000 :SURFACE X
YCOORD      .                                      2147172.410000 :SURFACE Y
LAT         .                                           19.417394 :LATITUDE
LON         .                                          -92.027010 :LONGITUDE
ELEV        .M                                            28.1700 :SURFACE ELEV
ELEV_TYPE   .                                                  KB :ELEV TYPE
~CURVE INFORMATION
#MNEMONIC.UNIT        API CODE       : CURVE DESCRIPTION
#------------------------------------------------------------------------------
DEPTH    .M                          : Measured Depth
CALI     .inches      UNKNOWN        : CALI:CALI-Load:rC:NONE:v0 (auto-composite)
DT       .us/ft       UNKNOWN        : DT:DT:rC:NONE:v0 (auto-composite)
GR       .UNKNOWN     UNKNOWN        : GR:GR-Load:rC:NONE:v0 (auto-composite)
ILD      .UNKNOWN     UNKNOWN        : ILD:ILD-Load:rC:NONE:v0 (auto-composite)
LLD      .UNKNOWN     UNKNOWN        : LLD:LLD-Load:rC:NONE:v0 (auto-composite)
LLS      .UNKNOWN     UNKNOWN        : LLS:LLS-Load:rC:NONE:v0 (auto-composite)
MSFL     .UNKNOWN     UNKNOWN        : MSFL:MSFL-Load:rC:NONE:v0 (auto-composite)
NPHI     .v/v_decimal UNKNOWN        : NPHI:NPHI:rC:NONE:v0 (auto-composite)
RG       .API         UNKNOWN        : RG:UNKNOWN:rC:NONE:v0 (auto-composite)
RHOB     .UNKNOWN     UNKNOWN        : RHOB:RHOB-Load:rC:NONE:v0 (auto-composite)
SP       .UNKNOWN     UNKNOWN        : SP:SP-Load:rC:NONE:v0 (auto-composite)
~A     DEPTH         CALI           DT           GR          ILD          LLD          LLS         MSFL         NPHI           RG         RHOB           SP
# ...
    469.4682      21.8990    -999.2500      37.5749       1.1068    -999.2500    -999.2500    -999.2500       0.4437    -999.2500       2.0115      -6.3377
    469.6206      21.8990    -999.2500      37.0869       1.1043    -999.2500    -999.2500    -999.2500       0.4384    -999.2500       2.0285      -6.1052
    469.7730      21.8990    -999.2500      36.2649       1.0980    -999.2500    -999.2500    -999.2500       0.4366    -999.2500       2.0330      -5.8962
    469.9254      21.8990    -999.2500      35.1089       1.0880    -999.2500    -999.2500    -999.2500       0.4381    -999.2500       2.0250      -5.7107
    470.0778      21.8990    -999.2500      34.2775       1.0753    -999.2500    -999.2500    -999.2500       0.4366    -999.2500       2.0142      -5.6490
    470.2302      21.8990    -999.2500      33.7704       1.0598    -999.2500    -999.2500    -999.2500       0.4320    -999.2500       2.0007      -5.7110
    470.3826      21.8990    -999.2500      33.7236       1.0537    -999.2500    -999.2500    -999.2500       0.4330    -999.2500       1.9862      -5.7187
    470.5350      21.8990    -999.2500      34.1365       1.0572    -999.2500    -999.2500    -999.2500       0.4395    -999.2500       1.9707      -5.6722
    470.6874      21.8990    -999.2500      34.4115       1.0607    -999.2500    -999.2500    -999.2500       0.4478    -999.2500       1.9585      -5.6412
    470.8398      21.8990    -999.2500      34.5485       1.0642    -999.2500    -999.2500    -999.2500       0.4578    -999.2500       1.9495      -5.6257
    470.9922      21.8990    -999.2500      34.6170       1.0672    -999.2500    -999.2500    -999.2500       0.4647    -999.2500       1.9480      -5.5250
    471.1446      21.8990    -999.2500      34.6170       1.0697    -999.2500    -999.2500    -999.2500       0.4685    -999.2500       1.9540      -5.3390
    471.2970      21.8990    -999.2500      34.3732       1.0737    -999.2500    -999.2500    -999.2500       0.4642    -999.2500       1.9480      -5.3158
    471.4494      21.8990    -999.2500      33.8857       1.0792    -999.2500    -999.2500    -999.2500       0.4517    -999.2500       1.9300      -5.4553
    471.6018      21.8990    -999.2500      33.4230       1.0840    -999.2500    -999.2500    -999.2500       0.4411    -999.2500       1.9072      -5.6410
    471.7542      21.8990    -999.2500      32.9850       1.0880    -999.2500    -999.2500    -999.2500       0.4324    -999.2500       1.8797      -5.8730
    471.9066      21.8990    -999.2500      33.1413       1.0960    -999.2500    -999.2500    -999.2500       0.4257    -999.2500       1.8703      -6.2295
    472.0590      21.8990    -999.2500      33.8918       1.1080    -999.2500    -999.2500    -999.2500       0.4209    -999.2500       1.8788      -6.7105
    472.2114      21.8990    -999.2500      34.2295       1.1290    -999.2500    -999.2500    -999.2500       0.4166    -999.2500       1.9058      -7.4858
    472.3638      21.8990    -999.2500      34.1545       1.1590    -999.2500    -999.2500    -999.2500       0.4130    -999.2500       1.9513      -8.5554
    472.5162      21.8990    -999.2500      33.9920       1.2010    -999.2500    -999.2500    -999.2500       0.4064    -999.2500       1.9995      -9.5233
    472.6686      21.8990    -999.2500      33.7420       1.2550    -999.2500    -999.2500    -999.2500       0.3969    -999.2500       2.0505     -10.3898
    472.8210      21.8990    -999.2500      33.7575       1.3205    -999.2500    -999.2500    -999.2500       0.3812    -999.2500       2.0823     -11.3806
    472.9734      21.8990    -999.2500      34.0385       1.3975    -999.2500    -999.2500    -999.2500       0.3591    -999.2500       2.0948     -12.4955
    473.1258      21.8990    -999.2500      34.2353       1.4760    -999.2500    -999.2500    -999.2500       0.3391    -999.2500       2.0955     -12.9835
    473.2782      21.8990    -999.2500      34.3478       1.5560    -999.2500    -999.2500    -999.2500       0.3213    -999.2500       2.0845     -12.8445
    473.4306      21.8990    -999.2500      34.4918       1.6082    -999.2500    -999.2500    -999.2500       0.3088    -999.2500       2.0727     -12.4262
    473.5830      21.8990    -999.2500      34.6673       1.6327    -999.2500    -999.2500    -999.2500       0.3015    -999.2500       2.0602     -11.7287
    473.7354      21.8990    -999.2500      35.1833       1.6150    -999.2500    -999.2500    -999.2500       0.3064    -999.2500       2.0550     -10.8994
    473.8878      21.8990    -999.2500      36.0398       1.5550    -999.2500    -999.2500    -999.2500       0.3235    -999.2500       2.0570      -9.9385
    474.0402      21.8990    -999.2500      36.4555       1.4870    -999.2500    -999.2500    -999.2500       0.3465    -999.2500       2.0595      -9.0790
    474.1926      21.8990    -999.2500      36.4305       1.4110    -999.2500    -999.2500    -999.2500       0.3756    -999.2500       2.0625      -8.3209
    474.3450      21.8990    -999.2500      36.6526       1.3450    -999.2500    -999.2500    -999.2500       0.3950    -999.2500       2.0648      -7.7637
    474.4974      21.8990    -999.2500      37.1215       1.2890    -999.2500    -999.2500    -999.2500       0.4049    -999.2500       2.0663      -7.4072
    474.6498      21.8990    -999.2500      37.6968       1.2423    -999.2500    -999.2500    -999.2500       0.4149    -999.2500       2.0600      -7.1747
    474.8022      21.8990    -999.2500      38.3783       1.2048    -999.2500    -999.2500    -999.2500       0.4251    -999.2500       2.0460      -7.0662
    474.9546      21.8990    -999.2500      38.4560       1.1860    -999.2500    -999.2500    -999.2500       0.4344    -999.2500       2.0325      -7.0042
    475.1070      21.8990    -999.2500      37.9299       1.1860    -999.2500    -999.2500    -999.2500       0.4429    -999.2500       2.0195      -6.9887
    475.2594      21.8990    -999.2500      37.3046       1.1915    -999.2500    -999.2500    -999.2500       0.4485    -999.2500       2.0037      -6.9810
    475.4118      21.8990    -999.2500      36.5802       1.2025    -999.2500    -999.2500    -999.2500       0.4512    -999.2500       1.9852      -6.9810
    475.5642      21.8990    -999.2500      36.5308       1.2060    -999.2500    -999.2500    -999.2500       0.4551    -999.2500       1.9525      -6.9190
    475.7166      21.8990    -999.2500      37.1563       1.2020    -999.2500    -999.2500    -999.2500       0.4600    -999.2500       1.9055      -6.7950
    475.8690      21.8990    -999.2500      37.3687       1.1910    -999.2500    -999.2500    -999.2500       0.4641    -999.2500       1.8577      -6.7563
    476.0214      21.8990    -999.2500      37.1682       1.1730    -999.2500    -999.2500    -999.2500       0.4673    -999.2500       1.8092      -6.8028
    476.1738      21.8990    -999.2500      37.1148       1.1650    -999.2500    -999.2500    -999.2500       0.4647    -999.2500       1.8025      -6.9498
    476.3262      21.8990    -999.2500      37.2083       1.1670    -999.2500    -999.2500    -999.2500       0.4563    -999.2500       1.8375      -7.1973
    476.4786      21.8990    -999.2500      37.3835       1.1807    -999.2500    -999.2500    -999.2500       0.4433    -999.2500       1.8870      -7.5693
    476.6310      21.8990    -999.2500      37.6405       1.2062    -999.2500    -999.2500    -999.2500       0.4259    -999.2500       1.9510      -8.0658
    476.7834      21.8990    -999.2500      37.4685       1.2420    -999.2500    -999.2500    -999.2500       0.4075    -999.2500       2.0078      -8.6625
    476.9358      21.8990    -999.2500      36.8675       1.2880    -999.2500    -999.2500    -999.2500       0.3880    -999.2500       2.0573      -9.3595
    477.0882      21.8990    -999.2500      35.9920       1.3352    -999.2500    -999.2500    -999.2500       0.3651    -999.2500       2.0817      -9.8318
    477.2406      21.8990    -999.2500      34.8419       1.3837    -999.2500    -999.2500    -999.2500       0.3386    -999.2500       2.0812     -10.0793
