#------------------------------------------------------------------------------
#
#   Created by  : [OpenWorks] Log Export Utility (LEXP)
#   Created on  : 2016-05-23 11:56:05
#   Project     : CANT971
#   User        : R5K
#   Interpreter : PEP
#
#------------------------------------------------------------------------------
~VERSION INFORMATION
VERS. 2.0 : CWLS Log ASCII Standard - version 2.0
WRAP.  NO : One line per depth step
~WELL INFORMATION
#MNEMONIC   .UNIT                                           VALUE :DESCRIPTION
#------------------------------------------------------------------------------
STRT        .M                                          1100.3549 :START DEPTH
STOP        .M                                          2766.5439 :STOP DEPTH
STEP        .M                                             0.1524 :STEP
NULL        .                                           -999.2500 :NULL VALUE
COMP        .                                   PEMEX EXPL & PROD :COMPANY
WELL        .                                                  43 :WELL
FLD         .                                           CANTARELL :FIELD
LOC         .                                             UNKNOWN :LOCATION
CNTY        .                                      CD. DEL CARMEN :COUNTY
STAT        .                                            CAMPECHE :STATE
CTRY        .                                              MEXICO :COUNTRY
SRVC        .                                             UNKNOWN :SERVICE COMPANY
DATE        .                                             UNKNOWN :LOG DATE
UWI         .                                          3060000465 :UNIQUE WELL ID
XCOORD      .                                       601717.960000 :SURFACE X
YCOORD      .                                      2142346.560000 :SURFACE Y
LAT         .                                           19.373808 :LATITUDE
LON         .                                          -92.031425 :LONGITUDE
ELEV        .M                                            24.0000 :SURFACE ELEV
ELEV_TYPE   .                                                  KB :ELEV TYPE
~CURVE INFORMATION
#MNEMONIC.UNIT        API CODE       : CURVE DESCRIPTION
#------------------------------------------------------------------------------
DEPTH    .M                          : Measured Depth
CAL      .inches      UNKNOWN        : CAL:UNKNOWN:rC:NONE:v0 (auto-composite)
CALI     .in          UNKNOWN        : CALI:UNKNOWN:rC:NONE:v0 (auto-composite)
CNL      .v/v_decimal UNKNOWN        : CNL:UNKNOWN:rC:NONE:v0 (auto-composite)
DT       .us/ft       UNKNOWN        : DT:DT:rC:NONE:v0 (auto-composite)
GR       .API         UNKNOWN        : GR:UNKNOWN:rC:NONE:v0 (auto-composite)
ILD      .ohmm        UNKNOWN        : ILD:UNKNOWN:rC:NONE:v0 (auto-composite)
ILM      .ohmm        UNKNOWN        : ILM:UNKNOWN:rC:NONE:v0 (auto-composite)
LLD      .ohmm        UNKNOWN        : LLD:UNKNOWN:rC:NONE:v0 (auto-composite)
LLS      .ohmm        UNKNOWN        : LLS:UNKNOWN:rC:NONE:v0 (auto-composite)
NPHI     .v/v_decimal UNKNOWN        : NPHI:UNKNOWN:rC:NONE:v0 (auto-composite)
PEF      .b/elec      UNKNOWN        : PEF:UNKNOWN:rC:NONE:v0 (auto-composite)
RHOB     .g/cm3       UNKNOWN        : RHOB:UNKNOWN:rC:NONE:v0 (auto-composite)
~A     DEPTH          CAL         CALI          CNL           DT           GR          ILD          ILM          LLD          LLS         NPHI          PEF         RHOB
# ...
   2636.5469    -999.2500      11.8166    -999.2500      59.1660      29.7369    -999.2500    -999.2500     107.6621      92.7244       3.8094       3.4841       2.7280
   2636.6992    -999.2500      11.8141    -999.2500      58.4178      28.5100    -999.2500    -999.2500     104.4146      92.1138       3.9879       3.4054       2.7280
   2636.8516    -999.2500      11.7995    -999.2500      57.7804      27.7511    -999.2500    -999.2500      99.9844      90.7986       4.1823       3.3302       2.7285
   2637.0042    -999.2500      11.7305    -999.2500      57.7969      29.1005    -999.2500    -999.2500      90.2261      86.3101       4.4482       3.2707       2.7315
   2637.1565    -999.2500      11.6670    -999.2500      57.9531      30.6882    -999.2500    -999.2500      79.7419      80.1328       4.6788       3.2220       2.7387
   2637.3088    -999.2500      11.6280    -999.2500      58.9291      33.3554    -999.2500    -999.2500      65.9684      66.3033       4.7497       3.2220       2.7647
   2637.4612    -999.2500      11.6035    -999.2500      59.8615      36.4936    -999.2500    -999.2500      54.8235      54.3292       4.8379       3.2193       2.7845
   2637.6138    -999.2500      11.6455    -999.2500      60.5352      41.8018    -999.2500    -999.2500      55.7905      50.9042       5.0059       3.2043       2.7760
   2637.7661    -999.2500      11.6851    -999.2500      61.1098      46.7838    -999.2500    -999.2500      57.7967      48.8497       5.1705       3.1885       2.7677
   2637.9185    -999.2500      11.7135    -999.2500      61.1018      50.2538    -999.2500    -999.2500      64.6193      53.1473       5.3200       3.1685       2.7602
   2638.0708    -999.2500      11.7269    -999.2500      61.0265      52.6664    -999.2500    -999.2500      72.4378      58.3436       5.3816       3.1649       2.7556
   2638.2231    -999.2500      11.6694    -999.2500      60.5523      50.1490    -999.2500    -999.2500      84.9005      67.7300       5.0340       3.2378       2.7646
   2638.3757    -999.2500      11.6029    -999.2500      59.9249      47.4857    -999.2500    -999.2500      96.3178      77.2636       4.6328       3.3160       2.7762
   2638.5281    -999.2500      11.4931    -999.2500      58.3960      44.1299    -999.2500    -999.2500     102.7772      87.4949       3.9770       3.4193       2.8003
   2638.6804    -999.2500      11.4167    -999.2500      57.0897      40.8335    -999.2500    -999.2500     103.9315      92.6781       3.4902       3.5149       2.8188
   2638.8328    -999.2500      11.4932    -999.2500      57.1017      37.8088    -999.2500    -999.2500      80.8644      74.8128       3.7751       3.5753       2.8123
   2638.9854    -999.2500      11.5531    -999.2500      57.4024      36.1940    -999.2500    -999.2500      60.5125      58.7260       4.1059       3.6204       2.8041
   2639.1377    -999.2500      11.5371    -999.2500      59.4026      41.0539    -999.2500    -999.2500      52.6299      50.8069       4.6476       3.5944       2.7881
   2639.2900    -999.2500      11.5184    -999.2500      61.1106      46.1184    -999.2500    -999.2500      45.9555      43.8548       5.1496       3.5628       2.7732
   2639.4424    -999.2500      11.4869    -999.2500      61.1081      52.1280    -999.2500    -999.2500      44.8623      41.3699       5.4677       3.5054       2.7632
   2639.5950    -999.2500      11.4557    -999.2500      60.8646      57.4418    -999.2500    -999.2500      44.2451      39.8144       5.6754       3.4487       2.7540
   2639.7473    -999.2500      11.4258    -999.2500      59.1999      59.4864    -999.2500    -999.2500      45.8639      42.6262       5.3646       3.3957       2.7485
   2639.8997    -999.2500      11.4048    -999.2500      57.7780      60.5054    -999.2500    -999.2500      47.9399      46.6926       5.0456       3.3730       2.7466
   2640.0520    -999.2500      11.4263    -999.2500      57.7780      56.6763    -999.2500    -999.2500      52.1771      56.6893       4.6881       3.4933       2.7617
   2640.2043    -999.2500      11.4409    -999.2500      57.7788      53.2574    -999.2500    -999.2500      55.3672      64.4806       4.4638       3.5988       2.7735
   2640.3569    -999.2500      11.4239    -999.2500      57.7843      51.7056    -999.2500    -999.2500      53.7919      62.2361       4.8456       3.6362       2.7711
   2640.5093    -999.2500      11.4015    -999.2500      57.9500      50.8581    -999.2500    -999.2500      51.7778      59.4557       5.2450       3.6670       2.7673
   2640.6616    -999.2500      11.3541    -999.2500      59.0550      53.2347    -999.2500    -999.2500      47.7552      54.2227       5.7250       3.6670       2.7578
   2640.8140    -999.2500      11.3108    -999.2500      59.9980      55.6954    -999.2500    -999.2500      44.7712      49.3926       6.0884       3.6670       2.7506
   2640.9666    -999.2500      11.2868    -999.2500      59.9840      58.5476    -999.2500    -999.2500      46.6214      46.4384       5.9100       3.6670       2.7541
   2641.1189    -999.2500      11.2768    -999.2500      59.2327      60.6207    -999.2500    -999.2500      49.3071      44.5324       5.6505       3.6670       2.7589
   2641.2712    -999.2500      11.3324    -999.2500      54.1529      59.0448    -999.2500    -999.2500      55.9054      47.5352       5.0112       3.6670       2.7694
   2641.4236    -999.2500      11.3716    -999.2500      49.9023      56.1587    -999.2500    -999.2500      63.2975      52.4899       4.3446       3.6611       2.7808
   2641.5762    -999.2500      11.3367    -999.2500      50.5540      47.3640    -999.2500    -999.2500      74.2693      66.2459       3.5544       3.6286       2.7963
   2641.7285    -999.2500      11.2984    -999.2500      51.1101      39.5600    -999.2500    -999.2500      85.0064      79.7191       2.8485       3.6065       2.8097
   2641.8809    -999.2500      11.2455    -999.2500      51.1041      36.2496    -999.2500    -999.2500      94.6795      91.9091       2.5249       3.6315       2.8137
   2642.0332    -999.2500      11.1920    -999.2500      51.0072      33.2259    -999.2500    -999.2500     104.6435     105.7838       2.2359       3.6565       2.8172
   2642.1855    -999.2500      11.1361    -999.2500      50.3719      31.5246    -999.2500    -999.2500     115.9497     127.4289       2.1065       3.6820       2.8182
   2642.3381    -999.2500      11.0820    -999.2500      49.8307      29.9019    -999.2500    -999.2500     126.4048     144.4914       2.0087       3.7180       2.8198
   2642.4905    -999.2500      11.0370    -999.2500      49.8422      28.6434    -999.2500    -999.2500     132.9114     140.2922       2.0577       3.8024       2.8243
   2642.6428    -999.2500      11.0000    -999.2500      49.9497      27.8231    -999.2500    -999.2500     136.4385     132.7352       2.1413       3.8889       2.8292
   2642.7952    -999.2500      11.0000    -999.2500      50.6259      29.0475    -999.2500    -999.2500     126.0590     109.5068       2.3867       3.9849       2.8362
   2642.9478    -999.2500      11.0000    -999.2500      51.3234      30.6185    -999.2500    -999.2500     113.5672      87.4977       2.6515       4.0554       2.8377
   2643.1001    -999.2500      11.0000    -999.2500      52.1462      33.8163    -999.2500    -999.2500      91.1580      71.2136       3.0077       4.0063       2.8131
   2643.2524    -999.2500      10.9967    -999.2500      52.8480      36.7160    -999.2500    -999.2500      71.8779      58.4336       3.2909       3.9611       2.7916
   2643.4048    -999.2500      10.9782    -999.2500      52.8410      38.2533    -999.2500    -999.2500      66.8975      61.6677       3.2405       3.9336       2.7836
   2643.5574    -999.2500      10.9608    -999.2500      52.7456      39.3714    -999.2500    -999.2500      63.6398      65.6797       3.1634       3.8949       2.7779
   2643.7097    -999.2500      10.9483    -999.2500      52.1288      38.5623    -999.2500    -999.2500      68.3008      73.2674       2.9640       3.8050       2.7829
