#------------------------------------------------------------------------------
#
#   Created by  : [OpenWorks] Log Export Utility (LEXP)
#   Created on  : 2016-05-23 11:57:14
#   Project     : CANT971
#   User        : R5K
#   Interpreter : PEP
#
#------------------------------------------------------------------------------
~VERSION INFORMATION
VERS. 2.0 : CWLS Log ASCII Standard - version 2.0
WRAP.  NO : One line per depth step
~WELL INFORMATION
#MNEMONIC   .UNIT                                           VALUE :DESCRIPTION
#------------------------------------------------------------------------------
STRT        .M                                           551.2302 :START DEPTH
STOP        .M                                          2435.9609 :STOP DEPTH
STEP        .M                                             0.1524 :STEP
NULL        .                                           -999.2500 :NULL VALUE
COMP        .                                   PEMEX EXPL & PROD :COMPANY
WELL        .                                                  76 :WELL
FLD         .                                           CANTARELL :FIELD
LOC         .                                             UNKNOWN :LOCATION
CNTY        .                                      CD. DEL CARMEN :COUNTY
STAT        .                                            CAMPECHE :STATE
CTRY        .                                              MEXICO :COUNTRY
SRVC        .                                             UNKNOWN :SERVICE COMPANY
DATE        .                                             UNKNOWN :LOG DATE
UWI         .                                          3060000416 :UNIQUE WELL ID
XCOORD      .                                       599729.570000 :SURFACE X
YCOORD      .                                      2147218.620000 :SURFACE Y
LAT         .                                           19.417934 :LATITUDE
LON         .                                          -92.050101 :LONGITUDE
ELEV        .M                                            27.8000 :SURFACE ELEV
ELEV_TYPE   .                                                  KB :ELEV TYPE
~CURVE INFORMATION
#MNEMONIC.UNIT        API CODE       : CURVE DESCRIPTION
#------------------------------------------------------------------------------
DEPTH    .M                          : Measured Depth
CAL      .inches      UNKNOWN        : CAL:UNKNOWN:rC:NONE:v0 (auto-composite)
DRHO     .UNKNOWN     UNKNOWN        : DRHO:UNKNOWN:rC:NONE:v0 (auto-composite)
DT       .us/ft       UNKNOWN        : DT:DT:rC:NONE:v0 (auto-composite)
GR       .UNKNOWN     UNKNOWN        : GR:GR-Load:rC:NONE:v0 (auto-composite)
ILD      .UNKNOWN     UNKNOWN        : ILD:ILD-Load:rC:NONE:v0 (auto-composite)
LLD      .UNKNOWN     UNKNOWN        : LLD:UNKNOWN:rC:NONE:v0 (auto-composite)
LLS      .UNKNOWN     UNKNOWN        : LLS:UNKNOWN:rC:NONE:v0 (auto-composite)
NPHI     .v/v_decimal UNKNOWN        : NPHI:NPHI:rC:NONE:v0 (auto-composite)
RHOB     .UNKNOWN     UNKNOWN        : RHOB:UNKNOWN:rC:NONE:v0 (auto-composite)
~A     DEPTH          CAL         DRHO           DT           GR          ILD          LLD          LLS         NPHI         RHOB
# ...
   1675.6375       0.0000       0.2500    -999.2500      31.3389       0.2000       0.2000       0.2000    -999.2500       1.9500
   1675.7898       0.0000       0.2500    -999.2500      35.4690       0.2000       0.2000       0.2000    -999.2500       1.9500
   1675.9423       0.0000       0.2500    -999.2500      32.4550       0.2000       0.2000       0.2000    -999.2500       1.9500
   1676.0946       0.0000       0.2500    -999.2500      29.4420       0.2000       0.2000       0.2000    -999.2500       1.9500
   1676.2471       0.0000       0.2500    -999.2500      25.3251       0.2000       0.2000       0.2000    -999.2500       1.9500
   1676.3994       0.0000       0.2500    -999.2500      21.2090       0.2000       0.2000       0.2000    -999.2500       1.9500
   1676.5519       0.0000       0.2500    -999.2500      19.1159       0.2000       0.2000       0.2000    -999.2500       1.9500
   1676.7042       0.0000       0.2500    -999.2500      17.0230       0.2000       0.2000       0.2000    -999.2500       1.9500
   1676.8566       0.0000       0.2500    -999.2500      17.2695       0.2000       0.2000       0.2000    -999.2500       1.9500
   1677.0090       0.0000       0.2500    -999.2500      17.5160       0.2000       0.2000       0.2000    -999.2500       1.9500
   1677.1614       0.0000       0.2500    -999.2500      17.2845       0.2000       0.2000       0.2000    -999.2500       1.9500
   1677.3138       0.0000       0.2500    -999.2500      17.0530       0.2000       0.2000       0.2000    -999.2500       1.9500
   1677.4662       0.0000       0.2500    -999.2500      16.3086       0.2000       0.2000       0.2000    -999.2500       1.9500
   1677.6187       0.0000       0.2500    -999.2500      15.5640       0.2000       0.2000       0.2000    -999.2500       1.9500
   1677.7710       0.0000       0.2500    -999.2500      14.7739       0.2000       0.2000       0.2000    -999.2500       1.9500
   1677.9235       0.0000       0.2500    -999.2500      13.9840       0.2000       0.2000       0.2000    -999.2500       1.9500
   1678.0758       0.0000       0.2500    -999.2500      14.2401       0.2000       0.2000       0.2000    -999.2500       1.9500
   1678.2283       0.0000       0.2500    -999.2500      14.4960       0.2000       0.2000       0.2000    -999.2500       1.9500
   1678.3806       0.0000       0.2500    -999.2500      14.4845       0.2000       0.2000       0.2000    -999.2500       1.9500
   1678.5331       0.0000       0.2500    -999.2500      14.4730       0.2000       0.2000       0.2000    -999.2500       1.9500
   1678.6854       0.0000       0.2500    -999.2500      14.7316       0.2000       0.2000       0.2000    -999.2500       1.9500
   1678.8378       0.0000       0.2500    -999.2500      14.9900       0.2000       0.2000       0.2000    -999.2500       1.9500
   1678.9902       0.0000       0.2500    -999.2500      15.8743       0.2000       0.2000       0.2000    -999.2500       1.9500
   1679.1426       0.0000       0.2500    -999.2500      16.7580       0.2000       0.2000       0.2000    -999.2500       1.9500
   1679.2950       0.0000       0.2500    -999.2500      16.7055       0.2000       0.2000       0.2000    -999.2500       1.9500
   1679.4474       0.0000       0.2500    -999.2500      16.6530       0.2000       0.2000       0.2000    -999.2500       1.9500
   1679.5999       0.0000       0.2500    -999.2500      15.8203       0.2000       0.2000       0.2000    -999.2500       1.9500
   1679.7522       0.0000       0.2500    -999.2500      14.9880       0.2000       0.2000       0.2000    -999.2500       1.9500
   1679.9047       0.0000       0.2500    -999.2500      16.1112       0.2000       0.2000       0.2000    -999.2500       1.9500
   1680.0570       0.0000       0.2500    -999.2500      17.2340       0.2000       0.2000       0.2000    -999.2500       1.9500
   1680.2095       0.0000       0.2500    -999.2500      17.1265       0.2000       0.2000       0.2000    -999.2500       1.9500
   1680.3618       0.0000       0.2500    -999.2500      17.0190       0.2000       0.2000       0.2000    -999.2500       1.9500
   1680.5143       0.0000       0.2500    -999.2500      16.4970       0.2000       0.2000       0.2000    -999.2500       1.9500
   1680.6666       0.0000       0.2500    -999.2500      15.9750       0.2000       0.2000       0.2000    -999.2500       1.9500
   1680.8190       0.0000       0.2500    -999.2500      14.6146       0.2000       0.2000       0.2000    -999.2500       1.9500
   1680.9714       0.0000       0.2500    -999.2500      13.2540       0.2000       0.2000       0.2000    -999.2500       1.9500
   1681.1238       0.0000       0.2500    -999.2500      11.6747       0.2000       0.2000       0.2000    -999.2500       1.9500
   1681.2762       0.0000       0.2500    -999.2500      10.0950       0.2000       0.2000       0.2000    -999.2500       1.9500
   1681.4286       0.0000       0.2500    -999.2500       8.7012       0.2000       0.2000       0.2000    -999.2500       1.9500
   1681.5811       0.0000       0.2500    -999.2500       7.3070       0.2000       0.2000       0.2000    -999.2500       1.9500
   1681.7334       0.0000       0.2500    -999.2500       8.0281       0.2000       0.2000       0.2000    -999.2500       1.9500
   1681.8859       0.0000       0.2500    -999.2500       8.7490       0.2000       0.2000       0.2000    -999.2500       1.9500
   1682.0382       0.0000       0.2500    -999.2500      10.9291       0.2000       0.2000       0.2000    -999.2500       1.9500
   1682.1907       0.0000       0.2500    -999.2500      13.1070       0.2000       0.2000       0.2000    -999.2500       1.9500
   1682.3430       0.0000       0.2500    -999.2500      13.8313       0.2000       0.2000       0.2000    -999.2500       1.9500
   1682.4955       0.0000       0.2500    -999.2500      14.5550       0.2000       0.2000       0.2000    -999.2500       1.9500
   1682.6478       0.0000       0.2500    -999.2500      14.4515       0.2000       0.2000       0.2000    -999.2500       1.9500
   1682.8002       0.0000       0.2500    -999.2500      14.3480       0.2000       0.2000       0.2000    -999.2500       1.9500
   1682.9526       0.0000       0.2500    -999.2500      15.1298       0.2000       0.2000       0.2000    -999.2500       1.9500
   1683.1050       0.0000       0.2500    -999.2500      15.9110       0.2000       0.2000       0.2000    -999.2500       1.9500
   1683.2574       0.0000       0.2500    -999.2500      18.1241       0.2000       0.2000       0.2000    -999.2500       1.9500
   1683.4098       0.0000       0.2500    -999.2500      20.3360       0.2000       0.2000       0.2000    -999.2500       1.9500
   1683.5623       0.0000       0.2500    -999.2500      19.9149       0.2000       0.2000       0.2000    -999.2500       1.9500
   1683.7146       0.0000       0.2500    -999.2500      19.4940       0.2000       0.2000       0.2000    -999.2500       1.9500
   1683.8671       0.0000       0.2500    -999.2500      18.1953       0.2000       0.2000       0.2000    -999.2500       1.9500
   1684.0194       0.0000       0.2500    -999.2500      16.8970       0.2000       0.2000       0.2000    -999.2500       1.9500
   1684.1719       0.0000       0.2500    -999.2500      14.9799       0.2000       0.2000       0.2000    -999.2500       1.9500
   1684.3242       0.0000       0.2500    -999.2500      13.0630       0.2000       0.2000       0.2000    -999.2500       1.9500
   1684.4767       0.0000       0.2500    -999.2500      13.1680       0.2000       0.2000       0.2000    -999.2500       1.9500
   1684.6290       0.0000       0.2500    -999.2500      13.2730       0.2000       0.2000       0.2000    -999.2500       1.9500
   1684.7814       0.0000       0.2500    -999.2500      12.0641       0.2000       0.2000       0.2000    -999.2500       1.9500
   1684.9338       0.0000       0.2500    -999.2500      10.8550       0.2000       0.2000       0.2000    -999.2500       1.9500
