#------------------------------------------------------------------------------
#
#   Created by  : [OpenWorks] Log Export Utility (LEXP)
#   Created on  : 2016-05-23 11:57:10
#   Project     : CANT971
#   User        : R5K
#   Interpreter : PEP
#
#------------------------------------------------------------------------------
~VERSION INFORMATION
VERS. 2.0 : CWLS Log ASCII Standard - version 2.0
WRAP.  NO : One line per depth step
~WELL INFORMATION
#MNEMONIC   .UNIT                                           VALUE :DESCRIPTION
#------------------------------------------------------------------------------
STRT        .M                                           345.0980 :START DEPTH
STOP        .M                                          2040.8528 :STOP DEPTH
STEP        .M                                             0.1524 :STEP
NULL        .                                           -999.2500 :NULL VALUE
COMP        .                                   PEMEX EXPL & PROD :COMPANY
WELL        .                                                  71 :WELL
FLD         .                                           CANTARELL :FIELD
LOC         .                                             UNKNOWN :LOCATION
CNTY        .                                      CD. DEL CARMEN :COUNTY
STAT        .                                            CAMPECHE :STATE
CTRY        .                                              MEXICO :COUNTRY
SRVC        .                                             UNKNOWN :SERVICE COMPANY
DATE        .                                             UNKNOWN :LOG DATE
UWI         .                                          3060000175 :UNIQUE WELL ID
XCOORD      .                                       599724.470000 :SURFACE X
YCOORD      .                                      2147216.900000 :SURFACE Y
LAT         .                                           19.417919 :LATITUDE
LON         .                                          -92.050150 :LONGITUDE
ELEV        .M                                            27.8000 :SURFACE ELEV
ELEV_TYPE   .                                                  KB :ELEV TYPE
~CURVE INFORMATION
#MNEMONIC.UNIT        API CODE       : CURVE DESCRIPTION
#------------------------------------------------------------------------------
DEPTH    .M                          : Measured Depth
DT       .us/ft       UNKNOWN        : DT:DT:rC:NONE:v0 (auto-composite)
GR       .UNKNOWN     UNKNOWN        : GR:GR-Load:rC:NONE:v0 (auto-composite)
ILD      .UNKNOWN     UNKNOWN        : ILD:ILD-Load:rC:NONE:v0 (auto-composite)
NPHI     .v/v_decimal UNKNOWN        : NPHI:NPHI:rC:NONE:v0 (auto-composite)
RG       .UNKNOWN     UNKNOWN        : RG:RG-Loader:rC:NONE:v0 (auto-composite)
RHOB     .UNKNOWN     UNKNOWN        : RHOB:RHOB-Load:rC:NONE:v0 (auto-composite)
~A     DEPTH           DT           GR          ILD         NPHI           RG         RHOB
# ...
   1793.5076    -999.2500      48.2523       5.5534      24.1833    -999.2500       2.4808
   1793.6600    -999.2500      41.9780       5.3219      18.1636    -999.2500       2.4828
   1793.8124    -999.2500      42.5650       5.3372      13.8127    -999.2500       2.4853
   1793.9648    -999.2500      52.5957       5.6912      11.7587    -999.2500       2.4883
   1794.1172    -999.2500      55.8793       9.5355      10.9630    -999.2500       2.4913
   1794.2697    -999.2500      49.8740      18.1693      11.8995    -999.2500       2.4943
   1794.4220    -999.2500      44.5403      30.9834      11.8181    -999.2500       2.4966
   1794.5745    -999.2500      40.1314      49.5353      10.3352    -999.2500       2.4981
   1794.7268    -999.2500      36.4304      73.5421       9.1143    -999.2500       2.4975
   1794.8793    -999.2500      33.7045     105.0381       8.2543    -999.2500       2.4940
   1795.0316    -999.2500      32.4996     116.1022       7.8599    -999.2500       2.4945
   1795.1841    -999.2500      33.3905      99.1077       8.1069    -999.2500       2.5005
   1795.3364    -999.2500      33.7177      85.0121       8.3074    -999.2500       2.5122
   1795.4888    -999.2500      33.2707      74.8985       8.4439    -999.2500       2.5317
   1795.6412    -999.2500      32.8469      71.6260       8.2720    -999.2500       2.5362
   1795.7936    -999.2500      32.4549      77.7533       7.6750    -999.2500       2.5202
   1795.9460    -999.2500      30.7685      80.9357       7.1226    -999.2500       2.5070
   1796.0984    -999.2500      27.3031      80.0707       6.6316    -999.2500       2.4975
   1796.2509    -999.2500      26.7216      78.0282       6.1472    -999.2500       2.4920
   1796.4032    -999.2500      30.1045      74.3668       5.6717    -999.2500       2.4920
   1796.5557    -999.2500      31.1188      71.5523       5.4916    -999.2500       2.4920
   1796.7080    -999.2500      28.8764      69.9023       5.7191    -999.2500       2.4920
   1796.8605    -999.2500      27.6752      68.8678       5.9548    -999.2500       2.4920
   1797.0128    -999.2500      27.9062      68.6798       6.2018    -999.2500       2.4920
   1797.1653    -999.2500      28.5874      68.2435       6.5183    -999.2500       2.4918
   1797.3176    -999.2500      29.8878      67.4671       6.9308    -999.2500       2.4913
   1797.4700    -999.2500      30.2069      66.4770       7.0994    -999.2500       2.4857
   1797.6224    -999.2500      29.1754      65.1941       6.9313    -999.2500       2.4732
   1797.7748    -999.2500      28.6075      63.4286       6.6886    -999.2500       2.4383
   1797.9272    -999.2500      28.6775      61.0012       6.3431    -999.2500       2.3728
   1798.0796    -999.2500      29.6385      59.7523       6.2379    -999.2500       2.3002
   1798.2321    -999.2500      31.8265      60.1208       6.4634    -999.2500       2.2177
   1798.3844    -999.2500      31.9641      61.1375       6.7053    -999.2500       2.1352
   1798.5369    -999.2500      29.2782      63.0439       6.9698    -999.2500       2.0527
   1798.6892    -999.2500      27.0806      65.3069       7.0052    -999.2500       1.9940
   1798.8417    -999.2500      25.5556      68.0593       6.7252    -999.2500       1.9680
   1798.9940    -999.2500      24.9890      70.3885       6.4038    -999.2500       1.9530
   1799.1464    -999.2500      25.7428      72.1364       6.0253    -999.2500       1.9530
   1799.2988    -999.2500      26.6188      73.6997       5.8335    -999.2500       1.9530
   1799.4512    -999.2500      27.6628      75.0091       5.8990    -999.2500       1.9530
   1799.6036    -999.2500      29.1979      75.6910       5.9698    -999.2500       1.9530
   1799.7560    -999.2500      31.4078      75.5105       6.0478    -999.2500       1.9530
   1799.9084    -999.2500      32.4918      74.3243       6.2634    -999.2500       1.9530
   1800.0608    -999.2500      32.0283      71.7559       6.6689    -999.2500       1.9530
   1800.2133    -999.2500      31.4033      70.6168       6.8563    -999.2500       1.9530
   1800.3656    -999.2500      30.5564      71.4428       6.7428    -999.2500       1.9530
   1800.5181    -999.2500      29.7046      73.6366       6.5377    -999.2500       1.9530
   1800.6704    -999.2500      28.8461      77.7115       6.2062    -999.2500       1.9530
   1800.8229    -999.2500      28.0585      79.8270       5.9604    -999.2500       1.9530
   1800.9752    -999.2500      27.3686      79.2472       5.8329    -999.2500       1.9530
   1801.1276    -999.2500      27.2624      78.0336       5.7895    -999.2500       1.9530
   1801.2800    -999.2500      27.9593      75.9507       5.8620    -999.2500       1.9530
   1801.4324    -999.2500      30.4434      72.7108       6.0277    -999.2500       1.9530
   1801.5848    -999.2500      35.3867      67.8839       6.3217    -999.2500       1.9530
   1801.7372    -999.2500      37.5991      64.3928       6.7055    -999.2500       1.9530
   1801.8896    -999.2500      36.0521      62.7344       7.2130    -999.2500       1.9530
   1802.0420    -999.2500      35.9452      61.3160       7.2150    -999.2500       1.9530
   1802.1945    -999.2500      37.8212      60.2270       6.5211    -999.2500       1.9530
   1802.3468    -999.2500      40.7086      58.8458       6.0265    -999.2500       1.9530
   1802.4993    -999.2500      44.9889      57.0633       5.8065    -999.2500       1.9530
   1802.6516    -999.2500      46.9277      56.2534       5.9751    -999.2500       1.9530
   1802.8041    -999.2500      45.6407      56.7789       6.6791    -999.2500       1.9530
   1802.9564    -999.2500      44.1343      58.1070       7.0023    -999.2500       1.9530
   1803.1088    -999.2500      42.3263      60.5374       6.8008    -999.2500       1.9530
   1803.2612    -999.2500      39.3452      61.3330       6.6554    -999.2500       1.9530
   1803.4136    -999.2500      34.7523      59.8825       6.5874    -999.2500       1.9530
   1803.5660    -999.2500      36.1088      57.2428       6.3838    -999.2500       1.9530
   1803.7184    -999.2500      45.6405      52.9690       5.9934    -999.2500       1.9530
   1803.8708    -999.2500      52.8554      47.5600       6.1529    -999.2500       1.9530
   1804.0232    -999.2500      56.8857      40.5907       7.0708    -999.2500       1.9530
   1804.1757    -999.2500      51.5312      35.5732       7.9140    -999.2500       1.9530
   1804.3280    -999.2500      33.2738      33.2393       8.6540    -999.2500       1.9530
   1804.4805    -999.2500      23.0217      32.1808       8.4159    -999.2500       1.9528
   1804.6328    -999.2500      23.7787      32.8763       6.8285    -999.2500       1.9523
   1804.7853    -999.2500      26.6970      33.1390       5.9187    -999.2500       1.9520
   1804.9376    -999.2500      32.5883      32.8064       5.9442    -999.2500       1.9520
   1805.0900    -999.2500      34.6759      32.2870       6.2845    -999.2500       1.9520
   1805.2424    -999.2500      31.5300      31.5115       7.0593    -999.2500       1.9520
   1805.3948    -999.2500      27.9974      32.8490       7.2433    -999.2500       1.9520
   1805.5472    -999.2500      23.9325      37.0848       6.6143    -999.2500       1.9520
   1805.6996    -999.2500      21.8081      41.1398       6.0299    -999.2500       1.9520
   1805.8521    -999.2500      22.3551      44.9467       5.5070    -999.2500       1.9520
   1806.0044    -999.2500      22.4452      46.6483       5.3199    -999.2500       1.9520
   1806.1569    -999.2500      21.9063      45.4603       5.5954    -999.2500       1.9520
   1806.3092    -999.2500      21.9522      45.2484       5.8656    -999.2500       1.9520
   1806.4617    -999.2500      22.8036      46.3763       6.1286    -999.2500       1.9520
   1806.6140    -999.2500      22.8763      48.1859       6.3220    -999.2500       1.9520
   1806.7665    -999.2500      21.8759      50.9313       6.4195    -999.2500       1.9520
