#------------------------------------------------------------------------------
#
#   Created by  : [OpenWorks] Log Export Utility (LEXP)
#   Created on  : 2016-05-23 11:57:14
#   Project     : CANT971
#   User        : R5K
#   Interpreter : PEP
#
#------------------------------------------------------------------------------
~VERSION INFORMATION
VERS. 2.0 : CWLS Log ASCII Standard - version 2.0
WRAP.  NO : One line per depth step
~WELL INFORMATION
#MNEMONIC   .UNIT                                           VALUE :DESCRIPTION
#------------------------------------------------------------------------------
STRT        .M                                           551.2302 :START DEPTH
STOP        .M                                          2435.9609 :STOP DEPTH
STEP        .M                                             0.1524 :STEP
NULL        .                                           -999.2500 :NULL VALUE
COMP        .                                   PEMEX EXPL & PROD :COMPANY
WELL        .                                                  76 :WELL
FLD         .                                           CANTARELL :FIELD
LOC         .                                             UNKNOWN :LOCATION
CNTY        .                                      CD. DEL CARMEN :COUNTY
STAT        .                                            CAMPECHE :STATE
CTRY        .                                              MEXICO :COUNTRY
SRVC        .                                             UNKNOWN :SERVICE COMPANY
DATE        .                                             UNKNOWN :LOG DATE
UWI         .                                          3060000416 :UNIQUE WELL ID
XCOORD      .                                       599729.570000 :SURFACE X
YCOORD      .                                      2147218.620000 :SURFACE Y
LAT         .                                           19.417934 :LATITUDE
LON         .                                          -92.050101 :LONGITUDE
ELEV        .M                                            27.8000 :SURFACE ELEV
ELEV_TYPE   .                                                  KB :ELEV TYPE
~CURVE INFORMATION
#MNEMONIC.UNIT        API CODE       : CURVE DESCRIPTION
#------------------------------------------------------------------------------
DEPTH    .M                          : Measured Depth
CAL      .inches      UNKNOWN        : CAL:UNKNOWN:rC:NONE:v0 (auto-composite)
DRHO     .UNKNOWN     UNKNOWN        : DRHO:UNKNOWN:rC:NONE:v0 (auto-composite)
DT       .us/ft       UNKNOWN        : DT:DT:rC:NONE:v0 (auto-composite)
GR       .UNKNOWN     UNKNOWN        : GR:GR-Load:rC:NONE:v0 (auto-composite)
ILD      .UNKNOWN     UNKNOWN        : ILD:ILD-Load:rC:NONE:v0 (auto-composite)
LLD      .UNKNOWN     UNKNOWN        : LLD:UNKNOWN:rC:NONE:v0 (auto-composite)
LLS      .UNKNOWN     UNKNOWN        : LLS:UNKNOWN:rC:NONE:v0 (auto-composite)
NPHI     .v/v_decimal UNKNOWN        : NPHI:NPHI:rC:NONE:v0 (auto-composite)
RHOB     .UNKNOWN     UNKNOWN        : RHOB:UNKNOWN:rC:NONE:v0 (auto-composite)
~A     DEPTH          CAL         DRHO           DT           GR          ILD          LLD          LLS         NPHI         RHOB
# ...
   1826.8182       0.0000       0.2500    -999.2500      37.4684       0.2000       0.2000       0.2000    -999.2500       1.9500
   1826.9706       0.0000       0.2500    -999.2500      37.2340       0.2000       0.2000       0.2000    -999.2500       1.9500
   1827.1230       0.0000       0.2500    -999.2500      37.2640       0.2000       0.2000       0.2000    -999.2500       1.9500
   1827.2754       0.0000       0.2500    -999.2500      37.2940       0.2000       0.2000       0.2000    -999.2500       1.9500
   1827.4279       0.0000       0.2500    -999.2500      38.1002       0.2000       0.2000       0.2000    -999.2500       1.9500
   1827.5802       0.0000       0.2500    -999.2500      38.9060       0.2000       0.2000       0.2000    -999.2500       1.9500
   1827.7327       0.0000       0.2500    -999.2500      40.5987       0.2000       0.2000       0.2000    -999.2500       1.9500
   1827.8850       0.0000       0.2500    -999.2500      42.2910       0.2000       0.2000       0.2000    -999.2500       1.9500
   1828.0375       0.0000       0.2500    -999.2500      44.0121       0.2000       0.2000       0.2000    -999.2500       1.9500
   1828.1898       0.0000       0.2500    -999.2500      45.7330       0.2000       0.2000       0.2000    -999.2500       1.9500
   1828.3423       0.0000       0.2500    -999.2500      48.4370       0.2000       0.2000       0.2000    -999.2500       1.9500
   1828.4946       0.0000       0.2500    -999.2500      51.1410       0.2000       0.2000       0.2000    -999.2500       1.9500
   1828.6470       0.0000       0.2500    -999.2500      48.9728       0.2000       0.2000       0.2000    -999.2500       1.9500
   1828.7994       0.0000       0.2500    -999.2500      46.8060       0.2000       0.2000       0.2000    -999.2500       1.9500
   1828.9518       0.0000       0.2500    -999.2500      43.0359       0.2000       0.2000       0.2000    -999.2500       1.9500
   1829.1042       0.0000       0.2500    -999.2500      39.2710       0.2000       0.2000       0.2000    -999.2500       1.9500
   1829.2566       0.0000       0.2500    -999.2500      35.4456       0.2000       0.2000       0.2000    -999.2500       1.9500
   1829.4091       0.0000       0.2500    -999.2500      31.6250       0.2000       0.2000       0.2000    -999.2500       1.9500
   1829.5614       0.0000       0.2500    -999.2500      31.7286       0.2000       0.2000       0.2000    -999.2500       1.9500
   1829.7139       0.0000       0.2500    -999.2500      31.8320       0.2000       0.2000       0.2000    -999.2500       1.9500
   1829.8662       0.0000       0.2500    -999.2500      32.5373       0.2000       0.2000       0.2000    -999.2500       1.9500
   1830.0187       0.0000       0.2500    -999.2500      33.2420       0.2000       0.2000       0.2000    -999.2500       1.9500
   1830.1710       0.0000       0.2500    -999.2500      34.8402       0.2000       0.2000       0.2000    -999.2500       1.9500
   1830.3234       0.0000       0.2500    -999.2500      36.4370       0.2000       0.2000       0.2000    -999.2500       1.9500
   1830.4758       0.0000       0.2500    -999.2500      36.1499       0.2000       0.2000       0.2000    -999.2500       1.9500
   1830.6282       0.0000       0.2500    -999.2500      35.8630       0.2000       0.2000       0.2000    -999.2500       1.9500
   1830.7806       0.0000       0.2500    -999.2500      34.1280       0.2000       0.2000       0.2000    -999.2500       1.9500
   1830.9330       0.0000       0.2500    -999.2500      32.3940       0.2000       0.2000       0.2000    -999.2500       1.9500
   1831.0854       0.0000       0.2500    -999.2500      29.1017       0.2000       0.2000       0.2000    -999.2500       1.9500
   1831.2378       0.0000       0.2500    -999.2500      25.8110       0.2000       0.2000       0.2000    -999.2500       1.9500
   1831.3903       0.0000       0.2500    -999.2500      22.4039       0.2000       0.2000       0.2000    -999.2500       1.9500
   1831.5426       0.0000       0.2500    -999.2500      18.9980       0.2000       0.2000       0.2000    -999.2500       1.9500
   1831.6951       0.0000       0.2500    -999.2500      13.2668       0.2000       0.2000       0.2000    -999.2500       1.9500
   1831.8474       0.0000       0.2500    -999.2500       7.5370       0.2000       0.2000       0.2000    -999.2500       1.9500
   1831.9999       0.0000       0.2500    -999.2500       9.7581       0.2000       0.2000       0.2000    -999.2500       1.9500
   1832.1522       0.0000       0.2500    -999.2500      11.9790       0.2000       0.2000       0.2000    -999.2500       1.9500
   1832.3046       0.0000       0.2500    -999.2500      19.6760       0.2000       0.2000       0.2000    -999.2500       1.9500
   1832.4570       0.0000       0.2500    -999.2500      27.3670       0.2000       0.2000       0.2000    -999.2500       1.9500
   1832.6094       0.0000       0.2500    -999.2500      35.8542       0.2000       0.2000       0.2000    -999.2500       1.9500
   1832.7618       0.0000       0.2500    -999.2500      44.3290       0.2000       0.2000       0.2000    -999.2500       1.9500
   1832.9142       0.0000       0.2500    -999.2500      47.7388       0.2000       0.2000       0.2000    -999.2500       1.9500
   1833.0667       0.0000       0.2500    -999.2500      51.1440       0.2000       0.2000       0.2000    -999.2500       1.9500
   1833.2190       0.0000       0.2500    -999.2500      64.1733       0.2000       0.2000       0.2000    -999.2500       1.9500
   1833.3715       0.0000       0.2500    -999.2500      77.1870       0.2000       0.2000       0.2000    -999.2500       1.9500
   1833.5238       0.0000       0.2500    -999.2500      73.0148       0.2000       0.2000       0.2000    -999.2500       1.9500
   1833.6763       0.0000       0.2500    -999.2500      68.8470       0.2000       0.2000       0.2000    -999.2500       1.9500
   1833.8286       0.0000       0.2500    -999.2500      61.9037       0.2000       0.2000       0.2000    -999.2500       1.9500
   1833.9811       0.0000       0.2500    -999.2500      54.9670       0.2000       0.2000       0.2000    -999.2500       1.9500
   1834.1334       0.0000       0.2500    -999.2500      51.3465       0.2000       0.2000       0.2000    -999.2500       1.9500
   1834.2858       0.0000       0.2500    -999.2500      47.7290       0.2000       0.2000       0.2000    -999.2500       1.9500
   1834.4382       0.0000       0.2500    -999.2500      47.1418       0.2000       0.2000       0.2000    -999.2500       1.9500
   1834.5906       0.0000       0.2500    -999.2500      46.5550       0.2000       0.2000       0.2000    -999.2500       1.9500
   1834.7430       0.0000       0.2500    -999.2500      41.2215       0.2000       0.2000       0.2000    -999.2500       1.9500
   1834.8954       0.0000       0.2500    -999.2500      35.8910       0.2000       0.2000       0.2000    -999.2500       1.9500
   1835.0479       0.0000       0.2500    -999.2500      36.2346       0.2000       0.2000       0.2000    -999.2500       1.9500
   1835.2002       0.0000       0.2500    -999.2500      36.5780       0.2000       0.2000       0.2000    -999.2500       1.9500
   1835.3527       0.0000       0.2500    -999.2500      32.2333       0.2000       0.2000       0.2000    -999.2500       1.9500
   1835.5050       0.0000       0.2500    -999.2500      27.8900       0.2000       0.2000       0.2000    -999.2500       1.9500
   1835.6575       0.0000       0.2500    -999.2500      22.5615       0.2000       0.2000       0.2000    -999.2500       1.9500
   1835.8098       0.0000       0.2500    -999.2500      17.2340       0.2000       0.2000       0.2000    -999.2500       1.9500
   1835.9623       0.0000       0.2500    -999.2500      17.3475       0.2000       0.2000       0.2000    -999.2500       1.9500
   1836.1146       0.0000       0.2500    -999.2500      17.4610       0.2000       0.2000       0.2000    -999.2500       1.9500
