#------------------------------------------------------------------------------
#
#   Created by  : [OpenWorks] Log Export Utility (LEXP)
#   Created on  : 2016-05-23 11:57:24
#   Project     : CANT971
#   User        : R5K
#   Interpreter : PEP
#
#------------------------------------------------------------------------------
~VERSION INFORMATION
VERS. 2.0 : CWLS Log ASCII Standard - version 2.0
WRAP.  NO : One line per depth step
~WELL INFORMATION
#MNEMONIC   .UNIT                                           VALUE :DESCRIPTION
#------------------------------------------------------------------------------
STRT        .M                                           648.1292 :START DEPTH
STOP        .M                                          2685.5647 :STOP DEPTH
STEP        .M                                             0.1524 :STEP
NULL        .                                           -999.2500 :NULL VALUE
COMP        .                                   PEMEX EXPL & PROD :COMPANY
WELL        .                                                 81D :WELL
FLD         .                                           CANTARELL :FIELD
LOC         .                                             UNKNOWN :LOCATION
CNTY        .                                      CD. DEL CARMEN :COUNTY
STAT        .                                            CAMPECHE :STATE
CTRY        .                                              MEXICO :COUNTRY
SRVC        .                                             UNKNOWN :SERVICE COMPANY
DATE        .                                             UNKNOWN :LOG DATE
UWI         .                                          3060000666 :UNIQUE WELL ID
XCOORD      .                                       601717.100000 :SURFACE X
YCOORD      .                                      2142375.260000 :SURFACE Y
LAT         .                                           19.374067 :LATITUDE
LON         .                                          -92.031430 :LONGITUDE
ELEV        .M                                            30.0000 :SURFACE ELEV
ELEV_TYPEF  .b/elec                                            KB :ELEV TYPE
~CURVE INFORMATION
#MNEMONIC.UNIT        API CODE       : CURVE DESCRIPTION
#------------------------------------------------------------------------------
DEPTH    .M                          : Measured Depth
CALI     .in          UNKNOWN        : CALI:UNKNOWN:rC:NONE:v0 (auto-composite)
CGR      .API         UNKNOWN        : CGR:UNKNOWN:rC:NONE:v0 (auto-composite)
DRHO     .g/cm3       UNKNOWN        : DRHO:UNKNOWN:rC:NONE:v0 (auto-composite)
DT       .us/ft       UNKNOWN        : DT:DT:rC:NONE:v0 (auto-composite)
GR       .API         UNKNOWN        : GR:UNKNOWN:rC:NONE:v0 (auto-composite)
ILD      .ohmm        UNKNOWN        : ILD:UNKNOWN:rC:NONE:v0 (auto-composite)
ILM      .ohmm        UNKNOWN        : ILM:UNKNOWN:rC:NONE:v0 (auto-composite)
LLD      .ohmm        UNKNOWN        : LLD:UNKNOWN:rC:NONE:v0 (auto-composite)
LLS      .ohmm        UNKNOWN        : LLS:UNKNOWN:rC:NONE:v0 (auto-composite)
NPHI     .v/v_decimal UNKNOWN        : NPHI:NPHI:rC:NONE:v0 (auto-composite)
PEF      .b/elec      UNKNOWN        : PEF:UNKNOWN:rC:NONE:v0 (auto-composite)
POTA     .%           UNKNOWN        : POTA:UNKNOWN:rC:NONE:v0 (auto-composite)
RHOB     .g/cm3       UNKNOWN        : RHOB:UNKNOWN:rC:NONE:v0 (auto-composite)
THOR     .ppm         UNKNOWN        : THOR:UNKNOWN:rC:NONE:v0 (auto-composite)
URAN     .ppm         UNKNOWN        : URAN:UNKNOWN:rC:NONE:v0 (auto-composite)
~A     DEPTH         CALI          CGR         DRHO           DT           GR          ILD          ILM          LLD          LLS         NPHI          PEF         POTA         RHOB         THOR         URAN
# ...
   2300.4500      10.1126       4.3269    -999.2500    -999.2500      25.5595    -999.2500    -999.2500    3208.1770     923.1456       3.2102    -999.2500       0.0244    -999.2500       1.2579       2.3730
   2300.6023      10.0187       3.8597    -999.2500    -999.2500      27.7892    -999.2500    -999.2500    3130.0103     963.0334       3.5702    -999.2500       0.0274    -999.2500       1.0849       2.6991
   2300.7549       9.9527       5.3217    -999.2500    -999.2500      31.2488    -999.2500    -999.2500    2852.6794     908.1766       4.0413    -999.2500       0.1211    -999.2500       1.2277       2.9035
   2300.9072       9.8932       7.2359    -999.2500    -999.2500      34.9937    -999.2500    -999.2500    2529.1555     831.3452       4.5161    -999.2500       0.2361    -999.2500       1.4446       3.0794
   2301.0596       9.9598       8.3308    -999.2500    -999.2500      37.3623    -999.2500    -999.2500    2148.6016     755.6005       4.8703    -999.2500       0.2479    -999.2500       1.5726       3.2227
   2301.2119      10.0558       9.2327    -999.2500    -999.2500      39.4100    -999.2500    -999.2500    1754.8842     680.1066       5.1321    -999.2500       0.2354    -999.2500       1.6797       3.3582
   2301.3645      10.0392       8.8518    -999.2500    -999.2500      39.2667    -999.2500    -999.2500    1423.0419     588.4312       4.8281    -999.2500       0.1998    -999.2500       1.7862       3.3484
   2301.5168       9.9962       8.1701    -999.2500    -999.2500      38.6094    -999.2500    -999.2500    1105.4121     493.0389       4.4025    -999.2500       0.1588    -999.2500       1.8927       3.3044
   2301.6692       9.9041       8.9166    -999.2500    -999.2500      41.3540    -999.2500    -999.2500     928.8016     428.5528       4.5349    -999.2500       0.1854    -999.2500       1.8661       3.5619
   2301.8215       9.8004      10.0000    -999.2500    -999.2500      44.9010    -999.2500    -999.2500     784.7675     371.2061       4.8788    -999.2500       0.2279    -999.2500       1.8080       3.8905
   2301.9741       9.8216      10.7569    -999.2500    -999.2500      47.6633    -999.2500    -999.2500     739.6755     354.5094       5.1833    -999.2500       0.2773    -999.2500       1.8585       4.1177
   2302.1265       9.8716      11.4371    -999.2500    -999.2500      50.2452    -999.2500    -999.2500     717.3292     347.1575       5.4675    -999.2500       0.3283    -999.2500       1.9345       4.3212
   2302.2788       9.8769      12.8109    -999.2500    -999.2500      51.5480    -999.2500    -999.2500     773.5905     375.4973       5.7895    -999.2500       0.3930    -999.2500       2.0833       4.2912
   2302.4312       9.8719      14.3485    -999.2500    -999.2500      52.5550    -999.2500    -999.2500     848.0255     412.0888       6.1106    -999.2500       0.4611    -999.2500       2.2494       4.2062
   2302.5835       9.8560      13.3609    -999.2500    -999.2500      55.1066    -999.2500    -999.2500     965.6597     457.2064       6.4039    -999.2500       0.4886    -999.2500       1.8548       4.6056
   2302.7361       9.8375      11.7801    -999.2500    -999.2500      58.0174    -999.2500    -999.2500    1093.2330     504.2855       6.6823    -999.2500       0.5066    -999.2500       1.3286       5.1189
   2302.8884       9.8457      10.7032    -999.2500    -999.2500      59.6290    -999.2500    -999.2500    1161.1912     529.9144       6.4460    -999.2500       0.4829    -999.2500       1.0293       5.4197
   2303.0408       9.8602       9.7453    -999.2500    -999.2500      60.9369    -999.2500    -999.2500    1215.3552     550.5800       6.0307    -999.2500       0.4494    -999.2500       0.7838       5.6703
   2303.1931       9.8687       7.9991    -999.2500    -999.2500      56.1384    -999.2500    -999.2500    1001.7579     468.0204       5.3296    -999.2500       0.3143    -999.2500       0.9154       5.3312
   2303.3457       9.8757       6.0674    -999.2500    -999.2500      49.8891    -999.2500    -999.2500     726.5037     361.6913       4.4740    -999.2500       0.1554    -999.2500       1.1359       4.8534
   2303.4980       9.8199       5.6381    -999.2500    -999.2500      47.6613    -999.2500    -999.2500     612.3198     307.2424       4.7104    -999.2500       0.1048    -999.2500       1.2897       4.6475
   2303.6504       9.7492       5.5641    -999.2500    -999.2500      46.3943    -999.2500    -999.2500     535.4359     264.8078       5.1691    -999.2500       0.0798    -999.2500       1.4277       4.5060
   2303.8027       9.8514       4.7882    -999.2500    -999.2500      47.3585    -999.2500    -999.2500     618.4885     302.4376       5.4747    -999.2500       0.0673    -999.2500       1.2448       4.6963
   2303.9553       9.9933       3.8471    -999.2500    -999.2500      48.8368    -999.2500    -999.2500     738.3997     358.5189       5.6767    -999.2500       0.0578    -999.2500       0.9864       4.9646
   2304.1077      10.0269       4.6118    -999.2500    -999.2500      50.9280    -999.2500    -999.2500     900.5517     414.3487       5.5660    -999.2500       0.0948    -999.2500       0.8132       5.1216
   2304.2600      10.0354       5.7803    -999.2500    -999.2500      53.1613    -999.2500    -999.2500    1072.4937     470.1203       5.3489    -999.2500       0.1428    -999.2500       0.6602       5.2521
   2304.4124      10.0419       5.5447    -999.2500    -999.2500      52.3694    -999.2500    -999.2500    1080.5157     464.8958       5.3262    -999.2500       0.1067    -999.2500       0.9314       5.1887
   2304.5647      10.0479       4.9785    -999.2500    -999.2500      50.8651    -999.2500    -999.2500    1050.7301     445.6026       5.3340    -999.2500       0.0506    -999.2500       1.3025       5.0797
   2304.7173      10.0587       5.0496    -999.2500    -999.2500      49.9742    -999.2500    -999.2500    1030.5065     431.1251       5.1541    -999.2500       0.0384    -999.2500       1.4321       4.9780
   2304.8696      10.0708       5.2700    -999.2500    -999.2500      49.2286    -999.2500    -999.2500    1012.5009     417.7647       4.8808    -999.2500       0.0364    -999.2500       1.5051       4.8781
   2305.0220      10.0433       5.1294    -999.2500    -999.2500      49.2780    -999.2500    -999.2500    1048.6447     427.9132       4.6140    -999.2500       0.0368    -999.2500       1.4583       4.8962
   2305.1743      10.0068       4.9039    -999.2500    -999.2500      49.5089    -999.2500    -999.2500    1097.2881     443.4884       4.3640    -999.2500       0.0378    -999.2500       1.3833       4.9423
   2305.3269       9.9009       4.5606    -999.2500    -999.2500      49.4082    -999.2500    -999.2500    1097.6577     450.3817       4.1861    -999.2500       0.0607    -999.2500       1.1561       4.9688
   2305.4792       9.7791       4.1898    -999.2500    -999.2500      49.2315    -999.2500    -999.2500    1086.9379     455.2806       4.0472    -999.2500       0.0887    -999.2500       0.8932       4.9908
   2305.6316       9.7341       3.0085    -999.2500    -999.2500      50.0242    -999.2500    -999.2500    1052.6256     439.7304       4.1296    -999.2500       0.0705    -999.2500       0.6042       5.2091
   2305.7839       9.7071       1.6360    -999.2500    -999.2500      51.0432    -999.2500    -999.2500    1012.8630     419.4560       4.2827    -999.2500       0.0415    -999.2500       0.3091       5.4737
   2305.9365       9.6870       1.2095    -999.2500    -999.2500      52.7949    -999.2500    -999.2500    1077.7657     445.5565       4.5376    -999.2500       0.0368    -999.2500       0.1967       5.7146
   2306.0889       9.6685       1.0050    -999.2500    -999.2500      54.7186    -999.2500    -999.2500    1166.7323     482.3191       4.8466    -999.2500       0.0378    -999.2500       0.1273       5.9500
   2306.2412       9.6909       1.2808    -999.2500    -999.2500      58.7876    -999.2500    -999.2500    1269.0522     519.7361       5.2045    -999.2500       0.0384    -999.2500       0.2127       6.5069
