#------------------------------------------------------------------------------
#
#   Created by  : [OpenWorks] Log Export Utility (LEXP)
#   Created on  : 2016-05-23 11:50:52
#   Project     : CANT971
#   User        : R5K
#   Interpreter : PEP
#
#------------------------------------------------------------------------------
~VERSION INFORMATION
VERS. 2.0 : CWLS Log ASCII Standard - version 2.0
WRAP.  NO : One line per depth step
~WELL INFORMATION
#MNEMONIC   .UNIT                                           VALUE :DESCRIPTION
#------------------------------------------------------------------------------
STRT        .M                                           540.4100 :START DEPTH
STOP        .M                                          3242.0049 :STOP DEPTH
STEP        .M                                             0.1524 :STEP
NULL        .                                           -999.2500 :NULL VALUE
COMP        .                                   PEMEX EXPL & PROD :COMPANY
WELL        .                                                1041 :WELL
FLD         .                                           CANTARELL :FIELD
LOC         .                                             UNKNOWN :LOCATION
CNTY        .                                      CD. DEL CARMEN :COUNTY
STAT        .                                            CAMPECHE :STATE
CTRY        .                                              MEXICO :COUNTRY
SRVC        .                                             UNKNOWN :SERVICE COMPANY
DATE        .                                             UNKNOWN :LOG DATE
UWI         .                                          3060000494 :UNIQUE WELL ID
XCOORD      .                                       596162.660000 :SURFACE X
YCOORD      .                                      2150607.940000 :SURFACE Y
LAT         .                                           19.448736 :LATITUDE
LON         .                                          -92.083900 :LONGITUDE
ELEV        .M                                            30.0000 :SURFACE ELEV
ELEV_TYPE   .                                                  KB :ELEV TYPE
~CURVE INFORMATION
#MNEMONIC.UNIT        API CODE       : CURVE DESCRIPTION
#------------------------------------------------------------------------------
DEPTH    .M                          : Measured Depth
CALI     .inches      UNKNOWN        : CALI:litodensidad:rC:NONE:v0 (auto-composite)
DRHO     .g/cm3      UNKNOWN        : DRHO:DRHO-Load:rC:NONE:v0 (auto-composite)
DT       .us/ft       UNKNOWN        : DT:DT:rC:NONE:v0 (auto-composite)
GR       .API         UNKNOWN        : GR:GR-Load:rC:NONE:v0 (auto-composite)
ILD      .ohmm        UNKNOWN        : ILD:ILD-Load:rC:NONE:v0 (auto-composite)
ILM      .ohmm        UNKNOWN        : ILM:ILM-Load:rC:NONE:v0 (auto-composite)
LLD      .ohmm        UNKNOWN        : LLD:LLD-Load:rC:NONE:v0 (auto-composite)
LLS      .ohmm        UNKNOWN        : LLS:LLS-Load:rC:NONE:v0 (auto-composite)
MSFL     .ohmm        UNKNOWN        : MSFL:MSFL-Load:rC:NONE:v0 (auto-composite)
NPHI     .v/v_decimal UNKNOWN        : NPHI:NPHI-Load:rC:NONE:v0 (auto-composite)
PEF      .b/elec      UNKNOWN        : PEF:PEF-Load:rC:NONE:v0 (auto-composite)
RHOB     .g/cm3       UNKNOWN        : RHOB:RHOB-Load:rC:NONE:v0 (auto-composite)
~A     DEPTH         CALI         DRHO           DT           GR          ILD          ILM          LLD          LLS         MSFL         NPHI          PEF         RHOB
# ...
   2442.3621    -999.2500       0.0080     117.3550      63.7690    -999.2500    -999.2500       2.4080       1.6590       1.9050       0.3031       3.1820       2.3340
   2442.5144    -999.2500       0.0100     117.0360      63.2300    -999.2500    -999.2500       2.6090       1.6960       2.0500       0.2997       3.2440       2.3470
   2442.6667    -999.2500       0.0120     116.7170      62.6910    -999.2500    -999.2500       2.6090       1.7330       2.2060       0.2962       3.3060       2.3590
   2442.8191    -999.2500       0.0130     115.2510      60.4730    -999.2500    -999.2500       2.6020       1.7440       2.2610       0.2919       3.3440       2.3680
   2442.9717    -999.2500       0.0140     113.7830      58.2520    -999.2500    -999.2500       2.5950       1.7550       2.3180       0.2876       3.3820       2.3770
   2443.1240    -999.2500       0.0280     108.3150      59.2800    -999.2500    -999.2500       2.5960       1.7510       1.8220       0.2834       3.3430       2.3820
   2443.2764    -999.2500       0.0280     108.3150      60.3080    -999.2500    -999.2500       2.5960       1.7470       1.8220       0.2834       3.3050       2.3820
   2443.4287    -999.2500       0.0260     110.7970      62.4450    -999.2500    -999.2500       2.5090       1.6880       2.0000       0.2949       3.2730       2.3590
   2443.5811    -999.2500       0.0260     110.7970      62.4450    -999.2500    -999.2500       2.5090       1.6880       2.0000       0.2949       3.2730       2.3590
   2443.7336    -999.2500       0.0240     112.1140      63.0870    -999.2500    -999.2500       2.4050       1.6290       1.8490       0.3035       3.2770       2.3460
   2443.8860    -999.2500       0.0210     113.4300      63.7280    -999.2500    -999.2500       2.3050       1.5710       1.7090       0.3122       3.2810       2.3330
   2444.0383    -999.2500       0.0190     114.1300      65.3820    -999.2500    -999.2500       2.3590       1.6160       1.6570       0.3391       3.2590       2.3180
   2444.1907    -999.2500       0.0160     114.8290      65.3820    -999.2500    -999.2500       2.3590       1.6160       1.6060       0.3391       3.2590       2.3180
   2444.3433    -999.2500       0.0150     115.4140      65.0030    -999.2500    -999.2500       2.3540       1.6130       1.5790       0.3372       3.3070       2.3220
   2444.4956    -999.2500       0.0140     115.9980      64.6240    -999.2500    -999.2500       2.3480       1.6100       1.5520       0.3353       3.3550       2.3260
   2444.6479    -999.2500       0.0150     115.4120      64.2810    -999.2500    -999.2500       2.1860       1.5280       1.4700       0.3274       3.4520       2.3240
   2444.8003    -999.2500       0.0150     114.8260      63.9390    -999.2500    -999.2500       2.1860       1.5280       1.4700       0.3196       3.4520       2.3230
   2444.9529    -999.2500       0.0130     113.3050      63.0160    -999.2500    -999.2500       2.1990       1.5430       1.5160       0.3119       3.4060       2.3190
   2445.1052    -999.2500       0.0120     111.7870      62.0940    -999.2500    -999.2500       2.2120       1.5580       1.5640       0.3041       3.3600       2.3150
   2445.2576    -999.2500       0.0090     109.9800      60.2150    -999.2500    -999.2500       2.2660       1.6800       1.5430       0.2971       3.4400       2.3500
   2445.4099    -999.2500       0.0070     108.1730      58.3360    -999.2500    -999.2500       2.3220       1.6800       1.5430       0.2901       3.5190       2.3500
   2445.5623    -999.2500       0.0050     107.5660      55.2310    -999.2500    -999.2500       2.3490       1.6770       1.7810       0.2839       3.5720       2.3500
   2445.7148    -999.2500       0.0030     106.9580      52.1200    -999.2500    -999.2500       2.3760       1.6750       2.0560       0.2776       3.6240       2.3500
   2445.8672    -999.2500       0.0010     104.7690      52.9810    -999.2500    -999.2500       2.4010       1.6830       1.9030       0.2830       3.4550       2.3170
   2446.0195    -999.2500       0.0010     102.5790      53.8430    -999.2500    -999.2500       2.4010       1.6830       1.7610       0.2885       3.4550       2.3170
   2446.1719    -999.2500       0.0040     101.1050      54.9740    -999.2500    -999.2500       2.3510       1.6640       1.6750       0.2915       3.4700       2.3240
   2446.3245    -999.2500       0.0060      99.6290      56.1070    -999.2500    -999.2500       2.3030       1.6450       1.5930       0.2944       3.4850       2.3310
   2446.4768    -999.2500       0.0110     102.0510      56.0210    -999.2500    -999.2500       2.3600       1.6750       1.6440       0.3045       3.4980       2.3470
   2446.6292    -999.2500       0.0160     102.0510      56.0210    -999.2500    -999.2500       2.4190       1.7060       1.6960       0.3045       3.5100       2.3620
   2446.7815    -999.2500       0.0230      99.3610      56.1710    -999.2500    -999.2500       2.5000       1.7900       1.7390       0.2968       3.5330       2.3700
   2446.9341    -999.2500       0.0300      96.6660      56.3200    -999.2500    -999.2500       2.5830       1.8780       1.7830       0.2892       3.5560       2.3770
   2447.0864    -999.2500       0.0410      93.1220      55.4390    -999.2500    -999.2500       2.5690       1.8700       1.9150       0.2742       3.6070       2.3920
   2447.2388    -999.2500       0.0530      93.1220      54.5570    -999.2500    -999.2500       2.5540       1.8620       2.0570       0.2593       3.6570       2.4070
   2447.3911    -999.2500       0.0700      97.6090      50.2390    -999.2500    -999.2500       2.4380       1.7310       3.0300       0.2426       3.7220       2.4400
   2447.5435    -999.2500       0.0700      97.6090      50.2390    -999.2500    -999.2500       2.4380       1.7310       3.0300       0.2426       3.7220       2.4400
   2447.6960    -999.2500       0.0670     100.0450      48.9820    -999.2500    -999.2500       2.5190       1.7520       2.9840       0.2461       3.6670       2.4390
   2447.8484    -999.2500       0.0640     102.4780      47.7270    -999.2500    -999.2500       2.6030       1.7730       2.9400       0.2496       3.6120       2.4380
   2448.0007    -999.2500       0.0540     103.1470      48.7990    -999.2500    -999.2500       2.7820       1.8800       2.0070       0.2582       3.5370       2.4340
   2448.1531    -999.2500       0.0450     103.8160      49.8720    -999.2500    -999.2500       2.7820       1.8800       2.0070       0.2667       3.5370       2.4300
   2448.3057    -999.2500       0.0370     104.2950      50.5470    -999.2500    -999.2500       2.7080       1.8580       2.0740       0.2758       3.5960       2.4100
   2448.4580    -999.2500       0.0280     104.7740      51.2210    -999.2500    -999.2500       2.6360       1.8350       2.1440       0.2849       3.6550       2.3900
   2448.6104    -999.2500       0.0300     105.3740      52.6210    -999.2500    -999.2500       2.5750       1.8040       1.7510       0.2848       3.8100       2.3920
   2448.7627    -999.2500       0.0300     105.3740      54.0210    -999.2500    -999.2500       2.5150       1.8040       1.7510       0.2847       3.8100       2.3930
   2448.9153    -999.2500       0.0260     104.7580      54.8560    -999.2500    -999.2500       2.4940       1.8140       1.8730       0.2792       3.7790       2.3950
   2449.0676    -999.2500       0.0220     104.1430      55.6900    -999.2500    -999.2500       2.4740       1.8250       2.0030       0.2738       3.7490       2.3970
   2449.2200    -999.2500       0.0140     103.2470      55.6170    -999.2500    -999.2500       2.5330       1.8520       2.0700       0.2691       3.7220       2.3970
   2449.3723    -999.2500       0.0140     102.3510      55.5440    -999.2500    -999.2500       2.5930       1.8800       2.1380       0.2644       3.7220       2.3980
   2449.5247    -999.2500       0.0230     101.2700      55.2620    -999.2500    -999.2500       2.7270       1.9670       2.1750       0.2591       3.7680       2.4000
