#------------------------------------------------------------------------------
#
#   Created by  : [OpenWorks] Log Export Utility (LEXP)
#   Created on  : 2016-05-23 11:57:02
#   Project     : CANT971
#   User        : R5K
#   Interpreter : PEP
#
#------------------------------------------------------------------------------
~VERSION INFORMATION
VERS. 2.0 : CWLS Log ASCII Standard - version 2.0
WRAP.  NO : One line per depth step
~WELL INFORMATION
#MNEMONIC   .UNIT                                           VALUE :DESCRIPTION
#------------------------------------------------------------------------------
STRT        .M                                           493.3184 :START DEPTH
STOP        .M                                          2467.0508 :STOP DEPTH
STEP        .M                                             0.1524 :STEP
NULL        .                                           -999.2500 :NULL VALUE
COMP        .                                   PEMEX EXPL & PROD :COMPANY
WELL        .                                                  63 :WELL
FLD         .                                           CANTARELL :FIELD
LOC         .                                             UNKNOWN :LOCATION
CNTY        .                                      CD. DEL CARMEN :COUNTY
STAT        .                                            CAMPECHE :STATE
CTRY        .                                              MEXICO :COUNTRY
SRVC        .                                             UNKNOWN :SERVICE COMPANY
DATE        .                                             UNKNOWN :LOG DATE
UWI         .                                          3060000615 :UNIQUE WELL ID
XCOORD      .                                       601716.240000 :SURFACE X
YCOORD      .                                      2142344.800000 :SURFACE Y
LAT         .                                           19.373792 :LATITUDE
LON         .                                          -92.031441 :LONGITUDE
ELEV        .M                                            24.0000 :SURFACE ELEV
ELEV_TYPE   .                                                  KB :ELEV TYPE
~CURVE INFORMATION
#MNEMONIC.UNIT        API CODE       : CURVE DESCRIPTION
#------------------------------------------------------------------------------
DEPTH    .M                          : Measured Depth
CALI     .inches      UNKNOWN        : CALI:Import:rC:NONE:v0 (auto-composite)
DRHO     .g/cm3       UNKNOWN        : DRHO:Import:rC:NONE:v0 (auto-composite)
DT       .us/ft       UNKNOWN        : DT:Import:rC:NONE:v0 (auto-composite)
GR       .API         UNKNOWN        : GR:Import:rC:NONE:v0 (auto-composite)
ILD      .ohm.m       UNKNOWN        : ILD:Import:rC:NONE:v0 (auto-composite)
ILM      .ohm.m       UNKNOWN        : ILM:Import:rC:NONE:v0 (auto-composite)
LLD      .ohm.m       UNKNOWN        : LLD:Import:rC:NONE:v0 (auto-composite)
LLS      .ohm.m       UNKNOWN        : LLS:Import:rC:NONE:v0 (auto-composite)
MSFL     .ohm.m       UNKNOWN        : MSFL:Import:rC:NONE:v0 (auto-composite)
NPHI     .v/v_decimal UNKNOWN        : NPHI:Import:rC:NONE:v0 (auto-composite)
PEF      .b/elec      UNKNOWN        : PEF:Import:rC:NONE:v0 (auto-composite)
RHOB     .g/cm3       UNKNOWN        : RHOB:Import:rC:NONE:v0 (auto-composite)
~A     DEPTH         CALI         DRHO           DT           GR          ILD          ILM          LLD          LLS         MSFL         NPHI          PEF         RHOB
# ...
   2051.4561       6.0080       0.0120      49.6778      30.6169    -999.2500    -999.2500    3006.8445     813.0221    1092.6542       0.0506       3.1845       2.7685
   2051.6084       6.0080       0.0120      49.2000      30.2730    -999.2500    -999.2500    2901.7261     804.0320     462.6250       0.0466       3.2770       2.7740
   2051.7607       6.0475       0.0145      49.8037      31.0904    -999.2500    -999.2500    2842.6733     785.3722     751.4750       0.0460       3.2035       2.7820
   2051.9131       6.0870       0.0170      50.4070      31.9100    -999.2500    -999.2500    2783.5591     766.6930    1040.6250       0.0479       3.1300       2.7900
   2052.0657       6.1225       0.0210      51.6913      33.3600    -999.2500    -999.2500    2937.1006     800.4398     668.0371       0.0535       3.3404       2.7850
   2052.2180       6.1580       0.0250      52.9750      34.8140    -999.2500    -999.2500    3090.8210     834.2260     295.0150       0.0613       3.5510       2.7800
   2052.3704       6.1650       0.0290      55.3149      36.2998    -999.2500    -999.2500    3868.1216    1011.8080     259.5614       0.0718       3.4716       2.7690
   2052.5227       6.1720       0.0330      57.6540      37.7900    -999.2500    -999.2500    4646.4248    1189.6190     224.0620       0.0832       3.3920       2.7580
   2052.6750       6.1720       0.0320      59.9022      42.8718    -999.2500    -999.2500    5853.4058    1417.9912     392.9673       0.0947       3.1722       2.7200
   2052.8276       6.1720       0.0310      62.1500      47.9690    -999.2500    -999.2500    7062.0972    1646.6870     562.1120       0.1002       2.9520       2.6820
   2052.9800       6.1610       0.0430      58.5779      46.8802    -999.2500    -999.2500    7352.0908    1778.5129     917.1594       0.0891       2.9985       2.6665
   2053.1323       6.1500       0.0550      55.0060      45.7880    -999.2500    -999.2500    7642.0669    1910.5420    1272.7540       0.0731       3.0450       2.6510
   2053.2847       6.1065       0.0540      53.3001      43.4524    -999.2500    -999.2500    8624.1348    2333.9788    1424.6837       0.0598       3.1869       2.7075
   2053.4373       6.0630       0.0530      51.5940      41.1130    -999.2500    -999.2500    9606.2656    2758.1221    1576.8669       0.0495       3.3290       2.7640
   2053.5896       6.0480       0.0470      51.1220      36.9273    -999.2500    -999.2500   10018.8242    2947.1230    1788.4133       0.0451       3.4015       2.7770
   2053.7419       6.0330       0.0410      50.6500      32.7340    -999.2500    -999.2500   10431.4609    3136.1599    2000.0000       0.0429       3.4740       2.7900
   2053.8943       6.0555       0.0375      49.9001      30.1000    -999.2500    -999.2500    9281.3330    2695.4316    1926.5681       0.0410       3.4005       2.7960
   2054.0469       6.0780       0.0340      49.1500      27.4610    -999.2500    -999.2500    8130.8428    2254.5640    1853.1130       0.0396       3.3270       2.8020
   2054.1992       6.0645       0.0320      50.1248      28.4520    -999.2500    -999.2500    8319.4131    2229.4490    1631.5439       0.0390       3.3455       2.7985
   2054.3516       6.0510       0.0300      51.1000      29.4450    -999.2500    -999.2500    8508.0664    2204.3230    1409.8770       0.0384       3.3640       2.7950
   2054.5039       6.0410       0.0295      50.9730      28.3432    -999.2500    -999.2500   10279.4971    2767.8958     925.8552       0.0372       3.4840       2.7905
   2054.6562       6.0310       0.0290      50.8460      27.2390    -999.2500    -999.2500   12051.9326    3331.7881     441.5590       0.0359       3.6040       2.7860
   2054.8088       6.0195       0.0285      49.9733      26.1028    -999.2500    -999.2500   14528.7725    4439.8779     384.4243       0.0352       3.2861       2.7800
   2054.9612       6.0080       0.0280      49.1000      24.9640    -999.2500    -999.2500   17007.3301    5548.7358     327.2500       0.0350       2.9680       2.7740
   2055.1135       6.0240       0.0310      49.2751      24.4786    -999.2500    -999.2500   15645.6377    5962.3892     907.6376       0.0356       3.0525       2.7910
   2055.2659       6.0400       0.0340      49.4500      23.9920    -999.2500    -999.2500   14282.8311    6376.3809    1488.5000       0.0363       3.1370       2.8080
   2055.4185       6.0755       0.0355      48.8248      24.5658    -999.2500    -999.2500   14974.0166    6527.9976    1247.3014       0.0367       3.2449       2.8050
   2055.5708       6.1110       0.0370      48.2000      25.1410    -999.2500    -999.2500   15665.8555    6679.7578    1005.8750       0.0370       3.3530       2.8020
   2055.7231       6.1070       0.0400      48.2375      25.0941    -999.2500    -999.2500   15558.2100    7931.7974    1303.7782       0.0378       3.3005       2.8105
   2055.8755       6.1030       0.0430      48.2750      25.0470    -999.2500    -999.2500   15450.4492    9185.1758    1602.0000       0.0390       3.2480       2.8190
   2056.0281       6.0555       0.0430      48.5996      25.1968    -999.2500    -999.2500   14387.6436    9044.8398    1591.5038       0.0405       3.2490       2.8190
   2056.1804       6.0080       0.0430      48.9240      25.3470    -999.2500    -999.2500   13323.5664    8904.3359    1580.9950       0.0419       3.2500       2.8190
   2056.3328       6.0080       0.0405      49.3551      30.5579    -999.2500    -999.2500    9153.6406    6163.2866    1317.8538       0.0426       3.2460       2.8180
   2056.4851       6.0080       0.0380      49.7860      35.7840    -999.2500    -999.2500    4978.2070    3418.6169    1054.3650       0.0452       3.2420       2.8170
   2056.6375       6.0100       0.0315      52.1932      60.2921    -999.2500    -999.2500    3614.7083    2566.4333     945.8860       0.0539       3.0916       2.7955
   2056.7900       6.0120       0.0250      54.6000      84.8750    -999.2500    -999.2500    2249.2351    1713.0160     837.2500       0.0664       2.9410       2.7740
   2056.9424       6.0170       0.0285      58.0186      99.4768    -999.2500    -999.2500    1736.8699    1328.9089    1005.1285       0.0839       3.0434       2.7525
   2057.0947       6.0220       0.0320      61.4370     114.1250    -999.2500    -999.2500    1224.5200     944.1980    1173.2710       0.1074       3.1460       2.7310
   2057.2471       6.0530       0.0290      64.2434     107.1080    -999.2500    -999.2500    1156.7242     994.3679    1305.7729       0.1446       3.1250       2.6581
   2057.3997       6.0840       0.0260      67.0500     100.0790    -999.2500    -999.2500    1088.9220    1044.6230    1438.5000       0.1765       3.1040       2.5850
   2057.5520       6.0780       0.0185      64.8872      89.4797    -999.2500    -999.2500    1229.8429    1319.1997     929.5563       0.1793       3.0455       2.5885
   2057.7043       6.0720       0.0110      62.7240      78.8610    -999.2500    -999.2500    1370.7950    1593.8370     420.5000       0.1674       2.9870       2.5920
   2057.8567       6.0990       0.0130      61.1623      64.2103    -999.2500    -999.2500    1357.5343    1564.4391     443.7960       0.1396       2.9585       2.6315
   2058.0093       6.1260       0.0150      59.6000      49.5310    -999.2500    -999.2500    1344.2690    1535.0310     467.1000       0.1133       2.9300       2.6710
   2058.1616       6.1405       0.0140      61.8995      49.6104    -999.2500    -999.2500    1213.4929    1319.3319     597.6027       0.1073       2.9975       2.6710
   2058.3140       6.1550       0.0130      64.2000      49.6900    -999.2500    -999.2500    1082.6550    1103.5310     728.1670       0.1092       3.0650       2.6710
   2058.4663       6.1635       0.0135      64.1895      50.9916    -999.2500    -999.2500    1085.3472    1107.1544     858.1837       0.1157       3.0650       2.6640
   2058.6187       6.1720       0.0140      64.1790      52.2960    -999.2500    -999.2500    1088.0410    1110.7800     988.2780       0.1233       3.0650       2.6570
