#------------------------------------------------------------------------------
#
#   Created by  : [OpenWorks] Log Export Utility (LEXP)
#   Created on  : 2016-05-23 11:56:05
#   Project     : CANT971
#   User        : R5K
#   Interpreter : PEP
#
#------------------------------------------------------------------------------
~VERSION INFORMATION
VERS. 2.0 : CWLS Log ASCII Standard - version 2.0
WRAP.  NO : One line per depth step
~WELL INFORMATION
#MNEMONIC   .UNIT                                           VALUE :DESCRIPTION
#------------------------------------------------------------------------------
STRT        .M                                          1100.3549 :START DEPTH
STOP        .M                                          2766.5439 :STOP DEPTH
STEP        .M                                             0.1524 :STEP
NULL        .                                           -999.2500 :NULL VALUE
COMP        .                                   PEMEX EXPL & PROD :COMPANY
WELL        .                                                  43 :WELL
FLD         .                                           CANTARELL :FIELD
LOC         .                                             UNKNOWN :LOCATION
CNTY        .                                      CD. DEL CARMEN :COUNTY
STAT        .                                            CAMPECHE :STATE
CTRY        .                                              MEXICO :COUNTRY
SRVC        .                                             UNKNOWN :SERVICE COMPANY
DATE        .                                             UNKNOWN :LOG DATE
UWI         .                                          3060000465 :UNIQUE WELL ID
XCOORD      .                                       601717.960000 :SURFACE X
YCOORD      .                                      2142346.560000 :SURFACE Y
LAT         .                                           19.373808 :LATITUDE
LON         .                                          -92.031425 :LONGITUDE
ELEV        .M                                            24.0000 :SURFACE ELEV
ELEV_TYPE   .                                                  KB :ELEV TYPE
~CURVE INFORMATION
#MNEMONIC.UNIT        API CODE       : CURVE DESCRIPTION
#------------------------------------------------------------------------------
DEPTH    .M                          : Measured Depth
CAL      .inches      UNKNOWN        : CAL:UNKNOWN:rC:NONE:v0 (auto-composite)
CALI     .in          UNKNOWN        : CALI:UNKNOWN:rC:NONE:v0 (auto-composite)
CNL      .v/v_decimal UNKNOWN        : CNL:UNKNOWN:rC:NONE:v0 (auto-composite)
DT       .us/ft       UNKNOWN        : DT:DT:rC:NONE:v0 (auto-composite)
GR       .API         UNKNOWN        : GR:UNKNOWN:rC:NONE:v0 (auto-composite)
ILD      .ohmm        UNKNOWN        : ILD:UNKNOWN:rC:NONE:v0 (auto-composite)
ILM      .ohmm        UNKNOWN        : ILM:UNKNOWN:rC:NONE:v0 (auto-composite)
LLD      .ohmm        UNKNOWN        : LLD:UNKNOWN:rC:NONE:v0 (auto-composite)
LLS      .ohmm        UNKNOWN        : LLS:UNKNOWN:rC:NONE:v0 (auto-composite)
NPHI     .v/v_decimal UNKNOWN        : NPHI:UNKNOWN:rC:NONE:v0 (auto-composite)
PEF      .b/elec      UNKNOWN        : PEF:UNKNOWN:rC:NONE:v0 (auto-composite)
RHOB     .g/cm3       UNKNOWN        : RHOB:UNKNOWN:rC:NONE:v0 (auto-composite)
~A     DEPTH          CAL         CALI          CNL           DT           GR          ILD          ILM          LLD          LLS         NPHI          PEF         RHOB
# ...
   1802.6140    -999.2500      11.5994    -999.2500    -999.2500      49.5969    -999.2500    -999.2500       8.2026       3.2692      -1.9786       3.7414       2.3564
   1802.7665    -999.2500      11.6973    -999.2500    -999.2500      50.1437    -999.2500    -999.2500       7.3035       2.9713      -1.8977       3.5915       2.2739
   1802.9188    -999.2500      11.7777    -999.2500    -999.2500      50.4922    -999.2500    -999.2500       6.6339       2.7379      -1.8184       3.4457       2.2171
   1803.0713    -999.2500      11.7762    -999.2500    -999.2500      49.9152    -999.2500    -999.2500       7.0355       2.8053      -1.7470       3.3193       2.2801
   1803.2236    -999.2500      11.7701    -999.2500    -999.2500      49.2499    -999.2500    -999.2500       7.5648       2.9711      -1.6691       3.1962       2.3451
   1803.3761    -999.2500      11.7420    -999.2500    -999.2500      48.1679    -999.2500    -999.2500       8.6964       3.6008      -1.5608       3.0884       2.4204
   1803.5284    -999.2500      11.7659    -999.2500    -999.2500      47.5160    -999.2500    -999.2500      10.1098       4.7430      -1.4525       3.0021       2.4863
   1803.6809    -999.2500      12.0262    -999.2500    -999.2500      48.8195    -999.2500    -999.2500      12.8035       8.2146      -1.3446       3.0136       2.5103
   1803.8333    -999.2500      12.3677    -999.2500    -999.2500      50.1593    -999.2500    -999.2500      14.6044      10.7814      -1.1899       3.0559       2.5323
   1803.9857    -999.2500      13.0824    -999.2500    -999.2500      51.6667    -999.2500    -999.2500      12.3004       9.1886      -0.8201       3.2404       2.5453
   1804.1381    -999.2500      13.8678    -999.2500    -999.2500      52.5956    -999.2500    -999.2500       9.7323       7.3863      -0.4006       3.4386       2.5530
   1804.2904    -999.2500      14.9804    -999.2500    -999.2500      50.8501    -999.2500    -999.2500       5.9429       4.6151       0.2483       3.7009       2.5360
   1804.4429    -999.2500      15.8953    -999.2500    -999.2500      49.1327    -999.2500    -999.2500       2.9317       2.3358       0.8835       3.9341       2.5222
   1804.5952    -999.2500      15.8858    -999.2500    -999.2500      47.5469    -999.2500    -999.2500       3.5599       2.3573       1.4543       4.0310       2.5232
   1804.7477    -999.2500      15.7929    -999.2500    -999.2500      45.9248    -999.2500    -999.2500       4.0661       2.4229       2.0386       4.1110       2.5263
   1804.9000    -999.2500      15.3072    -999.2500    -999.2500      44.1320    -999.2500    -999.2500       3.9985       2.6960       2.6866       4.1110       2.5393
   1805.0525    -999.2500      14.7803    -999.2500    -999.2500      41.8546    -999.2500    -999.2500       3.9792       3.0125       3.1669       4.1101       2.5544
   1805.2048    -999.2500      14.0657    -999.2500    -999.2500      37.3696    -999.2500    -999.2500       4.1801       3.5263       2.8830       4.1051       2.5789
   1805.3573    -999.2500      13.2382    -999.2500    -999.2500      33.8642    -999.2500    -999.2500       4.6189       4.2003       2.4990       4.0839       2.5957
   1805.5096    -999.2500      11.8938    -999.2500    -999.2500      34.8479    -999.2500    -999.2500       6.1476       5.6086       1.6562       3.9885       2.5772
   1805.6621    -999.2500      10.7946    -999.2500    -999.2500      35.8205    -999.2500    -999.2500       7.3219       6.7324       0.8598       3.9204       2.5623
   1805.8145    -999.2500      10.8315    -999.2500    -999.2500      36.7416    -999.2500    -999.2500       6.8536       6.5375       0.2786       3.9789       2.5638
   1805.9669    -999.2500      10.8938    -999.2500    -999.2500      37.3897    -999.2500    -999.2500       6.3835       6.2834      -0.2405       4.0409       2.5663
   1806.1193    -999.2500      11.0736    -999.2500    -999.2500      36.7652    -999.2500    -999.2500       5.9049       5.7533      -0.4698       4.1193       2.5738
   1806.2716    -999.2500      11.2215    -999.2500    -999.2500      35.9293    -999.2500    -999.2500       5.4867       5.3378      -0.6415       4.1951       2.5788
   1806.4241    -999.2500      11.2185    -999.2500    -999.2500      34.0962    -999.2500    -999.2500       5.3533       5.4627      -0.5412       4.2582       2.5718
   1806.5764    -999.2500      11.2065    -999.2500    -999.2500      32.8420    -999.2500    -999.2500       5.1757       5.5607      -0.4447       4.2933       2.5643
   1806.7289    -999.2500      11.1541    -999.2500    -999.2500      34.2158    -999.2500    -999.2500       4.7976       5.5367      -0.3652       4.2009       2.5548
   1806.8812    -999.2500      11.1110    -999.2500    -999.2500      35.1653    -999.2500    -999.2500       4.4908       5.3899      -0.3023       4.0340       2.5381
   1807.0337    -999.2500      11.1110    -999.2500    -999.2500      34.1661    -999.2500    -999.2500       4.5117       4.6790      -0.3153       3.5255       2.4881
   1807.1860    -999.2500      11.1123    -999.2500    -999.2500      33.5155    -999.2500    -999.2500       4.5456       4.0940      -0.3591       3.0356       2.4286
   1807.3385    -999.2500      11.1198    -999.2500    -999.2500      34.4836    -999.2500    -999.2500       4.6396       4.0940      -0.5460       2.6328       2.3246
   1807.4908    -999.2500      11.1381    -999.2500    -999.2500      34.4635    -999.2500    -999.2500       4.6913       4.0904      -0.6957       2.2867       2.2187
   1807.6433    -999.2500      11.2065    -999.2500    -999.2500      29.8269    -999.2500    -999.2500       4.5454       4.0699      -0.6712       2.2058       2.1038
   1807.7957    -999.2500      11.2826    -999.2500    -999.2500      26.4261    -999.2500    -999.2500       4.3669       4.0200      -0.6112       2.1513       1.9898
   1807.9480    -999.2500      11.3949    -999.2500    -999.2500      28.8658    -999.2500    -999.2500       4.0345       3.8310      -0.3830       2.2220       1.8800
   1808.1005    -999.2500      11.5105    -999.2500    -999.2500      31.9140    -999.2500    -999.2500       3.7110       3.5899      -0.1636       2.3400       1.7770
   1808.2528    -999.2500      11.6409    -999.2500    -999.2500      37.7301    -999.2500    -999.2500       3.4277       3.1118       0.0163       2.6733       1.7051
   1808.4053    -999.2500      11.7309    -999.2500    -999.2500      43.5835    -999.2500    -999.2500       3.1747       2.7200       0.1183       3.0000       1.6660
   1808.5576    -999.2500      11.6349    -999.2500    -999.2500      49.6079    -999.2500    -999.2500       3.0613       2.7255      -0.1376       3.2969       1.7779
   1808.7101    -999.2500      11.5576    -999.2500    -999.2500      53.9202    -999.2500    -999.2500       2.9390       2.7399      -0.4021       3.5522       1.8977
   1808.8624    -999.2500      11.5666    -999.2500    -999.2500      50.3077    -999.2500    -999.2500       2.7756       2.7953      -0.7063       3.6151       2.0536
   1809.0149    -999.2500      11.5872    -999.2500    -999.2500      46.7192    -999.2500    -999.2500       2.6160       2.8303      -0.9344       3.6670       2.2031
   1809.1672    -999.2500      11.6622    -999.2500    -999.2500      43.2427    -999.2500    -999.2500       2.4741       2.7693      -0.8060       3.6670       2.3231
   1809.3197    -999.2500      11.7580    -999.2500    -999.2500      40.6932    -999.2500    -999.2500       2.3491       2.7190      -0.7046       3.6653       2.4218
   1809.4720    -999.2500      11.9519    -999.2500    -999.2500      42.5100    -999.2500    -999.2500       2.3040       2.7190      -0.7306       3.6558       2.4208
   1809.6245    -999.2500      12.0978    -999.2500    -999.2500      43.9088    -999.2500    -999.2500       2.3146       2.7159      -0.8315       3.6097       2.4178
   1809.7769    -999.2500      12.0243    -999.2500    -999.2500      43.4021    -999.2500    -999.2500       2.5789       2.6984      -1.2733       3.3968       2.4058
