#------------------------------------------------------------------------------
#
#   Created by  : [OpenWorks] Log Export Utility (LEXP)
#   Created on  : 2016-05-23 11:50:53
#   Project     : CANT971
#   User        : R5K
#   Interpreter : PEP
#
#------------------------------------------------------------------------------
~VERSION INFORMATION
VERS. 2.0 : CWLS Log ASCII Standard - version 2.0
WRAP.  NO : One line per depth step
~WELL INFORMATION
#MNEMONIC   .UNIT                                           VALUE :DESCRIPTION
#------------------------------------------------------------------------------
STRT        .M                                           494.4622 :START DEPTH
STOP        .M                                          2707.4626 :STOP DEPTH
STEP        .M                                             0.1524 :STEP
NULL        .                                           -999.2500 :NULL VALUE
COMP        .                                   PEMEX EXPL & PROD :COMPANY
WELL        .                                                1042 :WELL
FLD         .                                           CANTARELL :FIELD
LOC         .                                             UNKNOWN :LOCATION
CNTY        .                                      CD. DEL CARMEN :COUNTY
STAT        .                                            CAMPECHE :STATE
CTRY        .                                              MEXICO :COUNTRY
SRVC        .                                             UNKNOWN :SERVICE COMPANY
DATE        .                                             UNKNOWN :LOG DATE
UWI         .                                          3060000495 :UNIQUE WELL ID
XCOORD      .                                       596162.680000 :SURFACE X
YCOORD      .                                      2150604.600000 :SURFACE Y
LAT         .                                           19.448706 :LATITUDE
LON         .                                          -92.083900 :LONGITUDE
ELEV        .M                                            30.0000 :SURFACE ELEV
ELEV_TYPE   .                                                  KB :ELEV TYPE
~CURVE INFORMATION
#MNEMONIC.UNIT        API CODE       : CURVE DESCRIPTION
#------------------------------------------------------------------------------
DEPTH    .M                          : Measured Depth
CALI     .inches      UNKNOWN        : CALI:litodensidad:rC:NONE:v0 (auto-composite)
DT       .us/ft       UNKNOWN        : DT:DT:rC:NONE:v0 (auto-composite)
GR       .API         UNKNOWN        : GR:GR-Load:rC:NONE:v0 (auto-composite)
ILD      .ohmm        UNKNOWN        : ILD:UNKNOWN:rC:NONE:v0 (auto-composite)
LLD      .ohmm        UNKNOWN        : LLD:UNKNOWN:rC:NONE:v0 (auto-composite)
LLS      .ohmm        UNKNOWN        : LLS:UNKNOWN:rC:NONE:v0 (auto-composite)
MSFL     .ohmm        UNKNOWN        : MSFL:UNKNOWN:rC:NONE:v0 (auto-composite)
NPHI     .v/v_decimal UNKNOWN        : NPHI:NPHI:rC:NONE:v0 (auto-composite)
~A     DEPTH         CALI           DT           GR          ILD          LLD          LLS         MSFL         NPHI
# ...
   2439.8481       8.2203    -999.2500      21.7270       0.2000     194.9978     108.5633      32.0184       0.0574
   2440.0007       8.2061    -999.2500      23.8453       0.2000     278.7259     145.0114      46.7853       0.0542
   2440.1531       8.1446    -999.2500      27.2888       0.2000     354.3965     182.2808      45.2954       0.0529
   2440.3054       8.0818    -999.2500      28.2778       0.2000     426.5324     219.9106      36.6740       0.0533
   2440.4578       8.0178    -999.2500      26.7968       0.2000     472.3639     261.8149      35.7996       0.0554
   2440.6104       7.9757    -999.2500      26.3214       0.2000     506.9555     305.5456      38.2354       0.0583
   2440.7627       7.9552    -999.2500      26.8552       0.2000     481.9164     323.7018      36.2430       0.0620
   2440.9150       7.9382    -999.2500      27.3281       0.2000     431.8737     331.1344      32.3938       0.0632
   2441.0674       7.9247    -999.2500      27.7398       0.2000     367.4226     302.6874      24.6139       0.0619
   2441.2200       7.9255    -999.2500      28.6010       0.2000     297.0897     259.5934      15.2294       0.0592
   2441.3723       7.9405    -999.2500      29.9134       0.2000     234.0390     216.6717      38.5915       0.0548
   2441.5247       7.9545    -999.2500      30.0482       0.2000     173.8818     173.8184      74.9643       0.0533
   2441.6770       7.9675    -999.2500      29.0042       0.2000     149.7394     156.8943      86.8534       0.0546
   2441.8293       7.9770    -999.2500      27.9904       0.2000     139.5196     149.9936      89.2776       0.0572
   2441.9819       7.9830    -999.2500      27.0070       0.2000     208.1047     203.4901      91.4320       0.0610
   2442.1343       7.9953    -999.2500      23.9937       0.2000     306.3203     279.6959      93.4851       0.0681
   2442.2866       8.0138    -999.2500      18.9474       0.2000     727.8661     580.6172     115.0546       0.0784
   2442.4390       8.0748    -999.2500      17.8028       0.2000    1268.5830     964.3630     143.8173       0.0906
   2442.5916       8.1778    -999.2500      20.5794       0.2000    1532.9130    1160.1129     182.7243       0.1046
   2442.7439       8.2054    -999.2500      21.6185       0.2000    1698.2222    1288.5099     225.2658       0.1071
   2442.8962       8.1583    -999.2500      20.9168       0.2000    1683.7455    1290.4502     236.8238       0.0982
   2443.0486       8.0829    -999.2500      19.8921       0.2000    1606.6823    1248.3690     237.5959       0.0793
   2443.2009       7.9795    -999.2500      18.5426       0.2000    1303.4380    1010.2849     230.7793       0.0505
   2443.3535       7.9096    -999.2500      18.3954       0.2000     923.7184     705.9292     221.3968       0.0362
   2443.5059       7.8731    -999.2500      19.4534       0.2000     633.8956     472.6591     171.3745       0.0364
   2443.6582       7.8560    -999.2500      19.2828       0.2000     373.5825     262.7237     108.0119       0.0372
   2443.8105       7.8580    -999.2500      17.8763       0.2000     265.5386     185.3536      60.0866       0.0387
   2443.9631       7.8603    -999.2500      18.2038       0.2000     206.0003     150.2123      17.0788       0.0416
   2444.1155       7.8628    -999.2500      20.2704       0.2000     181.2753     141.3614       5.0798       0.0460
   2444.2678       7.8665    -999.2500      22.4340       0.2000     167.4029     140.7061       2.7474       0.0517
   2444.4202       7.8715    -999.2500      24.6954       0.2000     157.6381     137.7099       1.7005       0.0588
   2444.5728       7.9087    -999.2500      25.5306       0.2000     149.1150     134.0061       1.0422       0.0655
   2444.7251       7.9777    -999.2500      24.9349       0.2000     132.6064     119.4480       2.1138       0.0718
   2444.8774       8.0381    -999.2500      23.6364       0.2000     113.7587     101.7103       3.6922       0.0822
   2445.0298       8.0901    -999.2500      21.6301       0.2000     109.5313      94.9736       8.1619       0.0965
   2445.1821       8.1321    -999.2500      20.3110       0.2000     109.4521      91.3580      13.4521       0.1065
   2445.3347       8.1641    -999.2500      19.6818       0.2000     131.4239     102.1096      21.5692       0.1124
   2445.4871       8.1770    -999.2500      20.0663       0.2000     159.4521     116.8070      30.4627       0.1129
   2445.6394       8.1710    -999.2500      21.4657       0.2000     208.0838     144.3735      23.2783       0.1082
   2445.7917       8.1349    -999.2500      23.3243       0.2000     262.2429     175.3925      11.7804       0.1137
   2445.9443       8.0688    -999.2500      25.6442       0.2000     289.1988     187.6868      20.1176       0.1293
   2446.0967       8.0053    -999.2500      26.0000       0.2000     309.0974     195.1234      33.6005       0.1482
   2446.2490       7.9443    -999.2500      24.3887       0.2000     314.4278     188.5273      52.3823       0.1705
   2446.4014       7.9029    -999.2500      23.2829       0.2000     316.1060     178.4132      72.4925       0.1789
   2446.5540       7.8809    -999.2500      22.6852       0.2000     312.6429     168.3973      69.5944       0.1737
   2446.7063       7.8660    -999.2500      21.4139       0.2000     307.9354     158.4051      61.1264       0.1566
   2446.8586       7.8580    -999.2500      19.4677       0.2000     314.1890     154.6754      83.3873       0.1276
   2447.0110       7.8399    -999.2500      18.7277       0.2000     323.0029     152.4087     112.8259       0.1078
   2447.1633       7.8119    -999.2500      19.2004       0.2000     324.3359     150.4672      86.0357       0.0971
   2447.3159       7.8023    -999.2500      19.0512       0.2000     323.9843     148.5990      46.5824       0.1015
   2447.4683       7.8108    -999.2500      18.2785       0.2000     317.4482     147.5808      43.4661       0.1209
   2447.6206       7.8193    -999.2500      18.3603       0.2000     309.5558     146.7490      48.3190       0.1305
   2447.7729       7.8278    -999.2500      19.3016       0.2000     277.1443     135.0907      60.6154       0.1303
   2447.9255       7.8310    -999.2500      19.5100       0.2000     239.5562     121.1465      74.4834       0.1272
   2448.0779       7.8290    -999.2500      18.9832       0.2000     202.6615     103.4456      58.5451       0.1213
   2448.2302       7.8270    -999.2500      19.3861       0.2000     165.9076      84.9819      36.5546       0.1106
   2448.3826       7.8250    -999.2500      20.7246       0.2000     150.2790      77.3106      22.9366       0.0953
   2448.5352       7.8237    -999.2500      22.2840       0.2000     138.7716      71.7447      10.9519       0.0889
   2448.6875       7.8232    -999.2500      24.0653       0.2000     135.0019      70.1526       8.7143       0.0915
   2448.8398       7.8248    -999.2500      26.3905       0.2000     132.6809      69.3044       8.3015       0.0983
   2448.9922       7.8283    -999.2500      29.2636       0.2000     135.8546      71.4631      21.5513       0.1092
   2449.1445       7.8290    -999.2500      30.1704       0.2000     140.0267      74.1681      37.2834       0.1210
   2449.2971       7.8270    -999.2500      29.1030       0.2000     157.8316      81.9408      66.5869       0.1337
   2449.4495       7.8157    -999.2500      27.7518       0.2000     178.0085      90.5953      98.2516       0.1417
   2449.6018       7.7952    -999.2500      26.1165       0.2000     185.4869      92.4817      77.8371       0.1451
   2449.7542       7.7810    -999.2500      23.5229       0.2000     190.8523      93.2418      48.7565       0.1460
   2449.9067       7.7730    -999.2500      19.9666       0.2000     188.0053      89.0235      28.7375       0.1445
   2450.0591       7.7743    -999.2500      19.8804       0.2000     183.8533      84.0141      10.1585       0.1384
   2450.2114       7.7848    -999.2500      23.2700       0.2000     188.5290      85.1280       7.0478       0.1278
