#------------------------------------------------------------------------------
#
#   Created by  : [OpenWorks] Log Export Utility (LEXP)
#   Created on  : 2016-05-23 11:52:25
#   Project     : CANT971
#   User        : R5K
#   Interpreter : PEP
#
#------------------------------------------------------------------------------
~VERSION INFORMATION
VERS. 2.0 : CWLS Log ASCII Standard - version 2.0
WRAP.  NO : One line per depth step
~WELL INFORMATION
#MNEMONIC   .UNIT                                           VALUE :DESCRIPTION
#------------------------------------------------------------------------------
STRT        .M                                           940.1293 :START DEPTH
STOP        .M                                          2672.0029 :STOP DEPTH
STEP        .M                                             0.1524 :STEP
NULL        .                                           -999.2500 :NULL VALUE
COMP        .                                   PEMEX EXPL & PROD :COMPANY
WELL        .                                               2071D :WELL
FLD         .                                           CANTARELL :FIELD
LOC         .                                             UNKNOWN :LOCATION
CNTY        .                                      CD. DEL CARMEN :COUNTY
STAT        .                                            CAMPECHE :STATE
CTRY        .                                              MEXICO :COUNTRY
SRVC        .                                             UNKNOWN :SERVICE COMPANY
DATE        .                                             UNKNOWN :LOG DATE
UWI         .                                          3060000679 :UNIQUE WELL ID
XCOORD      .                                       601713.940000 :SURFACE X
YCOORD      .                                      2142372.000000 :SURFACE Y
LAT         .                                           19.374038 :LATITUDE
LON         .                                          -92.031462 :LONGITUDE
ELEV        .M                                            30.0000 :SURFACE ELEV
ELEV_TYPEF  .b/elec                                            KB :ELEV TYPE
~CURVE INFORMATION
#MNEMONIC.UNIT        API CODE       : CURVE DESCRIPTION
#------------------------------------------------------------------------------
DEPTH    .M                          : Measured Depth
CALI     .in          UNKNOWN        : CALI:UNKNOWN:rC:NONE:v0 (auto-composite)
DRHO     .g/cm3       UNKNOWN        : DRHO:UNKNOWN:rC:NONE:v0 (auto-composite)
DT       .us/ft       UNKNOWN        : DT:DT:rC:NONE:v0 (auto-composite)
GR       .API         UNKNOWN        : GR:UNKNOWN:rC:NONE:v0 (auto-composite)
ILD      .ohmm        UNKNOWN        : ILD:UNKNOWN:rC:NONE:v0 (auto-composite)
ILM      .ohmm        UNKNOWN        : ILM:UNKNOWN:rC:NONE:v0 (auto-composite)
LLD      .ohmm        UNKNOWN        : LLD:UNKNOWN:rC:NONE:v0 (auto-composite)
LLS      .ohmm        UNKNOWN        : LLS:UNKNOWN:rC:NONE:v0 (auto-composite)
MSFL     .ohmm        UNKNOWN        : MSFL:UNKNOWN:rC:NONE:v0 (auto-composite)
NPHI     .v/v_decimal UNKNOWN        : NPHI:UNKNOWN:rC:NONE:v0 (auto-composite)
PEF      .b/elec      UNKNOWN        : PEF:UNKNOWN:rC:NONE:v0 (auto-composite)
RHOB     .g/cm3       UNKNOWN        : RHOB:UNKNOWN:rC:NONE:v0 (auto-composite)
~A     DEPTH         CALI         DRHO           DT           GR          ILD          ILM          LLD          LLS         MSFL         NPHI          PEF         RHOB
# ...
   2198.3438      11.4926       0.0535      64.5257      40.0522    -999.2500    -999.2500     424.8498     187.2986       0.3590       0.0487       3.3285       2.7545
   2198.4961      11.5550       0.0610      58.0220      38.5050    -999.2500    -999.2500     414.6530     185.3510       0.3660       0.0493       3.3610       2.7620
   2198.6484      11.5795       0.0610      61.0435      37.6591    -999.2500    -999.2500     401.5533     181.4897       0.3605       0.0509       3.3365       2.7550
   2198.8010      11.6040       0.0610      64.0660      36.8130    -999.2500    -999.2500     388.4490     177.6270       0.3550       0.0525       3.3120       2.7480
   2198.9534      11.5486       0.0570      65.4112      37.0847    -999.2500    -999.2500     360.3546     165.0860       0.3210       0.0549       3.2885       2.7375
   2199.1057      11.4930       0.0530      66.7570      37.3570    -999.2500    -999.2500     332.2020     152.5190       0.2870       0.0572       3.2650       2.7270
   2199.2581      11.4890       0.0460      62.4143      38.1871    -999.2500    -999.2500     311.5675     143.6374       0.3145       0.0528       3.2875       2.7150
   2199.4106      11.4850       0.0390      58.0760      39.0150    -999.2500    -999.2500     290.9870     134.7790       0.3420       0.0484       3.3100       2.7030
   2199.5630      11.5010       0.0445      61.7946      38.8340    -999.2500    -999.2500     283.2075     131.9520       0.3681       0.0454       3.2955       2.7175
   2199.7153      11.5170       0.0500      65.5100      38.6540    -999.2500    -999.2500     275.4720     129.1410       0.3940       0.0423       3.2810       2.7320
   2199.8677      11.5410       0.0540      59.6738      38.7942    -999.2500    -999.2500     274.3441     127.6783       0.3690       0.0446       3.3185       2.7440
   2200.0200      11.5650       0.0580      53.8420      38.9340    -999.2500    -999.2500     273.2190     126.2190       0.3440       0.0470       3.3560       2.7560
   2200.1726      11.5805       0.0520      54.5482      39.6047    -999.2500    -999.2500     272.3302     124.8311       0.3660       0.0455       3.3395       2.7495
   2200.3250      11.5960       0.0460      55.2540      40.2750    -999.2500    -999.2500     271.4420     123.4440       0.3880       0.0440       3.3230       2.7430
   2200.4773      11.5090       0.0400      55.5321      39.4724    -999.2500    -999.2500     274.0161     125.7642       0.3640       0.0453       3.2770       2.7490
   2200.6296      11.4220       0.0340      55.8100      38.6690    -999.2500    -999.2500     276.5930     128.0870       0.3400       0.0466       3.2310       2.7550
   2200.7822      11.4791       0.0390      56.4106      38.0424    -999.2500    -999.2500     271.2157     126.8333       0.3185       0.0478       3.2135       2.7590
   2200.9346      11.5360       0.0440      57.0110      37.4170    -999.2500    -999.2500     265.8490     125.5820       0.2970       0.0489       3.1960       2.7630
   2201.0869      11.5505       0.0405      58.5882      39.8421    -999.2500    -999.2500     253.4622     119.6004       0.3361       0.0509       3.2080       2.7409
   2201.2393      11.5650       0.0370      60.1650      42.2550    -999.2500    -999.2500     241.1380     113.6490       0.3750       0.0528       3.2200       2.7190
   2201.3918      11.6006       0.0410      58.1004      42.9892    -999.2500    -999.2500     238.7230     112.5672       0.3429       0.0548       3.2450       2.7215
   2201.5442      11.6360       0.0450      56.0360      43.7210    -999.2500    -999.2500     236.3160     111.4890       0.3110       0.0567       3.2700       2.7240
   2201.6965      11.5845       0.0475      60.8930      38.3190    -999.2500    -999.2500     228.1915     108.2860       0.3140       0.0564       3.2520       2.7335
   2201.8489      11.5330       0.0500      65.7500      32.9170    -999.2500    -999.2500     220.0670     105.0830       0.3170       0.0560       3.2340       2.7430
   2202.0012      11.5620       0.0550      62.7297      30.4346    -999.2500    -999.2500     206.1976      98.9158       0.3375       0.0604       3.2699       2.7525
   2202.1538      11.5910       0.0600      59.7090      27.9440    -999.2500    -999.2500     192.2820      92.7280       0.3580       0.0648       3.3060       2.7620
   2202.3062      11.6691       0.0575      57.2993      30.4227    -999.2500    -999.2500     200.3105      98.1067       0.3365       0.0665       3.2795       2.7545
   2202.4585      11.7470       0.0550      54.8890      32.8980    -999.2500    -999.2500     208.3280     103.4780       0.3150       0.0680       3.2530       2.7470
   2202.6108      11.6999       0.0580      57.8180      34.5535    -999.2500    -999.2500     236.0880     118.1406       0.3381       0.0597       3.3433       2.7420
   2202.7634      11.6530       0.0610      60.7480      36.1990    -999.2500    -999.2500     263.6810     132.7150       0.3610       0.0514       3.4330       2.7370
   2202.9158      11.5849       0.0575      62.5685      37.2039    -999.2500    -999.2500     274.6097     137.6221       0.3134       0.0465       3.4535       2.7420
   2203.0681      11.5170       0.0540      64.3900      38.2060    -999.2500    -999.2500     285.5090     142.5160       0.2660       0.0417       3.4740       2.7470
   2203.2205      11.5605       0.0555      65.2544      45.0804    -999.2500    -999.2500     252.2164     124.5436       0.2870       0.0397       3.4385       2.7675
   2203.3730      11.6040       0.0570      66.1180      51.9590    -999.2500    -999.2500     218.9030     106.5600       0.3080       0.0376       3.4030       2.7880
   2203.5254      11.5719       0.0515      67.3235      53.7156    -999.2500    -999.2500     228.1337     103.7698       0.3290       0.0445       3.3489       2.7760
   2203.6777      11.5400       0.0460      68.5280      55.4650    -999.2500    -999.2500     237.3270     100.9910       0.3500       0.0514       3.2950       2.7640
   2203.8301      11.5084       0.0445      61.7720      48.9050    -999.2500    -999.2500     288.9107     126.6706       0.3585       0.0488       3.2850       2.7595
   2203.9824      11.4770       0.0430      55.0210      42.4020    -999.2500    -999.2500     340.0460     152.1270       0.3670       0.0462       3.2750       2.7550
   2204.1350      11.4971       0.0485      58.5396      40.1018    -999.2500    -999.2500     430.4003     185.3445       0.3414       0.0478       3.3131       2.7615
   2204.2874      11.5170       0.0540      62.0560      37.8140    -999.2500    -999.2500     520.2680     218.3830       0.3160       0.0493       3.3510       2.7680
   2204.4397      11.4695       0.0470      59.0058      38.0267    -999.2500    -999.2500     569.7373     229.9295       0.3330       0.0506       3.2839       2.7510
   2204.5920      11.4220       0.0400      55.9570      38.2390    -999.2500    -999.2500     619.1040     241.4520       0.3500       0.0519       3.2170       2.7340
   2204.7446      11.4535       0.0390      57.0572      37.3668    -999.2500    -999.2500     638.3729     244.6391       0.3490       0.0539       3.2075       2.7220
   2204.8970      11.4850       0.0380      58.1570      36.4950    -999.2500    -999.2500     657.6350     247.8250       0.3480       0.0559       3.1980       2.7100
   2205.0493      11.4455       0.0440      59.6472      36.0223    -999.2500    -999.2500     674.3140     249.8901       0.3770       0.0570       3.2340       2.7125
   2205.2017      11.4060       0.0500      61.1370      35.5490    -999.2500    -999.2500     691.0160     251.9580       0.4060       0.0581       3.2700       2.7150
   2205.3542      11.4270       0.0460      62.4226      37.1699    -999.2500    -999.2500     689.5623     248.0917       0.4195       0.0520       3.2570       2.6935
   2205.5066      11.4480       0.0420      63.7080      38.7880    -999.2500    -999.2500     688.1110     244.2320       0.4330       0.0459       3.2440       2.6720
