#------------------------------------------------------------------------------
#
#   Created by  : [OpenWorks] Log Export Utility (LEXP)
#   Created on  : 2016-05-12 17:01:16
#   Project     : CANT971
#   User        : R5K
#   Interpreter : PEP
#
#------------------------------------------------------------------------------
~VERSION INFORMATION
VERS. 2.0 : CWLS Log ASCII Standard - version 2.0
WRAP.  NO : One line per depth step
~WELL INFORMATION
#MNEMONIC   .UNIT                                           VALUE :DESCRIPTION
#------------------------------------------------------------------------------
STRT        .M                                          4907.2798 :START DEPTH
STOP        .M                                          5813.7549 :STOP DEPTH
STEP        .M                                             0.1524 :STEP
NULL        .                                           -999.2500 :NULL VALUE
COMP        .                                   PEMEX EXPL & PROD :COMPANY
WELL        .                                            3026D_ST :WELL
FLD         .                                           CANTARELL :FIELD
LOC         .                                             UNKNOWN :LOCATION
CNTY        .                                      CD. DEL CARMEN :COUNTY
STAT        .                                            CAMPECHE :STATE
CTRY        .                                              MEXICO :COUNTRY
SRVC        .                                             UNKNOWN :SERVICE COMPANY
DATE        .                                             UNKNOWN :LOG DATE
UWI         .                                      3060000820D_ST :UNIQUE WELL ID
XCOORD      .                                       601717.200000 :SURFACE X
YCOORD      .                                      2148573.570000 :SURFACE Y
LAT         .                                           19.430078 :LATITUDE
LON         .                                          -92.031099 :LONGITUDE
ELEV        .M                                            30.0000 :SURFACE ELEV
ELEV_TYPE   .                                                  KB :ELEV TYPE
~CURVE INFORMATION
#MNEMONIC.UNIT        API CODE       : CURVE DESCRIPTION
#------------------------------------------------------------------------------
DEPTH    .M                          : Measured Depth
CALI     .inches      UNKNOWN        : CALI:registros:rC:NONE:v0 (auto-composite)
CGR      .API         UNKNOWN        : CGR:registros:rC:NONE:v0 (auto-composite)
DRHO     .g/cm3       UNKNOWN        : DRHO:registros:rC:NONE:v0 (auto-composite)
DT       .us/ft       UNKNOWN        : DT:registros:rC:NONE:v0 (auto-composite)
GR       .API         UNKNOWN        : GR:registros:rC:NONE:v0 (auto-composite)
ILD      .ohm.m       UNKNOWN        : ILD:registros:rC:NONE:v0 (auto-composite)
ILM      .ohm.m       UNKNOWN        : ILM:registros:rC:NONE:v0 (auto-composite)
NPHI     .UNKNOWN     UNKNOWN        : NPHI:registros:rC:NONE:v0 (auto-composite)
PEF      .b/elec      UNKNOWN        : PEF:registros:rC:NONE:v0 (auto-composite)
POTA     .UNKNOWN     UNKNOWN        : POTA:registros:rC:NONE:v0 (auto-composite)
RHOB     .g/cm3       UNKNOWN        : RHOB:registros:rC:NONE:v0 (auto-composite)
THOR     .ppm         UNKNOWN        : THOR:registros:rC:NONE:v0 (auto-composite)
URAN     .ppm         UNKNOWN        : URAN:registros:rC:NONE:v0 (auto-composite)
~A     DEPTH         CALI          CGR         DRHO           DT           GR          ILD          ILM         NPHI          PEF         POTA         RHOB         THOR         URAN
# ...
   5644.8960       7.2363    -999.2500      -0.0200      64.4875      94.2843       5.5025       5.2859       0.1954    -224.2467    -999.2500       2.6711    -999.2500    -999.2500
   5645.0483       7.2395    -999.2500      -0.0322      63.1507      93.7691       5.5009       5.2865       0.1932      52.2947    -999.2500       2.6490    -999.2500    -999.2500
   5645.2007       7.2220    -999.2500      -0.0272      63.1769      91.6383       5.5000       5.2868       0.1930      52.5789    -999.2500       2.6627    -999.2500    -999.2500
   5645.3530       7.1958    -999.2500      -0.0229      64.6400      95.6127       5.5202       5.3103       0.1880       5.5004    -999.2500       2.6753    -999.2500    -999.2500
   5645.5054       7.1710    -999.2500      -0.0173      63.4107      95.2079       5.5039       5.2946       0.1838      27.1131    -999.2500       2.6931    -999.2500    -999.2500
   5645.6577       7.1707    -999.2500      -0.0141      64.6039      94.0978       5.4285       5.2338       0.1863      22.2588    -999.2500       2.6981    -999.2500    -999.2500
   5645.8101       7.1698    -999.2500      -0.0127      64.5372      90.3442       5.4111       5.2231       0.1873    -103.7148    -999.2500       2.7038    -999.2500    -999.2500
   5645.9624       7.1720    -999.2500      -0.0142      63.3962      88.2466       5.3875       5.2065       0.1873      50.5422    -999.2500       2.6998    -999.2500    -999.2500
   5646.1147       7.1728    -999.2500      -0.0145      63.3276      91.1142       5.3092       5.1376       0.1833      62.6423    -999.2500       2.6987    -999.2500    -999.2500
   5646.2676       7.1464    -999.2500      -0.0236      63.2590      92.7334       5.3048       5.1383       0.1794      53.2618    -999.2500       2.6813    -999.2500    -999.2500
   5646.4199       7.1434    -999.2500      -0.0222      63.0180      91.5453       5.3124       5.1507       0.1815      50.5621    -999.2500       2.6883    -999.2500    -999.2500
   5646.5723       7.1392    -999.2500      -0.0177      62.8127      91.6278       5.3270       5.1724       0.1830      54.3189    -999.2500       2.6910    -999.2500    -999.2500
   5646.7246       7.1404    -999.2500      -0.0206      63.4120      90.7078       5.3064       5.1569       0.1861    -158.7951    -999.2500       2.6967    -999.2500    -999.2500
   5646.8770       7.1422    -999.2500      -0.0305      63.8556      93.1535       5.3280       5.1847       0.1830      -3.9009    -999.2500       2.6842    -999.2500    -999.2500
   5647.0293       7.1422    -999.2500      -0.0265      63.3087      93.2302       5.3294       5.1934       0.1815      50.5422    -999.2500       2.6891    -999.2500    -999.2500
   5647.1816       7.1392    -999.2500      -0.0257      64.0886      94.2238       5.3289       5.2000       0.1774      15.1282    -999.2500       2.6870    -999.2500    -999.2500
   5647.3340       7.1404    -999.2500      -0.0280      64.2613      92.0994       5.3170       5.1971       0.1779    -166.1740    -999.2500       2.6848    -999.2500    -999.2500
   5647.4868       7.1468    -999.2500      -0.0228      64.3413      91.0946       5.3364       5.2223       0.1845      27.3632    -999.2500       2.6922    -999.2500    -999.2500
   5647.6392       7.1583    -999.2500      -0.0140      64.1116      92.9530       5.3254       5.2190       0.1877     135.2587    -999.2500       2.7013    -999.2500    -999.2500
   5647.7915       7.1596    -999.2500      -0.0143      64.1684      95.8690       5.3033       5.2040       0.1923      50.6562    -999.2500       2.7023    -999.2500    -999.2500
   5647.9438       7.1596    -999.2500      -0.0148      63.8208      96.0918       5.2850       5.1934       0.1919      57.0521    -999.2500       2.6992    -999.2500    -999.2500
   5648.0962       7.1484    -999.2500      -0.0193      62.7102      92.0438       5.3033       5.2198       0.1935      52.1371    -999.2500       2.6918    -999.2500    -999.2500
   5648.2485       7.1472    -999.2500      -0.0183      62.7726      91.9082       5.2754       5.1953       0.1947      20.2867    -999.2500       2.6990    -999.2500    -999.2500
   5648.4009       7.1375    -999.2500      -0.0255      61.4724      92.7362       5.2620       5.1879       0.1931      23.3216    -999.2500       2.6925    -999.2500    -999.2500
   5648.5532       7.1365    -999.2500      -0.0243      63.0191      92.8282       5.2782       5.2082       0.1943      20.3752    -999.2500       2.6959    -999.2500    -999.2500
   5648.7056       7.1341    -999.2500      -0.0284      63.0103      89.0255       5.2765       5.2105       0.1917      50.5830    -999.2500       2.6786    -999.2500    -999.2500
   5648.8584       7.1349    -999.2500      -0.0261      64.3573      87.7529       5.2816       5.2201       0.1927      61.5850    -999.2500       2.6824    -999.2500    -999.2500
   5649.0107       7.1310    -999.2500      -0.0274      62.9470      89.1635       5.2915       5.2343       0.1926      61.6811    -999.2500       2.6835    -999.2500    -999.2500
   5649.1631       7.1321    -999.2500      -0.0243      64.5961      92.9379       5.3017       5.2486       0.1927      54.6989    -999.2500       2.6862    -999.2500    -999.2500
   5649.3154       7.1266    -999.2500      -0.0251      63.0081      92.8612       5.3129       5.2635       0.1877      68.6277    -999.2500       2.6827    -999.2500    -999.2500
   5649.4678       7.1171    -999.2500      -0.0328      62.7181      88.1079       5.3288       5.2827       0.1844      27.3918    -999.2500       2.6724    -999.2500    -999.2500
   5649.6201       7.1159    -999.2500      -0.0309      61.2615      79.8358       5.3557       5.3125       0.1803      27.0248    -999.2500       2.6771    -999.2500    -999.2500
   5649.7725       7.1161    -999.2500      -0.0251      61.4421      75.2438       5.3859       5.3461       0.1776      25.6304    -999.2500       2.6957    -999.2500    -999.2500
   5649.9248       7.1192    -999.2500      -0.0269      62.7730      72.7179       5.3866       5.3503       0.1721      27.4136    -999.2500       2.6924    -999.2500    -999.2500
   5650.0771       7.1191    -999.2500      -0.0245      61.3647      74.3645       5.3924       5.3598       0.1694      24.8211    -999.2500       2.7026    -999.2500    -999.2500
   5650.2300       7.1189    -999.2500      -0.0231      62.5051      71.6183       5.3968       5.3678       0.1666      26.9976    -999.2500       2.6939    -999.2500    -999.2500
   5650.3823       7.1393    -999.2500      -0.0197      62.6066      74.4680       5.4089       5.3840       0.1730      27.2608    -999.2500       2.7031    -999.2500    -999.2500
   5650.5347       7.1422    -999.2500      -0.0155      61.5415      74.9972       5.4158       5.3938       0.1744      84.6028    -999.2500       2.7050    -999.2500    -999.2500
   5650.6870       7.1437    -999.2500      -0.0101      60.6765      78.0250       5.4602       5.4458       0.1710      55.0652    -999.2500       2.7108    -999.2500    -999.2500
   5650.8394       7.1549    -999.2500      -0.0109      61.4062      75.9708       5.4483       5.4361       0.1647      27.1392    -999.2500       2.7031    -999.2500    -999.2500
   5650.9917       7.1675    -999.2500      -0.0085      59.6602      73.6586       5.4650       5.4658       0.1619      27.4282    -999.2500       2.7002    -999.2500    -999.2500
   5651.1440       7.1726    -999.2500      -0.0067      58.9585      70.3023       5.5124       5.5234       0.1615      26.9547    -999.2500       2.6958    -999.2500    -999.2500
   5651.2964       7.1788    -999.2500      -0.0095      60.0717      72.7994       5.5507       5.5715       0.1573      20.3707    -999.2500       2.6923    -999.2500    -999.2500
   5651.4492       7.1821    -999.2500      -0.0100      59.7191      75.9343       5.5091       5.5379       0.1522      16.1145    -999.2500       2.6920    -999.2500    -999.2500
