#------------------------------------------------------------------------------
#
#   Created by  : [OpenWorks] Log Export Utility (LEXP)
#   Created on  : 2016-05-23 11:57:24
#   Project     : CANT971
#   User        : R5K
#   Interpreter : PEP
#
#------------------------------------------------------------------------------
~VERSION INFORMATION
VERS. 2.0 : CWLS Log ASCII Standard - version 2.0
WRAP.  NO : One line per depth step
~WELL INFORMATION
#MNEMONIC   .UNIT                                           VALUE :DESCRIPTION
#------------------------------------------------------------------------------
STRT        .M                                           648.1292 :START DEPTH
STOP        .M                                          2685.5647 :STOP DEPTH
STEP        .M                                             0.1524 :STEP
NULL        .                                           -999.2500 :NULL VALUE
COMP        .                                   PEMEX EXPL & PROD :COMPANY
WELL        .                                                 81D :WELL
FLD         .                                           CANTARELL :FIELD
LOC         .                                             UNKNOWN :LOCATION
CNTY        .                                      CD. DEL CARMEN :COUNTY
STAT        .                                            CAMPECHE :STATE
CTRY        .                                              MEXICO :COUNTRY
SRVC        .                                             UNKNOWN :SERVICE COMPANY
DATE        .                                             UNKNOWN :LOG DATE
UWI         .                                          3060000666 :UNIQUE WELL ID
XCOORD      .                                       601717.100000 :SURFACE X
YCOORD      .                                      2142375.260000 :SURFACE Y
LAT         .                                           19.374067 :LATITUDE
LON         .                                          -92.031430 :LONGITUDE
ELEV        .M                                            30.0000 :SURFACE ELEV
ELEV_TYPEF  .b/elec                                            KB :ELEV TYPE
~CURVE INFORMATION
#MNEMONIC.UNIT        API CODE       : CURVE DESCRIPTION
#------------------------------------------------------------------------------
DEPTH    .M                          : Measured Depth
CALI     .in          UNKNOWN        : CALI:UNKNOWN:rC:NONE:v0 (auto-composite)
CGR      .API         UNKNOWN        : CGR:UNKNOWN:rC:NONE:v0 (auto-composite)
DRHO     .g/cm3       UNKNOWN        : DRHO:UNKNOWN:rC:NONE:v0 (auto-composite)
DT       .us/ft       UNKNOWN        : DT:DT:rC:NONE:v0 (auto-composite)
GR       .API         UNKNOWN        : GR:UNKNOWN:rC:NONE:v0 (auto-composite)
ILD      .ohmm        UNKNOWN        : ILD:UNKNOWN:rC:NONE:v0 (auto-composite)
ILM      .ohmm        UNKNOWN        : ILM:UNKNOWN:rC:NONE:v0 (auto-composite)
LLD      .ohmm        UNKNOWN        : LLD:UNKNOWN:rC:NONE:v0 (auto-composite)
LLS      .ohmm        UNKNOWN        : LLS:UNKNOWN:rC:NONE:v0 (auto-composite)
NPHI     .v/v_decimal UNKNOWN        : NPHI:NPHI:rC:NONE:v0 (auto-composite)
PEF      .b/elec      UNKNOWN        : PEF:UNKNOWN:rC:NONE:v0 (auto-composite)
POTA     .%           UNKNOWN        : POTA:UNKNOWN:rC:NONE:v0 (auto-composite)
RHOB     .g/cm3       UNKNOWN        : RHOB:UNKNOWN:rC:NONE:v0 (auto-composite)
THOR     .ppm         UNKNOWN        : THOR:UNKNOWN:rC:NONE:v0 (auto-composite)
URAN     .ppm         UNKNOWN        : URAN:UNKNOWN:rC:NONE:v0 (auto-composite)
~A     DEPTH         CALI          CGR         DRHO           DT           GR          ILD          ILM          LLD          LLS         NPHI          PEF         POTA         RHOB         THOR         URAN
# ...
   2359.8860       9.0537       5.4918    -999.2500    -999.2500      19.1374    -999.2500    -999.2500   38169.1484    1296.1699       2.9753    -999.2500       0.0220    -999.2500       1.6543       1.5139
   2360.0383       9.0203       5.5743    -999.2500    -999.2500      19.4463    -999.2500    -999.2500   39381.4883    1314.6602       3.0494    -999.2500       0.0220    -999.2500       1.6818       1.5459
   2360.1909       9.0242       5.8074    -999.2500    -999.2500      19.0813    -999.2500    -999.2500   38228.6758    1321.5896       2.9662    -999.2500       0.0220    -999.2500       1.7558       1.4795
   2360.3433       9.0366       6.0757    -999.2500    -999.2500      18.5614    -999.2500    -999.2500   36532.2148    1325.8618       2.8045    -999.2500       0.0220    -999.2500       1.8408       1.3901
   2360.4956       9.0017       7.0500    -999.2500    -999.2500      18.5785    -999.2500    -999.2500   33848.5352    1328.9846       2.8654    -999.2500       0.0657    -999.2500       1.9258       1.2735
   2360.6479       8.9557       8.1910    -999.2500    -999.2500      18.7209    -999.2500    -999.2500   30936.6484    1331.8417       2.9848    -999.2500       0.1197    -999.2500       2.0108       1.1504
   2360.8003       8.9017       8.8414    -999.2500    -999.2500      18.5663    -999.2500    -999.2500   29961.4648    1318.8129       3.1070    -999.2500       0.1470    -999.2500       2.0719       1.0667
   2360.9529       8.8457       9.3767    -999.2500    -999.2500      18.3419    -999.2500    -999.2500   29431.8164    1302.1295       3.2137    -999.2500       0.1680    -999.2500       2.1274       0.9922
   2361.1052       8.6261       9.3414    -999.2500    -999.2500      18.4474    -999.2500    -999.2500   29813.4785    1291.2396       3.1708    -999.2500       0.1599    -999.2500       2.1704       1.0071
   2361.2576       8.3679       9.1714    -999.2500    -999.2500      18.6310    -999.2500    -999.2500   30405.9746    1281.6902       3.0721    -999.2500       0.1449    -999.2500       2.2104       1.0431
   2361.4099       8.2403       9.2750    -999.2500    -999.2500      18.6748    -999.2500    -999.2500   28384.9746    1250.2061       3.0575    -999.2500       0.1388    -999.2500       2.2649       1.0362
   2361.5625       8.1424       9.4429    -999.2500    -999.2500      18.6867    -999.2500    -999.2500   25762.2539    1213.6719       3.0597    -999.2500       0.1348    -999.2500       2.3229       1.0192
   2361.7148       8.3326       9.3670    -999.2500    -999.2500      18.6667    -999.2500    -999.2500   23902.2129    1175.9596       3.0177    -999.2500       0.1441    -999.2500       2.2826       1.0277
   2361.8672       8.5895       9.2334    -999.2500    -999.2500      18.6392    -999.2500    -999.2500   22218.7695    1137.9746       2.9532    -999.2500       0.1566    -999.2500       2.2191       1.0422
   2362.0195       8.6331      10.0783    -999.2500    -999.2500      18.6543    -999.2500    -999.2500   23290.0078    1168.9102       2.8457    -999.2500       0.2302    -999.2500       2.1548       0.9228
   2362.1721       8.6271      11.1533    -999.2500    -999.2500      18.6793    -999.2500    -999.2500   24995.9980    1215.7271       2.7288    -999.2500       0.3182    -999.2500       2.0903       0.7719
   2362.3245       8.6228      11.6789    -999.2500    -999.2500      18.8098    -999.2500    -999.2500   28041.3809    1284.8174       2.6146    -999.2500       0.3229    -999.2500       2.1492       0.7572
   2362.4768       8.6188      12.0746    -999.2500    -999.2500      18.9651    -999.2500    -999.2500   31397.1465    1359.0692       2.5017    -999.2500       0.3079    -999.2500       2.2372       0.7747
   2362.6292       8.6273      10.8648    -999.2500    -999.2500      18.7798    -999.2500    -999.2500   32574.6387    1381.1597       2.6133    -999.2500       0.2071    -999.2500       2.3750       0.8888
   2362.7815       8.6388       9.2770    -999.2500    -999.2500      18.5134    -999.2500    -999.2500   33249.7812    1391.2208       2.7698    -999.2500       0.0862    -999.2500       2.5244       1.0258
   2362.9341       8.5791       8.7607    -999.2500    -999.2500      18.4770    -999.2500    -999.2500   29554.4766    1335.7734       2.8796    -999.2500       0.0768    -999.2500       2.4410       1.0763
   2363.0864       8.5024       8.4981    -999.2500    -999.2500      18.4955    -999.2500    -999.2500   24845.5488    1265.1328       2.9708    -999.2500       0.0938    -999.2500       2.3024       1.1063
   2363.2388       8.4450       8.0975    -999.2500    -999.2500      18.3427    -999.2500    -999.2500   21667.7207    1202.0616       3.1399    -999.2500       0.0840    -999.2500       2.2007       1.1343
   2363.3911       8.3920       7.6643    -999.2500    -999.2500      18.1502    -999.2500    -999.2500   18843.2812    1140.7375       3.3234    -999.2500       0.0680    -999.2500       2.1077       1.1618
   2363.5437       8.3731       7.2326    -999.2500    -999.2500      18.0070    -999.2500    -999.2500   17974.6738    1153.3928       3.3982    -999.2500       0.0549    -999.2500       2.0353       1.1974
   2363.6960       8.3621       6.8013    -999.2500    -999.2500      17.8752    -999.2500    -999.2500   17555.3027    1183.0406       3.4160    -999.2500       0.0424    -999.2500       1.9679       1.2348
   2363.8484       8.4142       6.1006    -999.2500    -999.2500      18.1019    -999.2500    -999.2500   18828.8438    1237.3817       3.3292    -999.2500       0.0327    -999.2500       1.7927       1.3347
   2364.0007       8.4812       5.3363    -999.2500    -999.2500      18.4133    -999.2500    -999.2500   20493.4434    1297.4269       3.1955    -999.2500       0.0237    -999.2500       1.5921       1.4492
   2364.1533       8.4985       4.9530    -999.2500    -999.2500      18.9030    -999.2500    -999.2500   21424.0957    1328.4235       3.0685    -999.2500       0.0220    -999.2500       1.4779       1.5451
   2364.3057       8.5040       4.6591    -999.2500    -999.2500      19.4350    -999.2500    -999.2500   22186.0293    1352.7424       2.9436    -999.2500       0.0220    -999.2500       1.3839       1.6365
   2364.4580       8.5139       4.3031    -999.2500    -999.2500      19.6882    -999.2500    -999.2500   20710.3262    1335.2368       2.8160    -999.2500       0.0220    -999.2500       1.2697       1.7042
   2364.6104       8.5249       3.9325    -999.2500    -999.2500      19.8776    -999.2500    -999.2500   18717.3086    1308.0618       2.6871    -999.2500       0.0220    -999.2500       1.1506       1.7662
   2364.7627       8.5173       4.0417    -999.2500    -999.2500      19.4697    -999.2500    -999.2500   18588.0059    1294.9796       2.6281    -999.2500       0.0224    -999.2500       1.1851       1.7092
   2364.9153       8.5053       4.2636    -999.2500    -999.2500      18.9243    -999.2500    -999.2500   18887.4863    1285.1399       2.5957    -999.2500       0.0229    -999.2500       1.2555       1.6242
   2365.0676       8.4848       4.4407    -999.2500    -999.2500      18.5046    -999.2500    -999.2500   20391.4238    1339.4988       2.6143    -999.2500       0.0230    -999.2500       1.3127       1.5582
   2365.2200       8.4623       4.6073    -999.2500    -999.2500      18.1143    -999.2500    -999.2500   22174.0449    1408.7119       2.6600    -999.2500       0.0230    -999.2500       1.3667       1.4967
   2365.3723       8.4293       4.5552    -999.2500    -999.2500      18.5312    -999.2500    -999.2500   23044.1973    1449.8865       2.6010    -999.2500       0.0234    -999.2500       1.3491       1.5416
   2365.5249       8.3938       4.4518    -999.2500    -999.2500      19.1380    -999.2500    -999.2500   23704.2441    1484.6050       2.5229    -999.2500       0.0239    -999.2500       1.3146       1.6116
   2365.6772       8.3428       4.7285    -999.2500    -999.2500      19.2771    -999.2500    -999.2500   21403.4863    1450.1311       2.4844    -999.2500       0.0341    -999.2500       1.3489       1.5943
