#------------------------------------------------------------------------------
#
#   Created by  : [OpenWorks] Log Export Utility (LEXP)
#   Created on  : 2016-05-23 11:52:51
#   Project     : CANT971
#   User        : R5K
#   Interpreter : PEP
#
#------------------------------------------------------------------------------
~VERSION INFORMATION
VERS. 2.0 : CWLS Log ASCII Standard - version 2.0
WRAP.  NO : One line per depth step
~WELL INFORMATION
#MNEMONIC   .UNIT                                           VALUE :DESCRIPTION
#------------------------------------------------------------------------------
STRT        .M                                           691.4386 :START DEPTH
STOP        .M                                          2836.4685 :STOP DEPTH
STEP        .M                                             0.1524 :STEP
NULL        .                                           -999.2500 :NULL VALUE
COMP        .                                   PEMEX EXPL & PROD :COMPANY
WELL        .                                                2094 :WELL
FLD         .                                           CANTARELL :FIELD
LOC         .                                             UNKNOWN :LOCATION
CNTY        .                                      CD. DEL CARMEN :COUNTY
STAT        .                                            CAMPECHE :STATE
CTRY        .                                              MEXICO :COUNTRY
SRVC        .                                             UNKNOWN :SERVICE COMPANY
DATE        .                                             UNKNOWN :LOG DATE
UWI         .                                          3060000525 :UNIQUE WELL ID
XCOORD      .                                       601711.170000 :SURFACE X
YCOORD      .                                      2142342.970000 :SURFACE Y
LAT         .                                           19.373776 :LATITUDE
LON         .                                          -92.031490 :LONGITUDE
ELEV        .M                                            24.0000 :SURFACE ELEV
ELEV_TYPE   .                                                  KB :ELEV TYPE
~CURVE INFORMATION
#MNEMONIC.UNIT        API CODE       : CURVE DESCRIPTION
#------------------------------------------------------------------------------
DEPTH    .M                          : Measured Depth
CALI     .in          UNKNOWN        : CALI:registros:rC:NONE:v0 (auto-composite)
DRHO     .g/cm3       UNKNOWN        : DRHO:registros:rC:NONE:v0 (auto-composite)
DT       .us/ft       UNKNOWN        : DT:registros:rC:NONE:v0 (auto-composite)
GR       .API         UNKNOWN        : GR:registros:rC:NONE:v0 (auto-composite)
ILD      .ohm.m       UNKNOWN        : ILD:registros:rC:NONE:v0 (auto-composite)
ILM      .ohm.m       UNKNOWN        : ILM:registros:rC:NONE:v0 (auto-composite)
LLD      .ohm.m       UNKNOWN        : LLD:registros:rC:NONE:v0 (auto-composite)
LLS      .ohm.m       UNKNOWN        : LLS:registros:rC:NONE:v0 (auto-composite)
MSFL     .ohm.m       UNKNOWN        : MSFL:registros:rC:NONE:v0 (auto-composite)
NPHI     .v/v_decimal UNKNOWN        : NPHI:registros:rC:NONE:v0 (auto-composite)
PEF      .b/elec      UNKNOWN        : PEF:registros:rC:NONE:v0 (auto-composite)
RHOB     .g/cm3       UNKNOWN        : RHOB:registros:rC:NONE:v0 (auto-composite)
~A     DEPTH         CALI         DRHO           DT           GR          ILD          ILM          LLD          LLS         MSFL         NPHI          PEF         RHOB
# ...
   2315.4131       8.5700       0.0205      68.3009      41.1556    -999.2500    -999.2500     922.2932     526.9454     596.5511       0.1103       3.1839       2.6120
   2315.5654       8.5700       0.0277      68.5356      39.2640    -999.2500    -999.2500    1012.1310     570.3640    1078.1870       0.1100       3.2688       2.6201
   2315.7178       8.5700       0.0320      67.5127      37.4371    -999.2500    -999.2500    1192.9106     678.7903     901.5060       0.1103       3.3244       2.6195
   2315.8701       8.5700       0.0351      65.1137      35.6250    -999.2500    -999.2500    1372.2220     786.3360     725.9780       0.1106       3.3292       2.6196
   2316.0227       8.5700       0.0385      60.9089      37.0763    -999.2500    -999.2500    1216.4657     718.2630     373.9278       0.1031       3.2497       2.6300
   2316.1750       8.5700       0.0388      57.1028      38.5160    -999.2500    -999.2500    1061.9540     650.7340      24.1330       0.0955       3.1658       2.6392
   2316.3274       8.5700       0.0320      55.9746      37.9824    -999.2500    -999.2500     902.1871     548.5684     987.8408       0.0989       3.1565       2.6355
   2316.4797       8.5700       0.0232      57.1539      37.4530    -999.2500    -999.2500     743.6780     447.2070    1945.5000       0.1024       3.1750       2.6253
   2316.6321       8.5700       0.0170      60.7799      37.7336    -999.2500    -999.2500     749.2264     449.4050    1881.5847       0.1062       3.1805       2.6135
   2316.7847       8.5714       0.0133      64.3735      38.0120    -999.2500    -999.2500     754.7320     451.5860    1818.0630       0.1100       3.1787       2.6041
   2316.9370       8.5760       0.0125      65.4735      41.3392    -999.2500    -999.2500     809.0450     474.1726    1195.9066       0.1098       3.1740       2.6015
   2317.0894       8.5806       0.0154      65.2557      44.6410    -999.2500    -999.2500     862.9440     496.5870     577.5000       0.1095       3.1609       2.6026
   2317.2417       8.5820       0.0235      64.6167      44.5662    -999.2500    -999.2500    1050.3667     625.1310     588.2628       0.1095       3.1320       2.6050
   2317.3943       8.5815       0.0340      63.1529      44.4920    -999.2500    -999.2500    1236.3850     752.7120     598.9620       0.1096       3.1027       2.6085
   2317.5466       8.5800       0.0445      60.2913      42.0339    -999.2500    -999.2500    1289.2087     779.3105    1296.3021       0.1123       3.0880       2.6130
   2317.6990       8.5831       0.0525      57.3691      39.5940    -999.2500    -999.2500    1341.6429     805.7130    1988.5000       0.1150       3.0800       2.6191
   2317.8513       8.5975       0.0550      55.6993      38.4022    -999.2500    -999.2500    1265.6155     736.4705    1848.6821       0.1159       3.0720       2.6275
   2318.0039       8.6067       0.0501      55.1073      37.2190    -999.2500    -999.2500    1190.2600     667.8400    1709.8770       0.1168       3.0581       2.6321
   2318.1562       8.5935       0.0345      55.6261      38.4183    -999.2500    -999.2500    1034.1589     583.2256    1100.4551       0.1121       3.0311       2.6260
   2318.3086       8.5756       0.0195      56.3650      39.6090    -999.2500    -999.2500     879.4170     499.3480     495.3750       0.1075       3.0242       2.6182
   2318.4609       8.5700       0.0165      56.4798      38.8488    -999.2500    -999.2500     960.1533     537.2297     539.1621       0.1041       3.0749       2.6175
   2318.6133       8.5700       0.0207      56.1398      38.0940    -999.2500    -999.2500    1040.1960     574.7860     582.6430       0.1007       3.1487       2.6244
   2318.7659       8.5700       0.0285      55.4289      38.1602    -999.2500    -999.2500    1217.6455     664.0972     805.1193       0.0974       3.2154       2.6410
   2318.9182       8.5700       0.0382      54.7632      38.2260    -999.2500    -999.2500    1393.5940     752.6530    1026.0660       0.0941       3.2636       2.6552
   2319.0706       8.5700       0.0485      54.5620      40.8660    -999.2500    -999.2500    1385.2236     748.5956    1499.8810       0.0943       3.2785       2.6545
   2319.2229       8.5701       0.0565      54.6184      43.4840    -999.2500    -999.2500    1376.9230     744.5720    1970.5000       0.0945       3.2749       2.6488
   2319.3755       8.5705       0.0590      54.7712      43.3776    -999.2500    -999.2500    1262.6926     689.5732    1962.7488       0.0970       3.2645       2.6470
   2319.5278       8.5727       0.0588      55.0447      43.2720    -999.2500    -999.2500    1149.4000     635.0260    1955.0490       0.0995       3.2368       2.6474
   2319.6802       8.5785       0.0580      55.4844      41.6610    -999.2500    -999.2500    1026.9014     584.9273    1845.1676       0.1010       3.1781       2.6485
   2319.8325       8.5823       0.0545      57.5251      40.0630    -999.2500    -999.2500     905.3940     535.2340    1736.0000       0.1024       3.1244       2.6470
   2319.9851       8.5780       0.0455      62.8587      40.3547    -999.2500    -999.2500     938.2302     549.8698    1009.5276       0.1066       3.1125       2.6390
   2320.1375       8.5724       0.0340      67.3117      40.6440    -999.2500    -999.2500     970.8050     564.3890     287.6870       0.1107       3.1477       2.6273
   2320.2898       8.5720       0.0225      66.6102      41.7559    -999.2500    -999.2500    1117.6649     640.9100     620.2847       0.1085       3.2428       2.6140
   2320.4421       8.5730       0.0131      63.4376      42.8590    -999.2500    -999.2500    1263.3730     716.8310     950.8050       0.1061       3.3442       2.6040
   2320.5945       8.5720       0.0080      60.0836      42.3264    -999.2500    -999.2500    1085.8822     625.4180    1222.9862       0.1022       3.3990       2.6025
   2320.7471       8.5874       0.0068      58.5280      41.7980    -999.2500    -999.2500     909.7600     534.7100    1493.5000       0.0983       3.3790       2.6021
   2320.8994       8.6404       0.0095      61.0040      40.3856    -999.2500    -999.2500     825.9960     484.3970     835.0628       0.1007       3.2448       2.5955
   2321.0518       8.6838       0.0175      64.2531      38.9840    -999.2500    -999.2500     742.8680     434.4660     181.6250       0.1031       3.1440       2.5923
   2321.2041       8.6691       0.0330      65.1474      39.1326    -999.2500    -999.2500     987.1655     551.1669     733.8730       0.1060       3.2297       2.6025
   2321.3567       8.6308       0.0486      64.2083      39.2800    -999.2500    -999.2500    1229.6400     666.9970    1282.0000       0.1089       3.3295       2.6104
   2321.5090       8.6005       0.0570      61.6949      41.2332    -999.2500    -999.2500    1373.4320     716.1505    1043.5936       0.1074       3.2722       2.6000
   2321.6614       8.5819       0.0569      60.0111      43.1720    -999.2500    -999.2500    1516.1680     764.9430     806.9380       0.1058       3.1739       2.5856
   2321.8137       8.5800       0.0460      61.6571      42.3059    -999.2500    -999.2500    1348.1836     674.7352     825.7242       0.1061       3.1455       2.5810
   2321.9663       8.5826       0.0334      64.7922      41.4460    -999.2500    -999.2500    1181.6790     585.3220     844.3750       0.1064       3.1615       2.5818
   2322.1187       8.5780       0.0280      67.7830      39.3561    -999.2500    -999.2500    1101.6543     537.2545     687.2552       0.1095       3.2019       2.5845
   2322.2710       8.5719       0.0264      70.0738      37.2810    -999.2500    -999.2500    1022.3240     489.6040     531.2500       0.1126       3.2187       2.5887
   2322.4233       8.5700       0.0255      71.0278      35.9719    -999.2500    -999.2500     920.3169     430.8812     316.5494       0.1146       3.1602       2.5945
   2322.5757       8.5687       0.0249      71.3388      34.6720    -999.2500    -999.2500     819.1830     372.6610     103.3440       0.1165       3.0968       2.5993
