#------------------------------------------------------------------------------
#
#   Created by  : [OpenWorks] Log Export Utility (LEXP)
#   Created on  : 2016-05-23 11:53:36
#   Project     : CANT971
#   User        : R5K
#   Interpreter : PEP
#
#------------------------------------------------------------------------------
~VERSION INFORMATION
VERS. 2.0 : CWLS Log ASCII Standard - version 2.0
WRAP.  NO : One line per depth step
~WELL INFORMATION
#MNEMONIC   .UNIT                                           VALUE :DESCRIPTION
#------------------------------------------------------------------------------
STRT        .M                                           940.3716 :START DEPTH
STOP        .M                                          3167.2405 :STOP DEPTH
STEP        .M                                             0.1524 :STEP
NULL        .                                           -999.2500 :NULL VALUE
COMP        .                                   PEMEX EXPL & PROD :COMPANY
WELL        .                                                  24 :WELL
FLD         .                                           CANTARELL :FIELD
LOC         .                                             UNKNOWN :LOCATION
CNTY        .                                      CD. DEL CARMEN :COUNTY
STAT        .                                            CAMPECHE :STATE
CTRY        .                                              MEXICO :COUNTRY
SRVC        .                                             UNKNOWN :SERVICE COMPANY
DATE        .                                             UNKNOWN :LOG DATE
UWI         .                                          3060000153 :UNIQUE WELL ID
XCOORD      .                                       598455.290000 :SURFACE X
YCOORD      .                                      2145024.750000 :SURFACE Y
LAT         .                                           19.398172 :LATITUDE
LON         .                                          -92.062351 :LONGITUDE
ELEV        .M                                            26.5400 :SURFACE ELEV
ELEV_TYPE   .                                                  KB :ELEV TYPE
~CURVE INFORMATION
#MNEMONIC.UNIT        API CODE       : CURVE DESCRIPTION
#------------------------------------------------------------------------------
DEPTH    .M                          : Measured Depth
CALI     .inches      UNKNOWN        : CALI:Import:rC:NONE:v0 (auto-composite)
DRHO     .g/cm3       UNKNOWN        : DRHO:Import:rC:NONE:v0 (auto-composite)
DT       .us/ft       UNKNOWN        : DT:Import:rC:NONE:v0 (auto-composite)
GR       .API         UNKNOWN        : GR:Import:rC:NONE:v0 (auto-composite)
ILD      .ohm.m       UNKNOWN        : ILD:Import:rC:NONE:v0 (auto-composite)
LLD      .ohm.m       UNKNOWN        : LLD:Import:rC:NONE:v0 (auto-composite)
LLS      .ohm.m       UNKNOWN        : LLS:Import:rC:NONE:v0 (auto-composite)
MSFL     .ohm.m       UNKNOWN        : MSFL:Import:rC:NONE:v0 (auto-composite)
NPHI     .v/v_decimal UNKNOWN        : NPHI:Import:rC:NONE:v0 (auto-composite)
RHOB     .g/cm3       UNKNOWN        : RHOB:Import:rC:NONE:v0 (auto-composite)
~A     DEPTH         CALI         DRHO           DT           GR          ILD          LLD          LLS         MSFL         NPHI         RHOB
# ...
   3065.4373    -999.2500    -999.2500    -999.2500      19.1599    -999.2500      31.9005      28.8658      29.4580       0.0866    -999.2500
   3065.5896    -999.2500    -999.2500    -999.2500      18.4825    -999.2500      31.1817      28.3592      28.4311       0.0828    -999.2500
   3065.7419    -999.2500    -999.2500    -999.2500      19.4246    -999.2500      31.6565      29.6387      29.6355       0.0810    -999.2500
   3065.8943    -999.2500    -999.2500    -999.2500      20.5895    -999.2500      31.9857      30.6280      30.5262       0.0789    -999.2500
   3066.0469    -999.2500    -999.2500    -999.2500      23.5958    -999.2500      31.1117      29.2197      28.8233       0.0750    -999.2500
   3066.1992    -999.2500    -999.2500    -999.2500      26.3567    -999.2500      30.4461      28.0018      27.4185       0.0728    -999.2500
   3066.3516    -999.2500    -999.2500    -999.2500      27.0361    -999.2500      31.5466      28.3979      28.5416       0.0777    -999.2500
   3066.5039    -999.2500    -999.2500    -999.2500      27.4534    -999.2500      32.6029      28.6528      29.4293       0.0838    -999.2500
   3066.6565    -999.2500    -999.2500    -999.2500      25.7726    -999.2500      33.3041      27.7777      28.4322       0.0895    -999.2500
   3066.8088    -999.2500    -999.2500    -999.2500      24.2408    -999.2500      34.0091      26.8844      27.2311       0.0922    -999.2500
   3066.9612    -999.2500    -999.2500    -999.2500      23.9125    -999.2500      34.7447      25.8444      24.3818       0.0847    -999.2500
   3067.1135    -999.2500    -999.2500    -999.2500      23.5687    -999.2500      35.1227      24.7057      21.5526       0.0777    -999.2500
   3067.2659    -999.2500    -999.2500    -999.2500      23.0998    -999.2500      32.5858      22.7636      18.8869       0.0783    -999.2500
   3067.4185    -999.2500    -999.2500    -999.2500      22.6473    -999.2500      29.9633      20.8657      16.4154       0.0827    -999.2500
   3067.5708    -999.2500    -999.2500    -999.2500      22.3319    -999.2500      26.6248      19.3368      15.5678       0.0956    -999.2500
   3067.7231    -999.2500    -999.2500    -999.2500      22.1180    -999.2500      23.7255      18.1680      15.1373       0.1097    -999.2500
   3067.8755    -999.2500    -999.2500    -999.2500      22.7598    -999.2500      24.5322      20.0367      18.2253       0.1220    -999.2500
   3068.0281    -999.2500    -999.2500    -999.2500      23.2520    -999.2500      25.4377      22.0350      21.4101       0.1300    -999.2500
   3068.1804    -999.2500    -999.2500    -999.2500      22.5523    -999.2500      27.1294      25.0662      25.3654       0.1233    -999.2500
   3068.3328    -999.2500    -999.2500    -999.2500      22.0436    -999.2500      28.7875      27.8840      29.0033       0.1111    -999.2500
   3068.4851    -999.2500    -999.2500    -999.2500      23.0698    -999.2500      30.1742      28.9867      30.0905       0.0889    -999.2500
   3068.6377    -999.2500    -999.2500    -999.2500      24.3421    -999.2500      31.4392      29.9057      30.9189       0.0676    -999.2500
   3068.7900    -999.2500    -999.2500    -999.2500      27.6432    -999.2500      31.6996      29.3109      29.6144       0.0560    -999.2500
   3068.9424    -999.2500    -999.2500    -999.2500      30.4875    -999.2500      32.0849      28.8783      28.5870       0.0488    -999.2500
   3069.0947    -999.2500    -999.2500    -999.2500      29.5329    -999.2500      33.5099      29.7938      29.8630       0.0509    -999.2500
   3069.2471    -999.2500    -999.2500    -999.2500      28.4063    -999.2500      35.0070      30.9183      31.5440       0.0549    -999.2500
   3069.3997    -999.2500    -999.2500    -999.2500      25.9278    -999.2500      37.0711      33.6851      36.4079       0.0595    -999.2500
   3069.5520    -999.2500    -999.2500    -999.2500      23.4777    -999.2500      39.0078      36.3516      41.1405       0.0626    -999.2500
   3069.7043    -999.2500    -999.2500    -999.2500      21.2519    -999.2500      39.9347      38.2233      44.8325       0.0602    -999.2500
   3069.8567    -999.2500    -999.2500    -999.2500      19.3902    -999.2500      40.5632      39.5883      47.4773       0.0564    -999.2500
   3070.0093    -999.2500    -999.2500    -999.2500      20.4878    -999.2500      38.7670      36.8340      41.6098       0.0511    -999.2500
   3070.1616    -999.2500    -999.2500    -999.2500      21.7389    -999.2500      37.0331      34.2465      36.1285       0.0470    -999.2500
   3070.3140    -999.2500    -999.2500    -999.2500      24.2503    -999.2500      35.8107      33.0276      33.8145       0.0481    -999.2500
   3070.4663    -999.2500    -999.2500    -999.2500      26.5818    -999.2500      34.7644      32.0090      31.8143       0.0504    -999.2500
   3070.6189    -999.2500    -999.2500    -999.2500      27.4236    -999.2500      35.1760      32.6488      32.4104       0.0541    -999.2500
   3070.7712    -999.2500    -999.2500    -999.2500      28.1139    -999.2500      35.7184      33.6003      33.5159       0.0575    -999.2500
   3070.9236    -999.2500    -999.2500    -999.2500      27.6190    -999.2500      37.2829      36.9901      38.6051       0.0595    -999.2500
   3071.0759    -999.2500    -999.2500    -999.2500      26.8912    -999.2500      38.8639      40.3940      43.7237       0.0600    -999.2500
   3071.2283    -999.2500    -999.2500    -999.2500      24.2964    -999.2500      40.5761      43.9104      49.0774       0.0567    -999.2500
   3071.3809    -999.2500    -999.2500    -999.2500      21.8200    -999.2500      42.0024      47.0011      53.8782       0.0533    -999.2500
   3071.5332    -999.2500    -999.2500    -999.2500      20.3021    -999.2500      41.1158      46.6472      54.2070       0.0514    -999.2500
   3071.6855    -999.2500    -999.2500    -999.2500      19.1272    -999.2500      40.1048      46.1430      54.2602       0.0495    -999.2500
   3071.8379    -999.2500    -999.2500    -999.2500      20.7502    -999.2500      38.0788      44.4116      52.0634       0.0466    -999.2500
   3071.9905    -999.2500    -999.2500    -999.2500      22.5800    -999.2500      36.0306      42.5759      49.6496       0.0444    -999.2500
   3072.1428    -999.2500    -999.2500    -999.2500      26.1409    -999.2500      33.7960      39.8660      45.4189       0.0446    -999.2500
   3072.2952    -999.2500    -999.2500    -999.2500      29.9981    -999.2500      31.4617      36.9789      41.0437       0.0464    -999.2500
   3072.4475    -999.2500    -999.2500    -999.2500      36.3577    -999.2500      28.2844      32.5937      35.4472       0.0518    -999.2500
   3072.6001    -999.2500    -999.2500    -999.2500      42.3692    -999.2500      25.2556      28.4298      30.1354       0.0585    -999.2500
   3072.7524    -999.2500    -999.2500    -999.2500      45.6033    -999.2500      23.4119      26.0303      27.0952       0.0668    -999.2500
   3072.9048    -999.2500    -999.2500    -999.2500      48.0992    -999.2500      21.7155      23.8262      24.3384       0.0742    -999.2500
   3073.0571    -999.2500    -999.2500    -999.2500      44.6540    -999.2500      21.2047      23.1950      23.8619       0.0772    -999.2500
   3073.2095    -999.2500    -999.2500    -999.2500      40.9088    -999.2500      20.7244      22.6335      23.4264       0.0778    -999.2500
   3073.3621    -999.2500    -999.2500    -999.2500      34.6875    -999.2500      20.4970      22.6475      23.3279       0.0734    -999.2500
   3073.5144    -999.2500    -999.2500    -999.2500      28.6905    -999.2500      20.2073      22.5173      23.1793       0.0691    -999.2500
   3073.6667    -999.2500    -999.2500    -999.2500      24.5626    -999.2500      19.3986      21.1861      22.6127       0.0686    -999.2500
   3073.8191    -999.2500    -999.2500    -999.2500      21.2303    -999.2500      18.5087      19.7661      21.7825       0.0691    -999.2500
