#------------------------------------------------------------------------------
#
#   Created by  : [OpenWorks] Log Export Utility (LEXP)
#   Created on  : 2016-05-23 11:57:10
#   Project     : CANT971
#   User        : R5K
#   Interpreter : PEP
#
#------------------------------------------------------------------------------
~VERSION INFORMATION
VERS. 2.0 : CWLS Log ASCII Standard - version 2.0
WRAP.  NO : One line per depth step
~WELL INFORMATION
#MNEMONIC   .UNIT                                           VALUE :DESCRIPTION
#------------------------------------------------------------------------------
STRT        .M                                           345.0980 :START DEPTH
STOP        .M                                          2040.8528 :STOP DEPTH
STEP        .M                                             0.1524 :STEP
NULL        .                                           -999.2500 :NULL VALUE
COMP        .                                   PEMEX EXPL & PROD :COMPANY
WELL        .                                                  71 :WELL
FLD         .                                           CANTARELL :FIELD
LOC         .                                             UNKNOWN :LOCATION
CNTY        .                                      CD. DEL CARMEN :COUNTY
STAT        .                                            CAMPECHE :STATE
CTRY        .                                              MEXICO :COUNTRY
SRVC        .                                             UNKNOWN :SERVICE COMPANY
DATE        .                                             UNKNOWN :LOG DATE
UWI         .                                          3060000175 :UNIQUE WELL ID
XCOORD      .                                       599724.470000 :SURFACE X
YCOORD      .                                      2147216.900000 :SURFACE Y
LAT         .                                           19.417919 :LATITUDE
LON         .                                          -92.050150 :LONGITUDE
ELEV        .M                                            27.8000 :SURFACE ELEV
ELEV_TYPE   .                                                  KB :ELEV TYPE
~CURVE INFORMATION
#MNEMONIC.UNIT        API CODE       : CURVE DESCRIPTION
#------------------------------------------------------------------------------
DEPTH    .M                          : Measured Depth
DT       .us/ft       UNKNOWN        : DT:DT:rC:NONE:v0 (auto-composite)
GR       .UNKNOWN     UNKNOWN        : GR:GR-Load:rC:NONE:v0 (auto-composite)
ILD      .UNKNOWN     UNKNOWN        : ILD:ILD-Load:rC:NONE:v0 (auto-composite)
NPHI     .v/v_decimal UNKNOWN        : NPHI:NPHI:rC:NONE:v0 (auto-composite)
RG       .UNKNOWN     UNKNOWN        : RG:RG-Loader:rC:NONE:v0 (auto-composite)
RHOB     .UNKNOWN     UNKNOWN        : RHOB:RHOB-Load:rC:NONE:v0 (auto-composite)
~A     DEPTH           DT           GR          ILD         NPHI           RG         RHOB
# ...
   1941.0308    -999.2500      31.8945      93.6111      10.1876    -999.2500       1.9500
   1941.1832    -999.2500      33.9079      93.3595       9.7971    -999.2500       1.9500
   1941.3356    -999.2500      39.9572      92.3633       9.7069    -999.2500       1.9500
   1941.4880    -999.2500      51.5604      90.3459      10.0299    -999.2500       1.9500
   1941.6404    -999.2500      57.1083      87.8154      10.1591    -999.2500       1.9500
   1941.7928    -999.2500      54.3214      84.5810      10.0216    -999.2500       1.9500
   1941.9452    -999.2500      49.9090      83.6445       9.4119    -999.2500       1.9500
   1942.0977    -999.2500      43.2587      85.8614       8.1519    -999.2500       1.9500
   1942.2500    -999.2500      39.7281      87.0831       7.6035    -999.2500       1.9500
   1942.4025    -999.2500      40.4939      86.9386       8.0350    -999.2500       1.9500
   1942.5548    -999.2500      40.8403      86.1083       9.5493    -999.2500       1.9500
   1942.7073    -999.2500      40.6108      84.3363      12.5552    -999.2500       1.9500
   1942.8596    -999.2500      40.1770      81.4169      13.7720    -999.2500       1.9500
   1943.0120    -999.2500      39.4625      76.9216      12.5235    -999.2500       1.9500
   1943.1644    -999.2500      37.0739      72.3460      11.8425    -999.2500       1.9500
   1943.3168    -999.2500      32.3855      67.6601      11.9435    -999.2500       1.9500
   1943.4692    -999.2500      29.9144      65.1234      12.1155    -999.2500       1.9500
   1943.6216    -999.2500      30.4899      65.5399      12.3850    -999.2500       1.9500
   1943.7740    -999.2500      31.4181      66.4133      12.6385    -999.2500       1.9500
   1943.9264    -999.2500      32.8310      67.9148      12.8700    -999.2500       1.9500
   1944.0789    -999.2500      34.0322      69.6215      13.8935    -999.2500       1.9500
   1944.2312    -999.2500      34.9422      71.6105      16.0060    -999.2500       1.9500
   1944.3837    -999.2500      35.2368      74.4555      17.0372    -999.2500       1.9500
   1944.5360    -999.2500      34.6853      78.4779      16.5817    -999.2500       1.9500
   1944.6885    -999.2500      33.3780      86.4304      15.5994    -999.2500       1.9500
   1944.8408    -999.2500      31.0311      99.7888      13.8925    -999.2500       1.9500
   1944.9932    -999.2500      29.7238     107.0331      11.7552    -999.2500       1.9500
   1945.1456    -999.2500      29.8468     105.8926       9.0258    -999.2500       1.9500
   1945.2980    -999.2500      30.1869     103.8043       7.4923    -999.2500       1.9500
   1945.4504    -999.2500      30.8259     100.4159       7.6048    -999.2500       1.9500
   1945.6028    -999.2500      34.9284      97.5589       7.9075    -999.2500       1.9500
   1945.7552    -999.2500      43.7986      95.4310       8.4720    -999.2500       1.9500
   1945.9076    -999.2500      48.8405      94.0238      10.5306    -999.2500       1.9500
   1946.0601    -999.2500      48.6110      93.6058      14.6465    -999.2500       1.9500
   1946.2124    -999.2500      44.6428      93.1147      17.0148    -999.2500       1.9500
   1946.3649    -999.2500      35.5254      92.5232      16.9763    -999.2500       1.9500
   1946.5172    -999.2500      30.2915      91.5405      15.7705    -999.2500       1.9500
   1946.6697    -999.2500      30.3900      90.0206      12.9566    -999.2500       1.9500
   1946.8220    -999.2500      30.6267      88.2044      11.3479    -999.2500       1.9500
   1946.9744    -999.2500      31.0532      85.9815      11.3999    -999.2500       1.9500
   1947.1268    -999.2500      35.7850      85.3130      11.6988    -999.2500       1.9500
   1947.2792    -999.2500      46.4317      86.7799      12.3367    -999.2500       1.9500
   1947.4316    -999.2500      52.3112      87.3618      12.4647    -999.2500       1.9500
   1947.5840    -999.2500      51.6397      86.7273      11.8917    -999.2500       1.9500
   1947.7365    -999.2500      46.3354      85.1653      11.7432    -999.2500       1.9500
   1947.8888    -999.2500      34.6633      82.3284      12.1782    -999.2500       1.9500
   1948.0413    -999.2500      27.9967      78.7891      12.4216    -999.2500       1.9500
   1948.1936    -999.2500      28.2122      74.2843      12.4016    -999.2500       1.9500
   1948.3461    -999.2500      28.9782      71.8547      12.2869    -999.2500       1.9500
   1948.4984    -999.2500      30.5011      72.2792      12.0419    -999.2500       1.9500
   1948.6509    -999.2500      34.2028      73.7334      11.9610    -999.2500       1.9500
   1948.8032    -999.2500      40.9016      76.6039      12.1060    -999.2500       1.9500
   1948.9556    -999.2500      44.4376      78.1438      12.3377    -999.2500       1.9500
   1949.1080    -999.2500      43.6216      77.8588      12.6887    -999.2500       1.9500
   1949.2604    -999.2500      42.3267      77.1672      12.9659    -999.2500       1.9500
   1949.4128    -999.2500      40.3728      75.9177      13.1413    -999.2500       1.9500
   1949.5652    -999.2500      38.3974      74.1489      13.4391    -999.2500       1.9500
   1949.7177    -999.2500      36.3925      71.6675      13.9051    -999.2500    -999.2500
   1949.8700    -999.2500      33.7660      69.0934      13.9886    -999.2500    -999.2500
   1950.0225    -999.2500      30.2836      66.3919      13.5457    -999.2500    -999.2500
   1950.1748    -999.2500      29.6392      64.2687      12.5622    -999.2500    -999.2500
   1950.3273    -999.2500      32.9040      62.9393      10.8342    -999.2500    -999.2500
   1950.4796    -999.2500      45.7656      62.4759      10.0921    -999.2500    -999.2500
   1950.6321    -999.2500      71.8058      63.2019      10.7080    -999.2500    -999.2500
   1950.7844    -999.2500      84.5334      64.4159      12.1987    -999.2500    -999.2500
   1950.9368    -999.2500      78.9756      66.3004      14.8947    -999.2500    -999.2500
   1951.0892    -999.2500      67.1745      67.7067      16.0411    -999.2500    -999.2500
   1951.2416    -999.2500      46.7956      68.4562      15.0587    -999.2500    -999.2500
   1951.3940    -999.2500      35.0967      69.3773      13.5051    -999.2500    -999.2500
   1951.5464    -999.2500      35.3262      70.5343      11.1667    -999.2500    -999.2500
   1951.6989    -999.2500      36.1983      73.3957       9.4412    -999.2500    -999.2500
   1951.8512    -999.2500      37.9537      78.6000       8.5582    -999.2500    -999.2500
   1952.0037    -999.2500      41.0091      84.2647       8.1417    -999.2500    -999.2500
   1952.1560    -999.2500      45.8520      90.5625       8.3667    -999.2500    -999.2500
   1952.3085    -999.2500      47.1562      94.4349       8.9266    -999.2500    -999.2500
   1952.4608    -999.2500      43.5939      94.9713       9.9471    -999.2500    -999.2500
   1952.6133    -999.2500      41.7086      97.6940      10.1830    -999.2500    -999.2500
   1952.7656    -999.2500      42.1306     103.4241       9.3395    -999.2500    -999.2500
   1952.9180    -999.2500      40.8692     106.6366       9.0086    -999.2500    -999.2500
   1953.0704    -999.2500      37.2913     106.3961       9.3831    -999.2500    -999.2500
   1953.2228    -999.2500      35.3040     105.3552       9.5013    -999.2500    -999.2500
   1953.3752    -999.2500      35.5060     103.2163       9.2668    -999.2500    -999.2500
   1953.5276    -999.2500      35.9916     100.3801       8.7910    -999.2500    -999.2500
   1953.6801    -999.2500      36.8675      96.5872       7.9831    -999.2500    -999.2500
   1953.8324    -999.2500      37.1712      93.5941       7.6568    -999.2500    -999.2500
   1953.9849    -999.2500      36.6867      91.6987       7.9938    -999.2500    -999.2500
   1954.1372    -999.2500      36.7073      89.6821       8.6100    -999.2500    -999.2500
   1954.2897    -999.2500      37.4235      87.4991       9.6110    -999.2500    -999.2500
