#------------------------------------------------------------------------------
#
#   Created by  : [OpenWorks] Log Export Utility (LEXP)
#   Created on  : 2016-05-23 11:57:01
#   Project     : CANT971
#   User        : R5K
#   Interpreter : PEP
#
#------------------------------------------------------------------------------
~VERSION INFORMATION
VERS. 2.0 : CWLS Log ASCII Standard - version 2.0
WRAP.  NO : One line per depth step
~WELL INFORMATION
#MNEMONIC   .UNIT                                           VALUE :DESCRIPTION
#------------------------------------------------------------------------------
STRT        .M                                           485.8514 :START DEPTH
STOP        .M                                          3526.5361 :STOP DEPTH
STEP        .M                                             0.1524 :STEP
NULL        .                                           -999.2500 :NULL VALUE
COMP        .                                   PEMEX EXPL & PROD :COMPANY
WELL        .                                                  62 :WELL
FLD         .                                           CANTARELL :FIELD
LOC         .                                             UNKNOWN :LOCATION
CNTY        .                                      CD. DEL CARMEN :COUNTY
STAT        .                                            CAMPECHE :STATE
CTRY        .                                              MEXICO :COUNTRY
SRVC        .                                             UNKNOWN :SERVICE COMPANY
DATE        .                                             UNKNOWN :LOG DATE
UWI         .                                          3060000468 :UNIQUE WELL ID
XCOORD      .                                       601711.280000 :SURFACE X
YCOORD      .                                      2142346.320000 :SURFACE Y
LAT         .                                           19.373806 :LATITUDE
LON         .                                          -92.031488 :LONGITUDE
ELEV        .M                                            24.0000 :SURFACE ELEV
ELEV_TYPE   .                                                  KB :ELEV TYPE
~CURVE INFORMATION
#MNEMONIC.UNIT        API CODE       : CURVE DESCRIPTION
#------------------------------------------------------------------------------
DEPTH    .M                          : Measured Depth
CALI     .inches      UNKNOWN        : CALI:editado:rC:NONE:v0 (auto-composite)
DRHO     .g/cm3       UNKNOWN        : DRHO:editado:rC:NONE:v0 (auto-composite)
DT       .us/ft       UNKNOWN        : DT:editado:rC:NONE:v0 (auto-composite)
GR       .API         UNKNOWN        : GR:editado:rC:NONE:v0 (auto-composite)
ILD      .ohm.m       UNKNOWN        : ILD:editado:rC:NONE:v0 (auto-composite)
ILM      .ohm.m       UNKNOWN        : ILM:editado:rC:NONE:v0 (auto-composite)
LLD      .ohm.m       UNKNOWN        : LLD:editado:rC:NONE:v0 (auto-composite)
LLS      .ohm.m       UNKNOWN        : LLS:editado:rC:NONE:v0 (auto-composite)
MSFL     .ohm.m       UNKNOWN        : MSFL:editado:rC:NONE:v0 (auto-composite)
NPHI     .v/v_decimal UNKNOWN        : NPHI:editado:rC:NONE:v0 (auto-composite)
PEF      .b/elec      UNKNOWN        : PEF:editado:rC:NONE:v0 (auto-composite)
RHOB     .g/cm3       UNKNOWN        : RHOB:editado:rC:NONE:v0 (auto-composite)
~A     DEPTH         CALI         DRHO           DT           GR          ILD          ILM          LLD          LLS         MSFL         NPHI          PEF         RHOB
# ...
   1948.8914       9.6730       0.0610      78.0620      38.0390    -999.2500    -999.2500     182.9220      98.3510       9.5720       0.0963       3.5620       2.7050
   1949.0438       9.7861       0.0374      85.4053      41.1138    -999.2500    -999.2500     155.3992      72.7961     135.0817       0.0780       3.6439       2.7176
   1949.1962       9.8980       0.0140      92.7440      44.1720    -999.2500    -999.2500     128.1130      47.4610     259.3130       0.0604       3.7250       2.7300
   1949.3486       9.8432       0.0145      97.5442      43.8602    -999.2500    -999.2500     105.9235      47.5735     152.4705       0.0580       3.7099       2.7456
   1949.5010       9.7890       0.0150     102.3420      43.5500    -999.2500    -999.2500      83.9220      47.6850      46.7030       0.0603       3.6950       2.7610
   1949.6534       9.7890       0.0165     127.2692      41.3939    -999.2500    -999.2500      87.9584      50.3717      47.6859       0.0607       3.7116       2.7479
   1949.8058       9.7890       0.0180     152.1870      39.2490    -999.2500    -999.2500      91.9610      53.0360      48.6590       0.0585       3.7280       2.7350
   1949.9583       9.7905       0.0120     150.6243      32.7446    -999.2500    -999.2500     113.9765      65.4701      93.4397       0.0511       3.7858       2.7380
   1950.1106       9.7920       0.0060     149.0620      26.2730    -999.2500    -999.2500     135.8110      77.8020     137.7810       0.0441       3.8430       2.7410
   1950.2631       9.7985       0.0140     142.1441      26.3788    -999.2500    -999.2500     184.6629     100.4909     134.6709       0.0430       3.8792       2.7656
   1950.4154       9.8050       0.0220     135.2270      26.4840    -999.2500    -999.2500     233.1190     122.9960     131.5910       0.0450       3.9150       2.7900
   1950.5677       9.8000       0.0205     125.2155      27.3907    -999.2500    -999.2500     223.4494     118.2641     122.7045       0.0500       3.9652       2.7850
   1950.7202       9.7950       0.0190     115.2040      28.2930    -999.2500    -999.2500     213.8570     113.5700     113.9030       0.0579       4.0150       2.7800
   1950.8726       9.7488       0.0130     103.4008      34.0194    -999.2500    -999.2500     167.0598      91.8929      85.8190       0.0706       4.0014       2.7619
   1951.0250       9.7030       0.0070      91.5960      39.7190    -999.2500    -999.2500     120.6300      70.3860      58.0000       0.0819       3.9880       2.7440
   1951.1774       9.7030       0.0030      80.2524      39.6368    -999.2500    -999.2500     122.7663      71.2288      76.9950       0.0841       4.1216       2.7319
   1951.3298       9.7030      -0.0010      68.9060      39.5550    -999.2500    -999.2500     124.8860      72.0650      95.8130       0.0824       4.2540       2.7200
   1951.4822       9.7110      -0.0015      70.8829      39.0900    -999.2500    -999.2500     123.4671      71.5621      80.9552       0.0794       4.1028       2.6758
   1951.6346       9.7190      -0.0020      72.8590      38.6270    -999.2500    -999.2500     122.0590      71.0630      66.2340       0.0747       3.9530       2.6320
   1951.7870       9.7582      -0.0045      79.0529      34.6059    -999.2500    -999.2500     116.6466      68.6360      73.0164       0.0665       3.9676       2.6325
   1951.9395       9.7970      -0.0070      85.2400      30.6020    -999.2500    -999.2500     111.2790      66.2290      79.7320       0.0592       3.9820       2.6330
   1952.0918       9.8538      -0.0040     100.4399      31.4222    -999.2500    -999.2500      98.7349      58.1634     186.4276       0.0572       4.2166       2.6395
   1952.2443       9.9100      -0.0010     115.6250      32.2390    -999.2500    -999.2500      86.3030      50.1700     292.0000       0.0584       4.4490       2.6460
   1952.3966       9.8060       0.0276     113.0659      36.8162    -999.2500    -999.2500      86.8308      50.2775     167.7994       0.0625       4.3771       2.6671
   1952.5490       9.7030       0.0560     110.5090      41.3750    -999.2500    -999.2500      87.3540      50.3840      44.8910       0.0663       4.3060       2.6880
   1952.7014       9.7030       0.0500     100.7620      40.6648    -999.2500    -999.2500      95.5340      53.5412      49.1031       0.0665       4.0758       2.7131
   1952.8538       9.7030       0.0440      91.0220      39.9580    -999.2500    -999.2500     103.6430      56.6710      53.2720       0.0645       3.8480       2.7380
   1953.0062       9.6919       0.0254      80.0702      36.0074    -999.2500    -999.2500     151.5859      77.3335      75.4330       0.0604       3.6817       2.7486
   1953.1586       9.6810       0.0070      69.1250      32.0780    -999.2500    -999.2500     199.1180      97.8190      97.3690       0.0577       3.5170       2.7590
   1953.3110       9.6363       0.0040      69.3906      32.5272    -999.2500    -999.2500     196.7435      96.9498     121.2402       0.0609       3.5366       2.7434
   1953.4634       9.5920       0.0010      69.6560      32.9740    -999.2500    -999.2500     194.3890      96.0880     144.8720       0.0650       3.5560       2.7280
   1953.6158       9.5538       0.0020      68.7438      38.5248    -999.2500    -999.2500     184.7409      92.3188     342.0848       0.0653       3.6585       2.7285
   1953.7682       9.5160       0.0030      67.8320      44.0470    -999.2500    -999.2500     175.1730      88.5810     537.3440       0.0626       3.7600       2.7290
   1953.9207       9.5492       0.0090      60.9622      43.1372    -999.2500    -999.2500     165.1042      83.8461     372.9304       0.0554       3.8962       2.7406
   1954.0730       9.5820       0.0150      54.0940      42.2320    -999.2500    -999.2500     155.1180      79.1500     210.1250       0.0487       4.0310       2.7520
   1954.2255       9.5775       0.0130      54.3115      36.9270    -999.2500    -999.2500     146.7613      73.8275     269.4741       0.0475       4.1822       2.7500
   1954.3778       9.5730       0.0110      54.5290      31.6480    -999.2500    -999.2500     138.4720      68.5480     328.2500       0.0479       4.3320       2.7480
   1954.5302       9.5444       0.0035      64.0768      32.2239    -999.2500    -999.2500     140.9207      70.1905     242.9996       0.0471       4.2501       2.7334
   1954.6826       9.5160      -0.0040      73.6250      32.7970    -999.2500    -999.2500     143.3500      71.8200     158.5620       0.0468       4.1690       2.7190
   1954.8350       9.5552      -0.0030      71.2812      35.8822    -999.2500    -999.2500     152.9842      71.3933     167.1182       0.0490       3.9208       2.7230
   1954.9874       9.5940      -0.0020      68.9370      38.9530    -999.2500    -999.2500     162.5430      70.9700     175.5940       0.0539       3.6750       2.7270
   1955.1398       9.5895       0.0045      69.2681      38.9259    -999.2500    -999.2500     161.7555      71.3630     104.4864       0.0632       3.9784       2.7205
   1955.2922       9.5850       0.0110      69.5990      38.8990    -999.2500    -999.2500     160.9740      71.7530      34.0390       0.0744       4.2790       2.7140
   1955.4446       9.5463       0.0180      78.7114      36.9998    -999.2500    -999.2500     163.1834      74.2198      37.1086       0.0857       4.2609       2.6723
   1955.5970       9.5080       0.0250      87.8130      35.1090    -999.2500    -999.2500     165.3760      76.6680      40.1500       0.0939       4.2430       2.6310
   1955.7494       9.5180       0.0240      86.9285      35.2458    -999.2500    -999.2500     180.6987      83.5529      70.1289       0.0942       4.1304       2.6370
   1955.9019       9.5280       0.0230      86.0450      35.3820    -999.2500    -999.2500     195.8950      90.3810      99.8130       0.0901       4.0190       2.6430
   1956.0542       9.5707       0.0150      79.9261      36.4196    -999.2500    -999.2500     192.1317      89.8702      87.9146       0.0824       3.7370       2.6676
