#------------------------------------------------------------------------------
#
#   Created by  : [OpenWorks] Log Export Utility (LEXP)
#   Created on  : 2016-05-23 11:50:23
#   Project     : CANT971
#   User        : R5K
#   Interpreter : PEP
#
#------------------------------------------------------------------------------
~VERSION INFORMATION
VERS. 2.0 : CWLS Log ASCII Standard - version 2.0
WRAP.  NO : One line per depth step
~WELL INFORMATION
#MNEMONIC   .UNIT                                           VALUE :DESCRIPTION
#------------------------------------------------------------------------------
STRT        .M                                           790.6004 :START DEPTH
STOP        .M                                          2649.8804 :STOP DEPTH
STEP        .M                                             0.1524 :STEP
NULL        .                                           -999.2500 :NULL VALUE
COMP        .                                             UNKNOWN :COMPANY
WELL        .                                               1012D :WELL
FLD         .                                             UNKNOWN :FIELD
LOC         .                                             UNKNOWN :LOCATION
CNTY        .                                             UNKNOWN :COUNTY
STAT        .                                             UNKNOWN :STATE
CTRY        .                                             UNKNOWN :COUNTRY
SRVC        .                                             UNKNOWN :SERVICE COMPANY
DATE        .                                             UNKNOWN :LOG DATE
UWI         .                                               1012D :UNIQUE WELL ID
XCOORD      .                                       594334.990000 :SURFACE X
YCOORD      .                                      2152041.060000 :SURFACE Y
LAT         .                                           19.461774 :LATITUDE
LON         .                                          -92.101239 :LONGITUDE
ELEV        .M                                             0.0000 :SURFACE ELEV
ELEV_TYPE   .                                                  KB :ELEV TYPE
~CURVE INFORMATION
#MNEMONIC.UNIT        API CODE       : CURVE DESCRIPTION
#------------------------------------------------------------------------------
DEPTH    .M                          : Measured Depth
DT       .us/ft       UNKNOWN        : DT:UNKNOWN:rC:NONE:v0 (auto-composite)
GR       .API         UNKNOWN        : GR:PETROWORKS:rC:NONE:v1 
GR-LWD   .API         UNKNOWN        : GR-LWD:PETROWORKS:rC:NONE:v1 
ILD      .ohm.m       UNKNOWN        : ILD:resistivos:rC:NONE:v0 (auto-composite)
ILD-LWD  .ohm.m       UNKNOWN        : ILD-LWD:PETROWORKS:rC:NONE:v1 
ILM      .ohm.m       UNKNOWN        : ILM:resistivos:rC:NONE:v0 (auto-composite)
ILM-LWD  .ohm.m       UNKNOWN        : ILM-LWD:PETROWORKS:rC:NONE:v1 
~A     DEPTH           DT           GR       GR-LWD          ILD      ILD-LWD          ILM      ILM-LWD
# ...
   2456.9419      96.9148      26.8052      52.8114    -999.2500       1.3439    -999.2500       1.3254
   2457.0945      95.8957      24.5758      49.6950    -999.2500       1.3016    -999.2500       1.2965
   2457.2468      94.4868      23.4031      47.9253    -999.2500       1.3250    -999.2500       1.3335
   2457.3992      92.2517      22.5762      46.0399    -999.2500       1.4119    -999.2500       1.4195
   2457.5515      90.8164      21.2392      45.6080    -999.2500       1.5188    -999.2500       1.5222
   2457.7041      90.6972      19.3584      41.5115    -999.2500       1.4847    -999.2500       1.4862
   2457.8564      90.5860      18.7538      39.9767    -999.2500       1.3970    -999.2500       1.4015
   2458.0088      90.6466      19.9656      40.1280    -999.2500       1.3177    -999.2500       1.3164
   2458.1611      91.7471      20.8927      40.2650    -999.2500       1.2166    -999.2500       1.2243
   2458.3137      92.5322      21.3479      39.7989    -999.2500       1.2551    -999.2500       1.2495
   2458.4661      92.4790      20.8278      38.6181    -999.2500       1.3426    -999.2500       1.3489
   2458.6184      89.7947      19.6421      39.6401    -999.2500       1.3721    -999.2500       1.3851
   2458.7708      86.1989      18.8603      42.2081    -999.2500       1.5470    -999.2500       1.5485
   2458.9231      82.2665      18.5464      41.6795    -999.2500       1.6538    -999.2500       1.6541
   2459.0757      78.2136      18.6848      41.3129    -999.2500       1.6834    -999.2500       1.6863
   2459.2280      75.4521      19.2661      39.7256    -999.2500       1.7835    -999.2500       1.7877
   2459.3804      73.1498      19.3325      39.1197    -999.2500       1.8618    -999.2500       1.8670
   2459.5327      73.2842      19.0419      37.9056    -999.2500       1.8361    -999.2500       1.8441
   2459.6853      77.4703      18.8376      37.4004    -999.2500       1.7854    -999.2500       1.7918
   2459.8376      83.2380      18.0002      38.7500    -999.2500       1.7868    -999.2500       1.7935
   2459.9900      83.5985      17.3714      40.5835    -999.2500       1.7521    -999.2500       1.7582
   2460.1423      83.2239      16.5930      40.6616    -999.2500       1.7320    -999.2500       1.7320
   2460.2949      82.8106      16.5320      39.2869    -999.2500       1.7139    -999.2500       1.7002
   2460.4473      83.3201      16.9870      37.6526    -999.2500       1.5421    -999.2500       1.5173
   2460.5996      85.8974      18.8134      39.1695    -999.2500       1.3011    -999.2500       1.2930
   2460.7520      89.7101      20.3145      40.7391    -999.2500       1.2014    -999.2500       1.2040
   2460.9043      92.3687      20.6998      41.8043    -999.2500       1.1778    -999.2500       1.1854
   2461.0569      90.5814      20.1386      41.4711    -999.2500       1.3018    -999.2500       1.2981
   2461.2092      87.2526      18.6186      39.6783    -999.2500       1.5255    -999.2500       1.4941
   2461.3616      85.8063      19.0580      38.0189    -999.2500       1.7058    -999.2500       1.6614
   2461.5139      86.5858      19.0721      36.1571    -999.2500       1.7837    -999.2500       1.7457
   2461.6665      90.6214      18.2311      34.3174    -999.2500       1.8634    -999.2500       1.8354
   2461.8188      89.7472      18.1860      33.7344    -999.2500       1.9214    -999.2500       1.9117
   2461.9712      95.6484      18.7814      35.0737    -999.2500       1.9648    -999.2500       1.9675
   2462.1235     112.6211      19.0387      37.2014    -999.2500       2.0258    -999.2500       2.0269
   2462.2761     111.9850      19.2622      41.7059    -999.2500       2.1752    -999.2500       2.1856
   2462.4285     110.4156      19.0861      47.1711    -999.2500       1.8961    -999.2500       1.8765
   2462.5808     107.1412      20.3654      50.0276    -999.2500       1.0959    -999.2500       1.0959
   2462.7332     101.6902      20.8217      50.6507    -999.2500       0.8913    -999.2500       0.8984
   2462.8855      98.2154      21.4824      49.3061    -999.2500       0.8015    -999.2500       0.8049
   2463.0381      99.9055      23.3919      48.8876    -999.2500       0.7831    -999.2500       0.7803
   2463.1904     103.0582      24.7202      51.6132    -999.2500       0.8472    -999.2500       0.8362
   2463.3428     103.9112      24.8142      51.5325    -999.2500       0.8572    -999.2500       0.8550
   2463.4951     104.1241      24.1177      49.6968    -999.2500       0.8432    -999.2500       0.8394
   2463.6477     103.9892      25.1066      49.0380    -999.2500       0.8415    -999.2500       0.8303
   2463.8000     103.7660      26.7625      54.2015    -999.2500       0.7879    -999.2500       0.7811
   2463.9524     103.9839      26.6667      57.5717    -999.2500       0.7689    -999.2500       0.7526
   2464.1047     104.2742      25.3913      58.4034    -999.2500       0.7552    -999.2500       0.7412
   2464.2573     104.9670      24.5236      60.0394    -999.2500       0.6767    -999.2500       0.6719
   2464.4097     106.2280      24.9450      61.9231    -999.2500       0.7165    -999.2500       0.7011
   2464.5620     107.9996      25.8460      62.4587    -999.2500       0.6828    -999.2500       0.6732
   2464.7144     109.1681      26.4842      62.4753    -999.2500       0.7185    -999.2500       0.7145
   2464.8667     109.8922      24.9447      60.6587    -999.2500       0.8809    -999.2500       0.8659
   2465.0193     109.7160      23.3324      54.8803    -999.2500       0.9860    -999.2500       0.9667
   2465.1716     109.8585      23.9437      50.5778    -999.2500       0.9867    -999.2500       0.9733
   2465.3240     109.8014      26.0504      51.6470    -999.2500       0.9580    -999.2500       0.9504
   2465.4763     109.9251      28.8224      53.8099    -999.2500       0.8921    -999.2500       0.8862
   2465.6289     108.8131      28.1260      53.9122    -999.2500       0.8749    -999.2500       0.8656
   2465.7812     107.2469      28.1053      52.8245    -999.2500       0.8934    -999.2500       0.8822
   2465.9336     105.7064      27.0319      52.0732    -999.2500       0.8719    -999.2500       0.8636
   2466.0859     104.5014      27.3179      51.5138    -999.2500       0.8671    -999.2500       0.8594
   2466.2383     102.5511      25.6635      51.2237    -999.2500       0.8981    -999.2500       0.8877
   2466.3909     100.7059      24.9611      53.7203    -999.2500       0.9438    -999.2500       0.9372
   2466.5432     101.1085      22.9855      56.6072    -999.2500       0.9172    -999.2500       0.9182
   2466.6956     101.7307      21.4298      57.7926    -999.2500       0.9117    -999.2500       0.9114
   2466.8479     101.9460      21.3604      57.7595    -999.2500       0.9469    -999.2500       0.9372
   2467.0005     102.5470      22.8724      56.6013    -999.2500       0.9789    -999.2500       0.9630
   2467.1528     102.9917      26.1134      55.9332    -999.2500       0.9508    -999.2500       0.9405
   2467.3052     103.2817      28.3547      56.0020    -999.2500       0.9044    -999.2500       0.8967
   2467.4575     102.6773      25.2123      55.6829    -999.2500       0.8629    -999.2500       0.8559
   2467.6101     100.8880      24.2490      54.4808    -999.2500       0.8822    -999.2500       0.8782
   2467.7625     100.7430      27.1140      53.7220    -999.2500       0.9277    -999.2500       0.9227
   2467.9148     100.8440      28.8230      53.8739    -999.2500       0.9679    -999.2500       0.9602
   2468.0671     101.6380      28.5630      54.3468    -999.2500       1.0086    -999.2500       0.9972
   2468.2195     101.6220      28.8230      55.7107    -999.2500       1.0887    -999.2500       1.0627
   2468.3721     100.8723      29.8743      54.3758    -999.2500       0.9687    -999.2500       0.9512
   2468.5244      99.6461      31.9547      54.2331    -999.2500       0.9206    -999.2500       0.9054
