#------------------------------------------------------------------------------
#
#   Created by  : [OpenWorks] Log Export Utility (LEXP)
#   Created on  : 2016-05-23 11:51:18
#   Project     : CANT971
#   User        : R5K
#   Interpreter : PEP
#
#------------------------------------------------------------------------------
~VERSION INFORMATION
VERS. 2.0 : CWLS Log ASCII Standard - version 2.0
WRAP.  NO : One line per depth step
~WELL INFORMATION
#MNEMONIC   .UNIT                                           VALUE :DESCRIPTION
#------------------------------------------------------------------------------
STRT        .M                                           690.7880 :START DEPTH
STOP        .M                                          2950.1179 :STOP DEPTH
STEP        .M                                             0.1524 :STEP
NULL        .                                           -999.2500 :NULL VALUE
COMP        .                                   PEMEX EXPL & PROD :COMPANY
WELL        .                                                1066 :WELL
FLD         .                                           CANTARELL :FIELD
LOC         .                                             UNKNOWN :LOCATION
CNTY        .                                      CD. DEL CARMEN :COUNTY
STAT        .                                            CAMPECHE :STATE
CTRY        .                                              MEXICO :COUNTRY
SRVC        .                                             UNKNOWN :SERVICE COMPANY
DATE        .                                             UNKNOWN :LOG DATE
UWI         .                                          3060000505 :UNIQUE WELL ID
XCOORD      .                                       596157.670000 :SURFACE X
YCOORD      .                                      2150605.920000 :SURFACE Y
LAT         .                                           19.448718 :LATITUDE
LON         .                                          -92.083948 :LONGITUDE
ELEV        .M                                            30.0000 :SURFACE ELEV
ELEV_TYPE   .                                                  KB :ELEV TYPE
~CURVE INFORMATION
#MNEMONIC.UNIT        API CODE       : CURVE DESCRIPTION
#------------------------------------------------------------------------------
DEPTH    .M                          : Measured Depth
CALI     .inches      UNKNOWN        : CALI:litodensidad:rC:NONE:v0 (auto-composite)
DRHO     .g/cm3       UNKNOWN        : DRHO:litodensidad:rC:NONE:v0 (auto-composite)
DT       .us/ft       UNKNOWN        : DT:DT:rC:NONE:v0 (auto-composite)
GR       .API         UNKNOWN        : GR:UNKNOWN:rC:NONE:v0 (auto-composite)
ILD      .ohmm        UNKNOWN        : ILD:UNKNOWN:rC:NONE:v0 (auto-composite)
ILM      .ohmm        UNKNOWN        : ILM:UNKNOWN:rC:NONE:v0 (auto-composite)
LLD      .ohmm        UNKNOWN        : LLD:UNKNOWN:rC:NONE:v0 (auto-composite)
LLS      .ohmm        UNKNOWN        : LLS:UNKNOWN:rC:NONE:v0 (auto-composite)
MSFL     .ohmm        UNKNOWN        : MSFL:UNKNOWN:rC:NONE:v0 (auto-composite)
NPHI     .v/v_decimal UNKNOWN        : NPHI:PETROWORKS:rC:NONE:v2 
PEF      .b/elec      UNKNOWN        : PEF:litodensidad:rC:NONE:v0 (auto-composite)
RHOB     .g/cm3       UNKNOWN        : RHOB:litodensidad:rC:NONE:v0 (auto-composite)
~A     DEPTH         CALI         DRHO           DT           GR          ILD          ILM          LLD          LLS         MSFL         NPHI          PEF         RHOB
# ...
   1436.9385    -999.2500    -999.2500    -999.2500      30.8738       1.0548       1.0449       0.2000       0.2000       0.2000      -0.1500    -999.2500    -999.2500
   1437.0908    -999.2500    -999.2500    -999.2500      29.6454       1.0608       1.0299       0.2000       0.2000       0.2000      -0.1500    -999.2500    -999.2500
   1437.2432    -999.2500    -999.2500    -999.2500      29.1979       1.0588       1.0168       0.2000       0.2000       0.2000      -0.1500    -999.2500    -999.2500
   1437.3956    -999.2500    -999.2500    -999.2500      29.6177       1.0478       1.0058       0.2000       0.2000       0.2000      -0.1500    -999.2500    -999.2500
   1437.5480    -999.2500    -999.2500    -999.2500      30.4628       1.0323       0.9941       0.2000       0.2000       0.2000      -0.1500    -999.2500    -999.2500
   1437.7004    -999.2500    -999.2500    -999.2500      31.7820       1.0117       0.9815       0.2000       0.2000       0.2000      -0.1500    -999.2500    -999.2500
   1437.8528    -999.2500    -999.2500    -999.2500      33.7403       0.9957       0.9714       0.2000       0.2000       0.2000      -0.1500    -999.2500    -999.2500
   1438.0052    -999.2500    -999.2500    -999.2500      36.3977       0.9847       0.9639       0.2000       0.2000       0.2000      -0.1500    -999.2500    -999.2500
   1438.1576    -999.2500    -999.2500    -999.2500      38.3685       0.9778       0.9583       0.2000       0.2000       0.2000      -0.1500    -999.2500    -999.2500
   1438.3101    -999.2500    -999.2500    -999.2500      39.6049       0.9753       0.9548       0.2000       0.2000       0.2000      -0.1500    -999.2500    -999.2500
   1438.4624    -999.2500    -999.2500    -999.2500      40.0816       0.9735       0.9516       0.2000       0.2000       0.2000      -0.1500    -999.2500    -999.2500
   1438.6149    -999.2500    -999.2500    -999.2500      39.7401       0.9725       0.9485       0.2000       0.2000       0.2000      -0.1500    -999.2500    -999.2500
   1438.7672    -999.2500    -999.2500    -999.2500      39.3635       0.9703       0.9455       0.2000       0.2000       0.2000      -0.1500    -999.2500    -999.2500
   1438.9197    -999.2500    -999.2500    -999.2500      38.9499       0.9668       0.9425       0.2000       0.2000       0.2000      -0.1500    -999.2500    -999.2500
   1439.0720    -999.2500    -999.2500    -999.2500      38.4062       0.9628       0.9400       0.2000       0.2000       0.2000      -0.1500    -999.2500    -999.2500
   1439.2244    -999.2500    -999.2500    -999.2500      37.7248       0.9583       0.9380       0.2000       0.2000       0.2000      -0.1500    -999.2500    -999.2500
   1439.3768    -999.2500    -999.2500    -999.2500      36.6006       0.9545       0.9358       0.2000       0.2000       0.2000      -0.1500    -999.2500    -999.2500
   1439.5292    -999.2500    -999.2500    -999.2500      35.0172       0.9515       0.9333       0.2000       0.2000       0.2000      -0.1500    -999.2500    -999.2500
   1439.6816    -999.2500    -999.2500    -999.2500      34.0878       0.9493       0.9310       0.2000       0.2000       0.2000      -0.1500    -999.2500    -999.2500
   1439.8340    -999.2500    -999.2500    -999.2500      33.8215       0.9478       0.9290       0.2000       0.2000       0.2000      -0.1500    -999.2500    -999.2500
   1439.9865    -999.2500    -999.2500    -999.2500      33.2156       0.9468       0.9280       0.2000       0.2000       0.2000      -0.1500    -999.2500    -999.2500
   1440.1388    -999.2500    -999.2500    -999.2500      32.2630       0.9463       0.9280       0.2000       0.2000       0.2000      -0.1500    -999.2500    -999.2500
   1440.2913    -999.2500    -999.2500    -999.2500      32.2927       0.9460       0.9285       0.2000       0.2000       0.2000      -0.1500    -999.2500    -999.2500
   1440.4436    -999.2500    -999.2500    -999.2500      33.3034       0.9460       0.9295       0.2000       0.2000       0.2000      -0.1500    -999.2500    -999.2500
   1440.5961    -999.2500    -999.2500    -999.2500      34.2388       0.9463       0.9308       0.2000       0.2000       0.2000      -0.1500    -999.2500    -999.2500
   1440.7484    -999.2500    -999.2500    -999.2500      35.0987       0.9468       0.9323       0.2000       0.2000       0.2000      -0.1500    -999.2500    -999.2500
   1440.9009    -999.2500    -999.2500    -999.2500      35.3761       0.9475       0.9343       0.2000       0.2000       0.2000      -0.1500    -999.2500    -999.2500
   1441.0532    -999.2500    -999.2500    -999.2500      35.0809       0.9485       0.9368       0.2000       0.2000       0.2000      -0.1500    -999.2500    -999.2500
   1441.2056    -999.2500    -999.2500    -999.2500      35.0146       0.9503       0.9403       0.2000       0.2000       0.2000      -0.1500    -999.2500    -999.2500
   1441.3580    -999.2500    -999.2500    -999.2500      35.1690       0.9528       0.9448       0.2000       0.2000       0.2000      -0.1500    -999.2500    -999.2500
   1441.5104    -999.2500    -999.2500    -999.2500      34.9185       0.9543       0.9488       0.2000       0.2000       0.2000      -0.1500    -999.2500    -999.2500
   1441.6628    -999.2500    -999.2500    -999.2500      34.2760       0.9548       0.9523       0.2000       0.2000       0.2000      -0.1500    -999.2500    -999.2500
   1441.8152    -999.2500    -999.2500    -999.2500      34.3880       0.9540       0.9548       0.2000       0.2000       0.2000      -0.1500    -999.2500    -999.2500
   1441.9677    -999.2500    -999.2500    -999.2500      35.2166       0.9520       0.9563       0.2000       0.2000       0.2000      -0.1500    -999.2500    -999.2500
   1442.1200    -999.2500    -999.2500    -999.2500      35.4844       0.9487       0.9578       0.2000       0.2000       0.2000      -0.1500    -999.2500    -999.2500
   1442.2725    -999.2500    -999.2500    -999.2500      35.2177       0.9442       0.9593       0.2000       0.2000       0.2000      -0.1500    -999.2500    -999.2500
   1442.4248    -999.2500    -999.2500    -999.2500      34.9373       0.9436       0.9629       0.2000       0.2000       0.2000      -0.1500    -999.2500    -999.2500
   1442.5773    -999.2500    -999.2500    -999.2500      34.6441       0.9466       0.9684       0.2000       0.2000       0.2000      -0.1500    -999.2500    -999.2500
   1442.7296    -999.2500    -999.2500    -999.2500      34.8595       0.9652       0.9882       0.2000       0.2000       0.2000      -0.1500    -999.2500    -999.2500
   1442.8821    -999.2500    -999.2500    -999.2500      35.5402       0.9982       1.0212       0.2000       0.2000       0.2000      -0.1500    -999.2500    -999.2500
   1443.0344    -999.2500    -999.2500    -999.2500      35.0409       1.0349       1.0749       0.2000       0.2000       0.2000      -0.1500    -999.2500    -999.2500
   1443.1868    -999.2500    -999.2500    -999.2500      33.4587       1.0750       1.1476       0.2000       0.2000       0.2000      -0.1500    -999.2500    -999.2500
   1443.3392    -999.2500    -999.2500    -999.2500      31.8890       1.1032       1.2030       0.2000       0.2000       0.2000      -0.1500    -999.2500    -999.2500
   1443.4916    -999.2500    -999.2500    -999.2500      30.3307       1.1207       1.2430       0.2000       0.2000       0.2000      -0.1500    -999.2500    -999.2500
   1443.6440    -999.2500    -999.2500    -999.2500      29.4449       1.1340       1.2407       0.2000       0.2000       0.2000      -0.1500    -999.2500    -999.2500
   1443.7964    -999.2500    -999.2500    -999.2500      29.1667       1.1435       1.2001       0.2000       0.2000       0.2000      -0.1500    -999.2500    -999.2500
   1443.9489    -999.2500    -999.2500    -999.2500      29.4804       1.1467       1.1542       0.2000       0.2000       0.2000      -0.1500    -999.2500    -999.2500
   1444.1012    -999.2500    -999.2500    -999.2500      30.3187       1.1442       1.1035       0.2000       0.2000       0.2000      -0.1500    -999.2500    -999.2500
