#------------------------------------------------------------------------------
#
#   Created by  : [OpenWorks] Log Export Utility (LEXP)
#   Created on  : 2016-05-23 11:51:57
#   Project     : CANT971
#   User        : R5K
#   Interpreter : PEP
#
#------------------------------------------------------------------------------
~VERSION INFORMATION
VERS. 2.0 : CWLS Log ASCII Standard - version 2.0
WRAP. YES : Mulitple lines per depth step
~WELL INFORMATION
#MNEMONIC   .UNIT                                           VALUE :DESCRIPTION
#------------------------------------------------------------------------------
STRT        .M                                           782.8787 :START DEPTH
STOP        .M                                          2966.0088 :STOP DEPTH
STEP        .M                                             0.1524 :STEP
NULL        .                                           -999.2500 :NULL VALUE
COMP        .                                   PEMEX EXPL & PROD :COMPANY
WELL        .                                                 178 :WELL
FLD         .                                           CANTARELL :FIELD
LOC         .                                             UNKNOWN :LOCATION
CNTY        .                                      CD. DEL CARMEN :COUNTY
STAT        .                                            CAMPECHE :STATE
CTRY        .                                              MEXICO :COUNTRY
SRVC        .                                             UNKNOWN :SERVICE COMPANY
DATE        .                                             UNKNOWN :LOG DATE
UWI         .                                          3060000702 :UNIQUE WELL ID
XCOORD      .                                       602144.590000 :SURFACE X
YCOORD      .                                      2147185.340000 :SURFACE Y
LAT         .                                           19.417512 :LATITUDE
LON         .                                          -92.027103 :LONGITUDE
ELEV        .M                                            28.1700 :SURFACE ELEV
ELEV_TYPE   .                                                  KB :ELEV TYPE
~CURVE INFORMATION
#MNEMONIC.UNIT        API CODE       : CURVE DESCRIPTION
#------------------------------------------------------------------------------
DEPTH    .M                          : Measured Depth
CALI     .inches      UNKNOWN        : CALI:registros:rC:NONE:v0 (auto-composite)
CGR      .API         UNKNOWN        : CGR:registros:rC:NONE:v0 (auto-composite)
DRHO     .g/cm3       UNKNOWN        : DRHO:registros:rC:NONE:v0 (auto-composite)
DT       .UNKNOWN     UNKNOWN        : DT:registros:rC:NONE:v0 (auto-composite)
GR       .API         UNKNOWN        : GR:registros:rC:NONE:v0 (auto-composite)
GR-LWD   .UNKNOWN     UNKNOWN        : GR-LWD:registros:rC:NONE:v0 (auto-composite)
ILD      .ohm.m       UNKNOWN        : ILD:registros:rC:NONE:v0 (auto-composite)
ILM      .ohm.m       UNKNOWN        : ILM:registros:rC:NONE:v0 (auto-composite)
LLD      .ohm.m       UNKNOWN        : LLD:registros:rC:NONE:v0 (auto-composite)
LLD-LWD  .UNKNOWN     UNKNOWN        : LLD-LWD:registros:rC:NONE:v0 (auto-composite)
LLS      .ohm.m       UNKNOWN        : LLS:registros:rC:NONE:v0 (auto-composite)
LLS-LWD  .UNKNOWN     UNKNOWN        : LLS-LWD:registros:rC:NONE:v0 (auto-composite)
MSFL     .ohm.m       UNKNOWN        : MSFL:registros:rC:NONE:v0 (auto-composite)
MSFL-LWD .UNKNOWN     UNKNOWN        : MSFL-LWD:registros:rC:NONE:v0 (auto-composite)
NPHI     .v/v_decimal UNKNOWN        : NPHI:registros:rC:NONE:v0 (auto-composite)
PEF      .b/elec      UNKNOWN        : PEF:registros:rC:NONE:v0 (auto-composite)
POTA     .wtpercent   UNKNOWN        : POTA:registros:rC:NONE:v0 (auto-composite)
RHOB     .g/cm3       UNKNOWN        : RHOB:registros:rC:NONE:v0 (auto-composite)
THOR     .ppm         UNKNOWN        : THOR:registros:rC:NONE:v0 (auto-composite)
URAN     .ppm         UNKNOWN        : URAN:registros:rC:NONE:v0 (auto-composite)
~A
# ...
   2519.7815
       8.8863      35.2806       0.1657    -999.2500      40.2229    -999.2500
    -999.2500    -999.2500      10.5822    -999.2500       7.1599    -999.2500
       8.8235    -999.2500       0.2755       3.2847       0.0112       2.6506
       4.8059       0.7651
   2519.9338
       9.1039      38.5429       0.1373    -999.2500      45.1130    -999.2500
    -999.2500    -999.2500       9.0600    -999.2500       6.0881    -999.2500
      10.0143    -999.2500       0.2806       2.9286       0.0124       2.4482
       5.1359       0.9829
   2520.0864
       9.2778      42.0986       0.1181    -999.2500      49.1683    -999.2500
    -999.2500    -999.2500       7.6829    -999.2500       5.1111    -999.2500
      11.0393    -999.2500       0.3189       2.6308       0.0139       2.2547
       5.3985       0.9989
   2520.2388
       8.9507      42.8217       0.2064    -999.2500      48.6691    -999.2500
    -999.2500    -999.2500       8.0811    -999.2500       5.2997    -999.2500
      10.1581    -999.2500       0.3481       3.0156       0.0140       2.1631
       5.5907       0.8235
   2520.3911
       8.6633      41.2122       0.2865    -999.2500      47.4558    -999.2500
    -999.2500    -999.2500       8.5170    -999.2500       5.5205    -999.2500
       9.4422    -999.2500       0.3744       3.3756       0.0139       2.0863
       5.1270       0.8560
   2520.5435
       8.8433      38.6632       0.2686    -999.2500      45.2577    -999.2500
    -999.2500    -999.2500       9.3749    -999.2500       6.1074    -999.2500
      10.5933    -999.2500       0.4104       3.4444       0.0134       2.1768
       4.6306       0.9717
   2520.6960
       8.9965      35.9194       0.2533    -999.2500      45.4685    -999.2500
    -999.2500    -999.2500      10.3611    -999.2500       6.7764    -999.2500
      12.2252    -999.2500       0.4036       3.5278       0.0131       2.2650
       3.9226       1.3735
   2520.8484
       8.8400      34.1665       0.2693    -999.2500      44.4811    -999.2500
    -999.2500    -999.2500      12.7742    -999.2500       8.3568    -999.2500
      19.4118    -999.2500       0.3726       3.7757       0.0128       2.3270
       3.5183       1.5318
   2521.0007
       8.6715      32.1766       0.2783    -999.2500      40.7285    -999.2500
    -999.2500    -999.2500      15.7813    -999.2500      10.3880    -999.2500
      26.6321    -999.2500       0.3273       4.0299       0.0113       2.3924
       3.7550       1.2462
   2521.1531
       8.3620      29.5084       0.2074    -999.2500      37.7218    -999.2500
    -999.2500    -999.2500      25.4094    -999.2500      17.4606    -999.2500
      34.2957    -999.2500       0.3161       4.3502       0.0103       2.4959
       3.4722       1.2439
   2521.3054
       8.0732      30.4829       0.1376    -999.2500      36.4447    -999.2500
    -999.2500    -999.2500      34.6309    -999.2500      24.3363    -999.2500
      40.9433    -999.2500       0.2791       4.6567       0.0099       2.5944
       3.9926       0.9758
   2521.4580
       8.0257      33.1702       0.0828    -999.2500      39.0965    -999.2500
    -999.2500    -999.2500      38.4235    -999.2500      28.3968    -999.2500
      36.0799    -999.2500       0.3055       4.7900       0.0104       2.6375
       4.5937       0.9273
   2521.6104
       7.9953      34.5609       0.0302    -999.2500      40.7208    -999.2500
    -999.2500    -999.2500      41.3336    -999.2500      31.7695    -999.2500
      31.1467    -999.2500       0.3306       4.8415       0.0102       2.6676
       5.1839       1.0146
   2521.7627
       8.1638      35.4456       0.0078    -999.2500      41.6407    -999.2500
    -999.2500    -999.2500      33.9469    -999.2500      27.0491    -999.2500
      25.3907    -999.2500       0.3954       3.9545       0.0098       2.5516
       5.6496       1.1211
   2521.9150
       8.3107      34.4945      -0.0023    -999.2500      41.5041    -999.2500
    -999.2500    -999.2500      28.1613    -999.2500      23.1838    -999.2500
      21.0597    -999.2500       0.3772       3.1692       0.0100       2.4477
       5.2480       1.2738
   2522.0676
       8.2073      34.6191       0.1325    -999.2500      40.3404    -999.2500
    -999.2500    -999.2500      41.4446    -999.2500      29.5638    -999.2500
      33.0377    -999.2500       0.3580       3.5984       0.0093       2.4812
       5.7169       1.0620
   2522.2200
       8.1040      34.0794       0.2494    -999.2500      38.7651    -999.2500
    -999.2500    -999.2500      53.1273    -999.2500      34.9454    -999.2500
      44.1774    -999.2500       0.3627       4.0082       0.0086       2.5205
       5.9669       0.8704
   2522.3723
       8.0031      36.1026       0.1551    -999.2500      38.5591    -999.2500
    -999.2500    -999.2500      45.6756    -999.2500      28.5139    -999.2500
      45.7847    -999.2500       0.3529       4.1839       0.0092       2.6266
       6.2504       0.5958
   2522.5247
       7.9123      37.5865       0.0639    -999.2500      40.0894    -999.2500
    -999.2500    -999.2500      37.7049    -999.2500      21.9389    -999.2500
      46.1195    -999.2500       0.3333       4.2652       0.0096       2.7166
       6.4934       0.5923
   2522.6770
       7.9408      39.7370       0.0126    -999.2500      42.2732    -999.2500
    -999.2500    -999.2500      24.3527    -999.2500      14.2392    -999.2500
      32.0977    -999.2500       0.3602       3.2501       0.0100       2.6252
       6.9137       0.6358
   2522.8296
       7.9595      43.0312      -0.0254    -999.2500      44.9758    -999.2500
    -999.2500    -999.2500      11.9324    -999.2500       7.1674    -999.2500
      19.1635    -999.2500       0.3725       2.3315       0.0105       2.5329
       7.7150       0.5935
   2522.9819
       7.8666      41.4825       0.0944    -999.2500      46.0156    -999.2500
    -999.2500    -999.2500      11.0666    -999.2500       7.7944    -999.2500
      18.6595    -999.2500       0.4325       2.5498       0.0106       2.4317
       7.1688       0.9185
   2523.1343
       7.7999      42.8664       0.2082    -999.2500      47.9463    -999.2500
    -999.2500    -999.2500      10.3340    -999.2500       8.4308    -999.2500
      17.8037    -999.2500       0.4080       2.7678       0.0109       2.3416
       7.4098       0.9956
   2523.2866
       8.0369      41.0618       0.2476    -999.2500      46.7715    -999.2500
    -999.2500    -999.2500      11.1889    -999.2500       9.1450    -999.2500
      12.9562    -999.2500       0.4227       2.9790       0.0111       2.3730
       6.7152       1.0401
   2523.4392
       8.2841      39.9715       0.2784    -999.2500      45.0264    -999.2500
    -999.2500    -999.2500      11.8089    -999.2500       9.6956    -999.2500
       8.3659    -999.2500       0.4254       3.1582       0.0108       2.4053
       6.5545       0.8961
   2523.5916
       8.6461      38.5022       0.2085    -999.2500      43.4670    -999.2500
    -999.2500    -999.2500       9.6764    -999.2500       8.3191    -999.2500
       6.7329    -999.2500       0.5018       2.9619       0.0100       2.4463
       6.5443       0.8396
   2523.7439
       9.0558      37.1914       0.1487    -999.2500      42.8920    -999.2500
    -999.2500    -999.2500       7.6172    -999.2500       6.9619    -999.2500
       5.2053    -999.2500       0.5054       2.7781       0.0101       2.4765
       6.0888       1.0225
   2523.8962
      10.0100      35.9850       0.2064    -999.2500      42.2253    -999.2500
    -999.2500    -999.2500       6.5235    -999.2500       5.9026    -999.2500
       4.8505    -999.2500       0.4222       2.7411       0.0104       2.3840
       5.5200       1.0478
   2524.0488
      10.9178      34.0201       0.2584    -999.2500      42.8016    -999.2500
    -999.2500    -999.2500       5.4657    -999.2500       4.8666    -999.2500
       4.5917    -999.2500       0.3363       2.7314       0.0100       2.2978
       5.1082       1.3574
