#------------------------------------------------------------------------------
#
#   Created by  : [OpenWorks] Log Export Utility (LEXP)
#   Created on  : 2016-05-23 11:56:24
#   Project     : CANT971
#   User        : R5K
#   Interpreter : PEP
#
#------------------------------------------------------------------------------
~VERSION INFORMATION
VERS. 2.0 : CWLS Log ASCII Standard - version 2.0
WRAP.  NO : One line per depth step
~WELL INFORMATION
#MNEMONIC   .UNIT                                           VALUE :DESCRIPTION
#------------------------------------------------------------------------------
STRT        .M                                           741.4294 :START DEPTH
STOP        .M                                          2768.5020 :STOP DEPTH
STEP        .M                                             0.1524 :STEP
NULL        .                                           -999.2500 :NULL VALUE
COMP        .                                             UNKNOWN :COMPANY
WELL        .                                                 470 :WELL
FLD         .                                             UNKNOWN :FIELD
LOC         .                                             UNKNOWN :LOCATION
CNTY        .                                             UNKNOWN :COUNTY
STAT        .                                             UNKNOWN :STATE
CTRY        .                                             UNKNOWN :COUNTRY
SRVC        .                                             UNKNOWN :SERVICE COMPANY
DATE        .                                             UNKNOWN :LOG DATE
UWI         .                                                 470 :UNIQUE WELL ID
XCOORD      .                                       598706.890000 :SURFACE X
YCOORD      .                                      2143306.000000 :SURFACE Y
LAT         .                                           19.382628 :LATITUDE
LON         .                                          -92.060044 :LONGITUDE
ELEV        .M                                             0.0000 :SURFACE ELEV
ELEV_TYPE   .                                                  NA :ELEV TYPE
~CURVE INFORMATION
#MNEMONIC.UNIT        API CODE       : CURVE DESCRIPTION
#------------------------------------------------------------------------------
DEPTH    .M                          : Measured Depth
CALI     .inches      UNKNOWN        : CALI:litodensidad:rC:NONE:v0 (auto-composite)
CGR      .API         UNKNOWN        : CGR:PETROWORKS:rC:NONE:v1 
DRHO     .g/cm3       UNKNOWN        : DRHO:litodensidad:rC:NONE:v0 (auto-composite)
DT       .us/ft       UNKNOWN        : DT:PETROWORKS:rC:NONE:v1 
GR       .API         UNKNOWN        : GR:PETROWORKS:rC:NONE:v8 
ILD      .ohm.m       UNKNOWN        : ILD:PETROWORKS:rC:NONE:v1 
ILM      .ohm.m       UNKNOWN        : ILM:PETROWORKS:rC:NONE:v1 
LLD      .ohm.m       UNKNOWN        : LLD:resistivos:rC:NONE:v0 (auto-composite)
LLS      .ohm.m       UNKNOWN        : LLS:resistivos:rC:NONE:v0 (auto-composite)
MSFL     .ohm.m       UNKNOWN        : MSFL:resistivos:rC:NONE:v0 (auto-composite)
NPHI     .v/v_decimal UNKNOWN        : NPHI:PETROWORKS:rC:NONE:v1 
PEF      .UNKNOWN     UNKNOWN        : PEF:litodensidad:rC:NONE:v0 (auto-composite)
POTA     .wtpercent   UNKNOWN        : POTA:PETROWORKS:rC:NONE:v1 
RHOB     .g/cm3       UNKNOWN        : RHOB:litodensidad:rC:NONE:v0 (auto-composite)
THOR     .ppm         UNKNOWN        : THOR:PETROWORKS:rC:NONE:v1 
URAN     .ppm         UNKNOWN        : URAN:PETROWORKS:rC:NONE:v1 
~A     DEPTH         CALI          CGR         DRHO           DT           GR          ILD          ILM          LLD          LLS         MSFL         NPHI          PEF         POTA         RHOB         THOR         URAN
# ...
   2224.4338    -999.2500      30.6946    -999.2500    -999.2500      26.6734       6.5355       8.0834    -999.2500    -999.2500    -999.2500       0.1139    -999.2500       0.0095    -999.2500       2.4281       0.8940
   2224.5862    -999.2500      30.9469    -999.2500    -999.2500      28.9869       7.4850      11.3491    -999.2500    -999.2500    -999.2500       0.1346    -999.2500       0.0100    -999.2500       2.2899       0.8892
   2224.7385    -999.2500      27.7158    -999.2500    -999.2500      36.1026       8.5372      14.8467    -999.2500    -999.2500    -999.2500       0.1395    -999.2500       0.0098    -999.2500       1.6824       0.6981
   2224.8911    -999.2500      25.6732    -999.2500    -999.2500      38.3983       9.6070      16.3909    -999.2500    -999.2500    -999.2500       0.1349    -999.2500       0.0091    -999.2500       1.5391       0.6397
   2225.0435    -999.2500      25.6860    -999.2500    -999.2500      34.3008      12.5210      15.3520    -999.2500    -999.2500    -999.2500       0.1363    -999.2500       0.0077    -999.2500       2.1423       1.4089
   2225.1958    -999.2500      21.1345    -999.2500    -999.2500      39.2612      12.6761      14.8772    -999.2500    -999.2500    -999.2500       0.1278    -999.2500       0.0062    -999.2500       1.7913       1.2406
   2225.3481    -999.2500      20.5534    -999.2500    -999.2500      45.8524      12.7676      12.4043    -999.2500    -999.2500    -999.2500       0.1270    -999.2500       0.0058    -999.2500       1.8530       1.1971
   2225.5007    -999.2500      18.0344    -999.2500    -999.2500      54.6857      13.1552       9.6972    -999.2500    -999.2500    -999.2500       0.1087    -999.2500       0.0057    -999.2500       1.3789       0.9429
   2225.6531    -999.2500      15.7569    -999.2500    -999.2500      64.6804      15.6435       7.0559    -999.2500    -999.2500    -999.2500       0.0837    -999.2500       0.0051    -999.2500       1.1524       0.8723
   2225.8054    -999.2500      15.0346    -999.2500    -999.2500      57.5008      14.6426      10.8315    -999.2500    -999.2500    -999.2500       0.0610    -999.2500       0.0050    -999.2500       1.0495       0.8336
   2225.9578    -999.2500      19.4374    -999.2500    -999.2500      42.1030      16.4480      17.4406    -999.2500    -999.2500    -999.2500       0.0486    -999.2500       0.0045    -999.2500       2.1478       0.8708
   2226.1104    -999.2500      20.2548    -999.2500    -999.2500      32.5961      18.1016      24.9801    -999.2500    -999.2500    -999.2500       0.0506    -999.2500       0.0048    -999.2500       2.2141       0.8970
   2226.2627    -999.2500      30.6872    -999.2500    -999.2500      27.3489      20.2011      31.2487    -999.2500    -999.2500    -999.2500       0.0645    -999.2500       0.0099    -999.2500       2.2777       0.8681
   2226.4150    -999.2500      29.6270    -999.2500    -999.2500      29.6307      21.4604      41.0143    -999.2500    -999.2500    -999.2500       0.0770    -999.2500       0.0096    -999.2500       2.1556       0.8114
   2226.5674    -999.2500      25.2612    -999.2500    -999.2500      30.5411      26.9164      50.7848    -999.2500    -999.2500    -999.2500       0.0728    -999.2500       0.0087    -999.2500       1.6298       0.7167
   2226.7197    -999.2500      27.8158    -999.2500    -999.2500      32.6228      31.3001      65.3203    -999.2500    -999.2500    -999.2500       0.0616    -999.2500       0.0085    -999.2500       2.2610       1.4619
   2226.8723    -999.2500      30.2420    -999.2500    -999.2500      32.6511      36.9932      91.5723    -999.2500    -999.2500    -999.2500       0.0584    -999.2500       0.0088    -999.2500       2.6058       1.6989
   2227.0247    -999.2500      41.9279    -999.2500    -999.2500      28.4258      39.6807      99.4684    -999.2500    -999.2500    -999.2500       0.0830    -999.2500       0.0158    -999.2500       2.1444       1.6150
   2227.1770    -999.2500      49.5983    -999.2500    -999.2500      23.2552      40.0216     113.3966    -999.2500    -999.2500    -999.2500       0.1010    -999.2500       0.0171    -999.2500       3.2138       1.8023
   2227.3293    -999.2500      35.7668    -999.2500    -999.2500      20.3601      40.0216     113.3966    -999.2500    -999.2500    -999.2500       0.1078    -999.2500       0.0114    -999.2500       2.6922       1.6311
   2227.4819    -999.2500      25.0481    -999.2500    -999.2500      20.0633      40.0216     113.3966    -999.2500    -999.2500    -999.2500       0.0808    -999.2500       0.0091    -999.2500       1.4215       1.1775
   2227.6343    -999.2500      16.3537    -999.2500    -999.2500      18.9307      40.0216     113.3966    -999.2500    -999.2500    -999.2500       0.0556    -999.2500       0.0056    -999.2500       1.0720       1.3853
   2227.7866    -999.2500      14.3148    -999.2500    -999.2500      18.7454      62.5255     232.1243    -999.2500    -999.2500    -999.2500       0.0391    -999.2500       0.0059    -999.2500       0.5104       1.1353
   2227.9390    -999.2500      14.9074    -999.2500    -999.2500      19.2126      62.5255     232.1243    -999.2500    -999.2500    -999.2500       0.0375    -999.2500       0.0060    -999.2500       0.5993       1.6398
   2228.0916    -999.2500      13.5833    -999.2500    -999.2500      18.6035      62.5255     232.1243    -999.2500    -999.2500    -999.2500       0.0429    -999.2500       0.0055    -999.2500       0.5415       1.6239
   2228.2439    -999.2500      14.1346    -999.2500    -999.2500      20.0221      62.5255     232.1243    -999.2500    -999.2500    -999.2500       0.0444    -999.2500       0.0046    -999.2500       1.0197       1.9511
   2228.3962    -999.2500      12.2852    -999.2500    -999.2500      20.0377      83.0732     350.4512    -999.2500    -999.2500    -999.2500       0.0442    -999.2500       0.0037    -999.2500       1.0031       1.9466
   2228.5486    -999.2500       8.1040    -999.2500    -999.2500      21.4329      83.0732     350.4512    -999.2500    -999.2500    -999.2500       0.0371    -999.2500       0.0017    -999.2500       0.9668       1.8275
   2228.7009    -999.2500      10.3023    -999.2500    -999.2500      23.1412      83.0732     350.4512    -999.2500    -999.2500    -999.2500       0.0355    -999.2500       0.0030    -999.2500       0.9123       1.1109
   2228.8535    -999.2500       9.1329    -999.2500    -999.2500      25.0122      83.0732     350.4512    -999.2500    -999.2500    -999.2500       0.0336    -999.2500       0.0024    -999.2500       0.9028       1.0479
   2229.0059    -999.2500       9.2080    -999.2500    -999.2500      25.2798     102.8737     464.0044    -999.2500    -999.2500    -999.2500       0.0348    -999.2500       0.0023    -999.2500       0.9639       1.0859
   2229.1582    -999.2500       7.8743    -999.2500    -999.2500      23.2920     102.8737     464.0044    -999.2500    -999.2500    -999.2500       0.0350    -999.2500       0.0019    -999.2500       0.8574       1.0272
   2229.3105    -999.2500       8.3960    -999.2500    -999.2500      21.1250     102.8737     464.0044    -999.2500    -999.2500    -999.2500       0.0335    -999.2500       0.0023    -999.2500       0.8012       1.0435
   2229.4631    -999.2500       8.5590    -999.2500    -999.2500      21.8048      90.8145     454.8920    -999.2500    -999.2500    -999.2500       0.0292    -999.2500       0.0025    -999.2500       0.7172       1.0627
   2229.6155    -999.2500       7.7138    -999.2500    -999.2500      25.0668     101.5224     470.9299    -999.2500    -999.2500    -999.2500       0.0247    -999.2500       0.0024    -999.2500       0.5876       1.0382
   2229.7678    -999.2500       9.3988    -999.2500    -999.2500      26.6624     161.3184     734.6527    -999.2500    -999.2500    -999.2500       0.0236    -999.2500       0.0029    -999.2500       0.7443       1.1359
   2229.9202    -999.2500       8.5533    -999.2500    -999.2500      25.2085     108.1339     531.6139    -999.2500    -999.2500    -999.2500       0.0247    -999.2500       0.0028    -999.2500       0.6234       1.0897
