#------------------------------------------------------------------------------
#
#   Created by  : [OpenWorks] Log Export Utility (LEXP)
#   Created on  : 2016-05-23 11:52:51
#   Project     : CANT971
#   User        : R5K
#   Interpreter : PEP
#
#------------------------------------------------------------------------------
~VERSION INFORMATION
VERS. 2.0 : CWLS Log ASCII Standard - version 2.0
WRAP.  NO : One line per depth step
~WELL INFORMATION
#MNEMONIC   .UNIT                                           VALUE :DESCRIPTION
#------------------------------------------------------------------------------
STRT        .M                                           691.4386 :START DEPTH
STOP        .M                                          2836.4685 :STOP DEPTH
STEP        .M                                             0.1524 :STEP
NULL        .                                           -999.2500 :NULL VALUE
COMP        .                                   PEMEX EXPL & PROD :COMPANY
WELL        .                                                2094 :WELL
FLD         .                                           CANTARELL :FIELD
LOC         .                                             UNKNOWN :LOCATION
CNTY        .                                      CD. DEL CARMEN :COUNTY
STAT        .                                            CAMPECHE :STATE
CTRY        .                                              MEXICO :COUNTRY
SRVC        .                                             UNKNOWN :SERVICE COMPANY
DATE        .                                             UNKNOWN :LOG DATE
UWI         .                                          3060000525 :UNIQUE WELL ID
XCOORD      .                                       601711.170000 :SURFACE X
YCOORD      .                                      2142342.970000 :SURFACE Y
LAT         .                                           19.373776 :LATITUDE
LON         .                                          -92.031490 :LONGITUDE
ELEV        .M                                            24.0000 :SURFACE ELEV
ELEV_TYPE   .                                                  KB :ELEV TYPE
~CURVE INFORMATION
#MNEMONIC.UNIT        API CODE       : CURVE DESCRIPTION
#------------------------------------------------------------------------------
DEPTH    .M                          : Measured Depth
CALI     .in          UNKNOWN        : CALI:registros:rC:NONE:v0 (auto-composite)
DRHO     .g/cm3       UNKNOWN        : DRHO:registros:rC:NONE:v0 (auto-composite)
DT       .us/ft       UNKNOWN        : DT:registros:rC:NONE:v0 (auto-composite)
GR       .API         UNKNOWN        : GR:registros:rC:NONE:v0 (auto-composite)
ILD      .ohm.m       UNKNOWN        : ILD:registros:rC:NONE:v0 (auto-composite)
ILM      .ohm.m       UNKNOWN        : ILM:registros:rC:NONE:v0 (auto-composite)
LLD      .ohm.m       UNKNOWN        : LLD:registros:rC:NONE:v0 (auto-composite)
LLS      .ohm.m       UNKNOWN        : LLS:registros:rC:NONE:v0 (auto-composite)
MSFL     .ohm.m       UNKNOWN        : MSFL:registros:rC:NONE:v0 (auto-composite)
NPHI     .v/v_decimal UNKNOWN        : NPHI:registros:rC:NONE:v0 (auto-composite)
PEF      .b/elec      UNKNOWN        : PEF:registros:rC:NONE:v0 (auto-composite)
RHOB     .g/cm3       UNKNOWN        : RHOB:registros:rC:NONE:v0 (auto-composite)
~A     DEPTH         CALI         DRHO           DT           GR          ILD          ILM          LLD          LLS         MSFL         NPHI          PEF         RHOB
# ...
   2191.0547    -999.2500      -0.2500      56.6778      24.4157       1.9129       1.8219       0.2118       0.1485       0.4566    -999.2500    -999.2500    -999.2500
   2191.2070    -999.2500      -0.2500      56.8285      22.9690       1.8450       1.7660       0.2780       0.1490       0.6500    -999.2500    -999.2500    -999.2500
   2191.3594    -999.2500      -0.2500      57.0120      18.7147       1.7009       1.6619       0.2398       0.1515       0.5161    -999.2500    -999.2500    -999.2500
   2191.5117    -999.2500      -0.2500      57.1181      14.4880       1.5570       1.5580       0.2020       0.1540       0.3830    -999.2500    -999.2500    -999.2500
   2191.6643    -999.2500      -0.2500      56.7494      15.0087       1.5750       1.5620       0.2025       0.1525       0.4036    -999.2500    -999.2500    -999.2500
   2191.8167    -999.2500      -0.2500      56.3637      15.5260       1.5930       1.5660       0.2030       0.1510       0.4240    -999.2500    -999.2500    -999.2500
   2191.9690    -999.2500      -0.2500      56.3501      17.5013       1.5915       1.6141       0.1483       0.1329       0.5970    -999.2500    -999.2500    -999.2500
   2192.1213    -999.2500      -0.2500      56.3905      19.4610       1.5900       1.6620       0.0940       0.1150       0.7690    -999.2500    -999.2500    -999.2500
   2192.2737    -999.2500      -0.2500      56.3749      20.5823       1.5775       1.6550       0.1808       0.1752       1.6597    -999.2500    -999.2500    -999.2500
   2192.4263    -999.2500      -0.2500      56.3782      21.6950       1.5650       1.6480       0.2670       0.2350       2.5450      -5.7086    -999.2500    -999.2500
   2192.5786    -367.0999      -0.2500      56.5505      21.6443       1.5455       1.6160       0.2424       0.2220       2.2115      -3.7601    -367.0999    -365.8660
   2192.7310     -45.4625      -0.2870      56.7157      21.5940       1.5260       1.5840       0.2180       0.2090       1.8800      -0.9922     -21.7799     -44.1322
   2192.8833       4.3444      -0.5476      56.6749      23.3581       1.4940       1.5274       0.1653       0.1789       1.1378       0.0747     194.8290       2.0318
   2193.0359       8.1679      -0.8067      56.6093      25.1090       1.4620       1.4710       0.1130       0.1490       0.4000       0.2410     344.6837       2.1037
   2193.1882       8.7110      -0.8285      56.6000      26.8148       1.4189       1.4340       0.1321       0.1470      97.0652       0.2889     215.9844       2.1135
   2193.3406       8.7110      -0.8101      56.5847      28.5080       1.3760       1.3970       0.1510       0.1450     193.1740       0.2751      62.5275       2.1210
   2193.4929       8.7110      -0.7860      56.4747      28.1628       1.3835       1.4235       0.1284       0.1500      97.5314       0.2558      43.4011       2.1784
   2193.6455       8.7110      -0.7647      56.3774      27.8200       1.3910       1.4500       0.1060       0.1550       2.4280       0.2350      46.8590       2.2411
   2193.7979       8.7110      -0.7665      56.4501      29.4744       1.4035       1.4660       0.1090       0.1595       1.3957       0.2167      53.6079       2.2863
   2193.9502       8.7110      -0.7692      56.5318      31.1170       1.4160       1.4820       0.1120       0.1640       0.3690       0.1992      58.5380       2.3332
   2194.1025       8.7110      -0.7545      56.4999      30.1802       1.6282       1.6292       0.1341       0.1570       0.4537       0.1806      48.5426       2.4068
   2194.2549       8.7110      -0.7398      56.4590      29.2500       1.8400       1.7760       0.1560       0.1500       0.5380       0.1899      42.3812       2.4732
   2194.4075       8.7110      -0.7430      56.4751      27.7499       2.0672       2.3621       0.1625       0.2057       0.6643       0.2568      76.3101       2.4655
   2194.5598       8.7110      -0.7538      56.4762      26.2600       2.2940       2.9470       0.1690       0.2610       0.7900       0.3283     107.9184       2.4302
   2194.7122       8.7110      -0.7954      56.3246      23.7741       2.3370       2.5701       0.1645       0.2520       3.9912       0.3510      83.2697       2.2928
   2194.8645       8.7110      -0.8332      56.1972      21.3050       2.3800       2.1940       0.1600       0.2430       7.1760       0.3390      53.7427       2.1651
   2195.0171       8.7110      -0.8140      56.3754      21.4264       2.6643       2.4733       0.1188       0.1868       3.7025       0.3057      50.2159       2.2053
   2195.1694       8.7110      -0.7894      56.5731      21.5470       2.9480       2.7520       0.0780       0.1310       0.2520       0.2729      52.5248       2.2641
   2195.3218       8.7110      -0.7865      56.5955      25.0273       2.9345       2.7445       0.0810       0.1350       0.2595       0.2624      66.4590       2.2715
   2195.4741       8.7110      -0.7876      56.5747      28.4850       2.9210       2.7370       0.0840       0.1390       0.2670       0.2674      83.7131       2.2683
   2195.6267       8.7110      -0.7925      56.4452      30.6358       2.5489       2.4831       0.4710       0.4814       1.0209       0.2815     110.9196       2.2470
   2195.7791       8.7110      -0.8001      56.3168      32.7730       2.1780       2.2300       0.8550       0.8210       1.7700       0.3007     168.1311       2.2204
   2195.9314       8.7110      -0.8220      56.3000      35.5900       2.2927       2.1834       1.5096       1.4520       1.6777       0.3213     416.7912       2.1762
   2196.0837       8.7110      -0.8452      56.3089      38.3850       2.4070       2.1370       2.1590       2.0780       1.5860       0.3337     629.8554       2.1319
   2196.2361       8.7110      -0.8630      56.3781      39.2895       2.2673       2.1495       2.5480       3.0999       3.5911       0.3280     398.9392       2.1065
   2196.3887       8.7110      -0.8776      56.4696      40.1870       2.1280       2.1620       2.9340       4.1140       5.5840       0.3225     157.9807       2.0867
   2196.5410       8.7110      -0.8760      56.6533      39.0557       1.9097       1.9327       2.9154       4.0859       3.5018       0.3355     311.2796       2.0850
   2196.6934       8.7110      -0.8714      56.8273      37.9330       1.6920       1.7040       2.8970       4.0580       1.4320       0.3465     473.0599       2.0893
   2196.8457       8.7110      -0.8630      56.8450      36.0314       1.5618       1.4777       2.6737       3.5140       1.4325       0.3345     288.1169       2.1170
   2196.9983       8.7110      -0.8552      56.8272      34.1440       1.4320       1.2520       2.4520       2.9740       1.4330       0.3177      80.2629       2.1439
   2197.1506       8.7110      -0.8560      56.7199      31.6489       1.3784       1.2545       2.4736       2.9971       1.4816       0.3142      67.1923       2.1420
   2197.3030       8.7110      -0.8603      56.6134      29.1720       1.3250       1.2570       2.4950       3.0200       1.5300       0.3273      80.6387       2.1275
   2197.4553       8.7110      -0.8805      56.6015      29.2187       1.3255       1.2986       2.8643       3.3994       2.5930       0.3605      82.1331       2.0532
   2197.6079       8.7110      -0.9014      56.6054      29.2650       1.3260       1.3400       3.2310       3.7760       3.6500       0.3934      81.6030       1.9772
   2197.7603       8.7110      -0.9110      56.6266      29.9590       1.3290       1.4051       3.9736       4.1980       3.8395       0.4055      78.7720       1.9515
   2197.9126       8.7110      -0.9172      56.6393      30.6480       1.3320       1.4700       4.7110       4.6170       4.0280       0.3986      80.8716       1.9405
   2198.0649       8.7110      -0.9105      56.5748      30.7729       1.3275       1.5080       5.1408       5.3597       4.7925       0.3748     121.2512       1.9843
   2198.2173       8.7110      -0.9032      56.5269      30.8970       1.3230       1.5460       5.5670       6.0960       5.5530       0.3459     159.4288       2.0276
