#------------------------------------------------------------------------------
#
#   Created by  : [OpenWorks] Log Export Utility (LEXP)
#   Created on  : 2016-05-12 17:01:14
#   Project     : CANT971
#   User        : R5K
#   Interpreter : PEP
#
#------------------------------------------------------------------------------
~VERSION INFORMATION
VERS. 2.0 : CWLS Log ASCII Standard - version 2.0
WRAP.  NO : One line per depth step
~WELL INFORMATION
#MNEMONIC   .UNIT                                           VALUE :DESCRIPTION
#------------------------------------------------------------------------------
STRT        .M                                          1708.0991 :START DEPTH
STOP        .M                                          2834.0303 :STOP DEPTH
STEP        .M                                             0.1524 :STEP
NULL        .                                           -999.2500 :NULL VALUE
COMP        .                                             UNKNOWN :COMPANY
WELL        .                                                3016 :WELL
FLD         .                                           CANTARELL :FIELD
LOC         .                                             UNKNOWN :LOCATION
CNTY        .                                             UNKNOWN :COUNTY
STAT        .                                            CAMPECHE :STATE
CTRY        .                                              MEXICO :COUNTRY
SRVC        .                                             UNKNOWN :SERVICE COMPANY
DATE        .                                             UNKNOWN :LOG DATE
UWI         .                                                3016 :UNIQUE WELL ID
XCOORD      .                                       192548.498000 :SURFACE X
YCOORD      .                                        92151.948000 :SURFACE Y
LAT         .                                            0.832805 :LATITUDE
LON         .                                          -95.762171 :LONGITUDE
ELEV        .M                                            46.0000 :SURFACE ELEV
ELEV_TYPE   .                                                  KB :ELEV TYPE
~CURVE INFORMATION
#MNEMONIC.UNIT        API CODE       : CURVE DESCRIPTION
#------------------------------------------------------------------------------
DEPTH    .M                          : Measured Depth
CALI     .inches      UNKNOWN        : CALI:litodensidad:rC:NONE:v0 (auto-composite)
CGR      .API         UNKNOWN        : CGR:Espectrometria:rC:NONE:v0 (auto-composite)
DRHO     .g/cm3       UNKNOWN        : DRHO:litodensidad:rC:NONE:v0 (auto-composite)
DT       .us/ft       UNKNOWN        : DT:DT-Load:rC:NONE:v0 (auto-composite)
GR       .API         UNKNOWN        : GR:PETROWORKS:rC:NONE:v1 
GR-LWD   .API         UNKNOWN        : GR-LWD:PETROWORKS:rC:NONE:v1 
ILD-LWD  .ohm.m       UNKNOWN        : ILD-LWD:PETROWORKS:rC:NONE:v1 
ILM-LWD  .ohm.m       UNKNOWN        : ILM-LWD:PETROWORKS:rC:NONE:v1 
LLD      .ohm.m       UNKNOWN        : LLD:Resistivos:rC:NONE:v0 (auto-composite)
LLS      .ohm.m       UNKNOWN        : LLS:Resistivos:rC:NONE:v0 (auto-composite)
MSFL     .ohm.m       UNKNOWN        : MSFL:Resistivos:rC:NONE:v0 (auto-composite)
NPHI     .v/v_decimal UNKNOWN        : NPHI:Porosidad:rC:NONE:v0 (auto-composite)
PEF      .UNKNOWN     UNKNOWN        : PEF:litodensidad:rC:NONE:v0 (auto-composite)
POTA     .wtpercent   UNKNOWN        : POTA:Espectrometria:rC:NONE:v0 (auto-composite)
RHOB     .g/cm3       UNKNOWN        : RHOB:litodensidad:rC:NONE:v0 (auto-composite)
SP       .mV          UNKNOWN        : SP:SP-Load:rC:NONE:v0 (auto-composite)
THOR     .ppm         UNKNOWN        : THOR:Espectrometria:rC:NONE:v0 (auto-composite)
URAN     .ppm         UNKNOWN        : URAN:Espectrometria:rC:NONE:v0 (auto-composite)
~A     DEPTH         CALI          CGR         DRHO           DT           GR       GR-LWD      ILD-LWD      ILM-LWD          LLD          LLS         MSFL         NPHI          PEF         POTA         RHOB           SP         THOR         URAN
# ...
   2185.8730    -999.2500      15.3529    -999.2500    -999.2500      25.1896      28.3098       2.9489       2.9067    -999.2500    -999.2500    -999.2500       0.1682    -999.2500       0.0056    -999.2500    -252.1875       1.6791       1.2496
   2186.0256    -999.2500      14.4157    -999.2500    -999.2500      24.9163      29.5259       2.9878       2.9624    -999.2500    -999.2500    -999.2500       0.1803    -999.2500       0.0054    -999.2500    -253.1875       1.4995       1.3162
   2186.1780    -999.2500      13.1406    -999.2500    -999.2500      22.9201      31.0698       2.9545       2.9136    -999.2500    -999.2500    -999.2500       0.1945    -999.2500       0.0046    -999.2500    -253.2500       1.5671       1.1722
   2186.3303    -999.2500      11.1978    -999.2500    -999.2500      21.7707      32.8672       2.8628       2.7680    -999.2500    -999.2500    -999.2500       0.1726    -999.2500       0.0037    -999.2500    -253.1875       1.4257       1.2970
   2186.4827    -999.2500       8.9779    -999.2500    -999.2500      19.7046      35.7505       2.7917       2.6546    -999.2500    -999.2500    -999.2500       0.1829    -999.2500       0.0030    -999.2500    -252.1875       1.1483       1.3691
   2186.6350    -999.2500       7.9183    -999.2500    -999.2500      17.7424      35.1039       2.7954       2.6160    -999.2500    -999.2500    -999.2500       0.1764    -999.2500       0.0026    -999.2500    -250.3125       1.0336       1.2842
   2186.7876    -999.2500       6.5308    -999.2500    -999.2500      14.5602      35.1532       2.8663       2.6504    -999.2500    -999.2500    -999.2500       0.1754    -999.2500       0.0022    -999.2500    -249.6875       0.8422       1.0381
   2186.9399    -999.2500       6.5740    -999.2500    -999.2500      12.8856      30.1381       3.1577       2.9296    -999.2500    -999.2500    -999.2500       0.1321    -999.2500       0.0020    -999.2500    -250.0000       0.9337       0.8316
   2187.0923    -999.2500       6.6919    -999.2500    -999.2500      12.6084      26.3788       4.1303       4.0115    -999.2500    -999.2500    -999.2500       0.0995    -999.2500       0.0019    -999.2500    -250.3125       1.0331       0.8240
   2187.2446    -999.2500       7.6006    -999.2500    -999.2500      13.6461      20.7320       5.9483       6.6216    -999.2500    -999.2500    -999.2500       0.0762    -999.2500       0.0020    -999.2500    -251.0000       1.2523       0.8391
   2187.3972    -999.2500       8.6735    -999.2500    -999.2500      15.7331      16.5970       7.4736      10.3954    -999.2500    -999.2500    -999.2500       0.0706    -999.2500       0.0022    -999.2500    -252.0000       1.4990       1.0096
   2187.5496    -999.2500       9.7169    -999.2500    -999.2500      17.2450      14.9927       8.7517      13.1190    -999.2500    -999.2500    -999.2500       0.0723    -999.2500       0.0025    -999.2500    -252.6250       1.6467       1.0763
   2187.7019    -999.2500      10.9891    -999.2500    -999.2500      18.6259      16.0246      10.8732      16.5961    -999.2500    -999.2500    -999.2500       0.0696    -999.2500       0.0029    -999.2500    -251.5000       1.8200       1.1157
   2187.8542    -999.2500       9.6917    -999.2500    -999.2500      18.2699      19.0421      12.5983      18.1707    -999.2500    -999.2500    -999.2500       0.0727    -999.2500       0.0028    -999.2500    -249.5000       1.4773       1.2562
   2188.0068    -999.2500      10.4218    -999.2500    -999.2500      18.2999      21.6322      12.7959      16.8305    -999.2500    -999.2500    -999.2500       0.0693    -999.2500       0.0032    -999.2500    -250.5625       1.4640       1.1230
   2188.1592    -999.2500       8.9812    -999.2500    -999.2500      16.2555      23.3281      13.6870      14.7188    -999.2500    -999.2500    -999.2500       0.0740    -999.2500       0.0029    -999.2500    -251.6875       1.1805       0.9805
   2188.3115    -999.2500       8.6555    -999.2500    -999.2500      16.0017      23.8559      14.2326      14.3385    -999.2500    -999.2500    -999.2500       0.0735    -999.2500       0.0029    -999.2500    -252.2500       1.0904       0.9902
   2188.4639    -999.2500       8.0030    -999.2500    -999.2500      14.6576      23.9881      13.6992      13.4799    -999.2500    -999.2500    -999.2500       0.0771    -999.2500       0.0027    -999.2500    -253.0000       0.9865       0.8676
   2188.6162    -999.2500       7.8631    -999.2500    -999.2500      15.9098      23.3743      13.4685      12.8290    -999.2500    -999.2500    -999.2500       0.0822    -999.2500       0.0026    -999.2500    -252.8750       1.0289       1.0320
   2188.7688    -999.2500       7.2719    -999.2500    -999.2500      16.1148      22.8775      13.0989      12.3889    -999.2500    -999.2500    -999.2500       0.0862    -999.2500       0.0024    -999.2500    -251.8125       0.9381       1.1478
   2188.9211    -999.2500       6.0227    -999.2500    -999.2500      15.8254      21.7946      13.5305      13.1504    -999.2500    -999.2500    -999.2500       0.0896    -999.2500       0.0022    -999.2500    -250.1875       0.6684       1.2901
   2189.0735    -999.2500       5.6870    -999.2500    -999.2500      15.2944      20.9528      14.4911      14.3695    -999.2500    -999.2500    -999.2500       0.0895    -999.2500       0.0020    -999.2500    -249.1875       0.6328       1.2108
   2189.2258    -999.2500       5.9616    -999.2500    -999.2500      15.4897      20.0112      15.1477      15.4945    -999.2500    -999.2500    -999.2500       0.0881    -999.2500       0.0021    -999.2500    -249.6875       0.6892       1.1453
   2189.3784    -999.2500       6.9444    -999.2500    -999.2500      17.1065      19.2413      14.9337      15.3082    -999.2500    -999.2500    -999.2500       0.0817    -999.2500       0.0024    -999.2500    -250.0000       0.8242       1.1942
   2189.5308    -999.2500       8.6625    -999.2500    -999.2500      19.4094      18.9826      16.6410      17.4394    -999.2500    -999.2500    -999.2500       0.0754    -999.2500       0.0030    -999.2500    -250.1250       1.0299       1.2447
   2189.6831    -999.2500       9.3567    -999.2500    -999.2500      20.8408      19.0703      15.4302      16.4725    -999.2500    -999.2500    -999.2500       0.0721    -999.2500       0.0031    -999.2500    -251.3125       1.1733       1.3150
   2189.8354    -999.2500      10.3003    -999.2500    -999.2500      21.3224      20.6184      15.4838      16.7227    -999.2500    -999.2500    -999.2500       0.0769    -999.2500       0.0034    -999.2500    -251.3125       1.3519       1.2893
   2189.9880    -999.2500       9.5287    -999.2500    -999.2500      19.1348      22.7448      15.3383      16.4130    -999.2500    -999.2500    -999.2500       0.0827    -999.2500       0.0030    -999.2500    -250.0625       1.3335       1.1384
   2190.1404    -999.2500       8.9937    -999.2500    -999.2500      17.7666      24.8629      14.0660      14.6366    -999.2500    -999.2500    -999.2500       0.0811    -999.2500       0.0029    -999.2500    -249.4375       1.1820       1.0099
   2190.2927    -999.2500       9.4137    -999.2500    -999.2500      18.7404      26.2547      13.0660      13.4506    -999.2500    -999.2500    -999.2500       0.0801    -999.2500       0.0034    -999.2500    -248.4375       1.0315       1.1280
   2190.4451    -999.2500      10.3750    -999.2500    -999.2500      19.5406      26.3575      11.8029      11.8381    -999.2500    -999.2500    -999.2500       0.0721    -999.2500       0.0037    -999.2500    -247.6875       1.1541       1.0694
   2190.5974    -999.2500      12.4603    -999.2500    -999.2500      20.8609      26.3285      10.1700       9.9726    -999.2500    -999.2500    -999.2500       0.0599    -999.2500       0.0046    -999.2500    -247.1875       1.2964       0.9497
   2190.7500    -999.2500      13.7057    -999.2500    -999.2500      21.7589      26.2156       9.3010       9.1405    -999.2500    -999.2500    -999.2500       0.0435    -999.2500       0.0052    -999.2500    -247.3125       1.3545       0.9142
