#------------------------------------------------------------------------------
#
#   Created by  : [OpenWorks] Log Export Utility (LEXP)
#   Created on  : 2016-05-23 11:55:58
#   Project     : CANT971
#   User        : R5K
#   Interpreter : PEP
#
#------------------------------------------------------------------------------
~VERSION INFORMATION
VERS. 2.0 : CWLS Log ASCII Standard - version 2.0
WRAP.  NO : One line per depth step
~WELL INFORMATION
#MNEMONIC   .UNIT                                           VALUE :DESCRIPTION
#------------------------------------------------------------------------------
STRT        .M                                           646.6334 :START DEPTH
STOP        .M                                          2755.8494 :STOP DEPTH
STEP        .M                                             0.1524 :STEP
NULL        .                                           -999.2500 :NULL VALUE
COMP        .                                   PEMEX EXPL & PROD :COMPANY
WELL        .                                                  42 :WELL
FLD         .                                           CANTARELL :FIELD
LOC         .                                             UNKNOWN :LOCATION
CNTY        .                                      CD. DEL CARMEN :COUNTY
STAT        .                                            CAMPECHE :STATE
CTRY        .                                              MEXICO :COUNTRY
SRVC        .                                             UNKNOWN :SERVICE COMPANY
DATE        .                                             UNKNOWN :LOG DATE
UWI         .                                          3060000464 :UNIQUE WELL ID
XCOORD      .                                       599690.710000 :SURFACE X
YCOORD      .                                      2143036.470000 :SURFACE Y
LAT         .                                           19.380144 :LATITUDE
LON         .                                          -92.050691 :LONGITUDE
ELEV        .M                                            26.7400 :SURFACE ELEV
ELEV_TYPE   .                                                  KB :ELEV TYPE
~CURVE INFORMATION
#MNEMONIC.UNIT        API CODE       : CURVE DESCRIPTION
#------------------------------------------------------------------------------
DEPTH    .M                          : Measured Depth
CALI     .inches      UNKNOWN        : CALI:Import:rC:NONE:v0 (auto-composite)
DRHO     .g/cm3       UNKNOWN        : DRHO:Import:rC:NONE:v0 (auto-composite)
DT       .us/ft       UNKNOWN        : DT:Import:rC:NONE:v0 (auto-composite)
GR       .API         UNKNOWN        : GR:Import:rC:NONE:v0 (auto-composite)
ILD      .ohm.m       UNKNOWN        : ILD:Import:rC:NONE:v0 (auto-composite)
ILM      .ohm.m       UNKNOWN        : ILM:Import:rC:NONE:v0 (auto-composite)
LLD      .ohm.m       UNKNOWN        : LLD:Import:rC:NONE:v0 (auto-composite)
LLS      .ohm.m       UNKNOWN        : LLS:Import:rC:NONE:v0 (auto-composite)
MSFL     .ohm.m       UNKNOWN        : MSFL:Import:rC:NONE:v0 (auto-composite)
NPHI     .v/v_decimal UNKNOWN        : NPHI:Import:rC:NONE:v0 (auto-composite)
PEF      .b/elec      UNKNOWN        : PEF:Import:rC:NONE:v0 (auto-composite)
RHOB     .g/cm3       UNKNOWN        : RHOB:Import:rC:NONE:v0 (auto-composite)
~A     DEPTH         CALI         DRHO           DT           GR          ILD          ILM          LLD          LLS         MSFL         NPHI          PEF         RHOB
# ...
   2102.3582      16.9050       0.0060    -999.2500      31.2133    -999.2500    -999.2500    1674.2751     100.4537     599.4958       0.0144       3.2679       2.7635
   2102.5105      16.8920      -0.0010    -999.2500      30.9510    -999.2500    -999.2500    1713.9330     100.3270     332.0090       0.0174       3.2160       2.7430
   2102.6628      16.9060       0.0000    -999.2500      32.5131    -999.2500    -999.2500    1624.8607      99.2705     536.2125       0.0174       3.0832       2.7550
   2102.8154      16.9200       0.0010    -999.2500      34.0790    -999.2500    -999.2500    1535.7090      98.2130     740.5980       0.0161       2.9510       2.7670
   2102.9678      16.9946       0.0065    -999.2500      41.9312    -999.2500    -999.2500    1304.8494      95.9621     653.3113       0.0140       2.9725       2.7830
   2103.1201      17.0690       0.0120    -999.2500      49.8040    -999.2500    -999.2500    1073.7550      93.7090     565.9360       0.0125       2.9940       2.7990
   2103.2725      17.2619       0.0380    -999.2500      48.3315    -999.2500    -999.2500    1113.0790      94.4596     851.4438       0.0133       3.0566       2.7389
   2103.4250      17.4540       0.0640    -999.2500      46.8550    -999.2500    -999.2500    1152.4480      95.2110    1137.2780       0.0152       3.1190       2.6790
   2103.5774      17.2647       0.1131    -999.2500      43.8703    -999.2500    -999.2500    1323.3152      97.3926    1086.8529       0.0189       3.1806       2.6825
   2103.7297      17.0760       0.1620    -999.2500      40.8770    -999.2500    -999.2500    1494.3990      99.5770    1036.3640       0.0240       3.2420       2.6860
   2103.8821      16.4549       0.1936    -999.2500      38.4436    -999.2500    -999.2500    1491.3002      99.1798     985.4355       0.0315       3.2786       2.7321
   2104.0347      15.8360       0.2250    -999.2500      36.0030    -999.2500    -999.2500    1488.1970      98.7820     934.4360       0.0408       3.3150       2.7780
   2104.1870      16.0909       0.1834    -999.2500      37.5985    -999.2500    -999.2500    1379.4346      97.0618     629.1544       0.0534       3.3506       2.7555
   2104.3394      16.3450       0.1420    -999.2500      39.1990    -999.2500    -999.2500    1270.5070      95.3390     323.4090       0.0631       3.3860       2.7330
   2104.4917      16.2413       0.0774    -999.2500      38.5535    -999.2500    -999.2500    1154.8557      92.8451     191.0584       0.0605       3.4140       2.7009
   2104.6440      16.1380       0.0130    -999.2500      37.9060    -999.2500    -999.2500    1039.0140      90.3470      58.4900       0.0553       3.4420       2.6690
   2104.7966      15.6718       0.0195    -999.2500      35.2400    -999.2500    -999.2500    1086.6838      91.4036      38.5022       0.0541       3.3619       2.6720
   2104.9490      15.2070       0.0260    -999.2500      32.5650    -999.2500    -999.2500    1134.4380      92.4620      18.4790       0.0546       3.2820       2.6750
   2105.1013      15.5618       0.0240    -999.2500      32.7097    -999.2500    -999.2500    1340.7307      91.6238     138.5571       0.0566       3.0560       2.6825
   2105.2537      15.9150       0.0220    -999.2500      32.8550    -999.2500    -999.2500    1547.4150      90.7840     258.8630       0.0572       2.8310       2.6900
   2105.4062      16.4627       0.0185    -999.2500      32.5356    -999.2500    -999.2500    1497.3212      89.0103     258.4409       0.0520       2.8891       2.7211
   2105.5586      17.0080       0.0150    -999.2500      32.2150    -999.2500    -999.2500    1447.1260      87.2330     258.0180       0.0435       2.9470       2.7520
   2105.7109      16.8401       0.0150    -999.2500      32.4256    -999.2500    -999.2500    1313.1235      85.7196     203.7383       0.0299       3.0683       2.7445
   2105.8633      16.6730       0.0150    -999.2500      32.6370    -999.2500    -999.2500    1178.8330      84.2030     149.3420       0.0180       3.1890       2.7370
   2106.0159      16.4686       0.0280    -999.2500      34.1281    -999.2500    -999.2500    1193.8684      83.3969      88.5201       0.0158       3.3027       2.7089
   2106.1682      16.2650       0.0410    -999.2500      35.6250    -999.2500    -999.2500    1208.9380      82.5890      27.5600       0.0180       3.4160       2.6810
   2106.3206      16.0881       0.0701    -999.2500      34.9403    -999.2500    -999.2500    1279.4583      81.5163      27.8132       0.0236       3.4065       2.6875
   2106.4729      15.9120       0.0990    -999.2500      34.2540    -999.2500    -999.2500    1350.1479      80.4410      28.0670       0.0307       3.3970       2.6940
   2106.6252      15.9546       0.0835    -999.2500      32.5726    -999.2500    -999.2500    1470.2800      77.7862      41.1830       0.0390       3.3309       2.7271
   2106.7778      15.9970       0.0680    -999.2500      30.8870    -999.2500    -999.2500    1590.5229      75.1290      54.3110       0.0447       3.2650       2.7600
   2106.9302      15.5978       0.0435    -999.2500      33.0861    -999.2500    -999.2500    1512.6992      72.6858     286.3890       0.0416       3.0967       2.7555
   2107.0825      15.2000       0.0190    -999.2500      35.2910    -999.2500    -999.2500    1434.7939      70.2400     518.7100       0.0342       2.9290       2.7510
   2107.2349      15.2696       0.0090    -999.2500      34.0642    -999.2500    -999.2500    1449.3774      70.4304     271.1398       0.0226       2.9405       2.7570
   2107.3875      15.3390      -0.0010    -999.2500      32.8340    -999.2500    -999.2500    1463.9780      70.6210      23.2790       0.0123       2.9520       2.7630
   2107.5398      15.4682      -0.0020    -999.2500      28.9097    -999.2500    -999.2500    1537.4728      71.5129     437.6175       0.0097       2.9826       2.7715
   2107.6921      15.5970      -0.0030    -999.2500      24.9740    -999.2500    -999.2500    1611.0630      72.4060     852.4940       0.0099       3.0130       2.7800
   2107.8445      15.3406      -0.0010    -999.2500      25.2436    -999.2500    -999.2500    1674.1190      73.7800     748.8089       0.0105       3.0661       2.7670
   2107.9971      15.0850       0.0010    -999.2500      25.5140    -999.2500    -999.2500    1737.2650      75.1560     644.9760       0.0113       3.1190       2.7540
   2108.1494      14.7655       0.0060    -999.2500      26.9243    -999.2500    -999.2500    1729.1622      75.0511     478.5110       0.0128       3.1536       2.7630
   2108.3018      14.4470       0.0110    -999.2500      28.3390    -999.2500    -999.2500    1721.0470      74.9460     311.7880       0.0145       3.1880       2.7720
   2108.4541      14.2802       0.0175    -999.2500      27.6282    -999.2500    -999.2500    1713.0432      75.6394     518.8843       0.0163       3.2055       2.7710
   2108.6064      14.1140       0.0240    -999.2500      26.9150    -999.2500    -999.2500    1705.0260      76.3340     726.3280       0.0190       3.2230       2.7700
   2108.7590      13.9237       0.0380    -999.2500      25.5019    -999.2500    -999.2500    1669.1483      78.0070     531.0729       0.0241       3.3016       2.7420
   2108.9114      13.7340       0.0520    -999.2500      24.0840    -999.2500    -999.2500    1633.2061      79.6830     335.4660       0.0307       3.3800       2.7140
   2109.0637      13.6288       0.0776    -999.2500      24.7927    -999.2500    -999.2500    1557.4866      81.4438     427.5192       0.0393       3.2683       2.6544
   2109.2161      13.5240       0.1030    -999.2500      25.5040    -999.2500    -999.2500    1481.6210      83.2080     519.7500       0.0483       3.1570       2.5950
   2109.3687      13.4423       0.1261    -999.2500      26.8136    -999.2500    -999.2500    1438.0807      82.2600     881.5341       0.0563       3.2186       2.6346
   2109.5210      13.3610       0.1490    -999.2500      28.1280    -999.2500    -999.2500    1394.4510      81.3100    1244.0610       0.0623       3.2800       2.6740
