#------------------------------------------------------------------------------
#
#   Created by  : [OpenWorks] Log Export Utility (LEXP)
#   Created on  : 2016-05-23 11:52:02
#   Project     : CANT971
#   User        : R5K
#   Interpreter : PEP
#
#------------------------------------------------------------------------------
~VERSION INFORMATION
VERS. 2.0 : CWLS Log ASCII Standard - version 2.0
WRAP.  NO : One line per depth step
~WELL INFORMATION
#MNEMONIC   .UNIT                                           VALUE :DESCRIPTION
#------------------------------------------------------------------------------
STRT        .M                                           300.3808 :START DEPTH
STOP        .M                                          2575.7129 :STOP DEPTH
STEP        .M                                             0.1524 :STEP
NULL        .                                           -999.2500 :NULL VALUE
COMP        .                                   PEMEX EXPL & PROD :COMPANY
WELL        .                                                  19 :WELL
FLD         .                                           CANTARELL :FIELD
LOC         .                                             UNKNOWN :LOCATION
CNTY        .                                      CD. DEL CARMEN :COUNTY
STAT        .                                            CAMPECHE :STATE
CTRY        .                                              MEXICO :COUNTRY
SRVC        .                                             UNKNOWN :SERVICE COMPANY
DATE        .                                             UNKNOWN :LOG DATE
UWI         .                                          3060000151 :UNIQUE WELL ID
XCOORD      .                                       603362.598000 :SURFACE X
YCOORD      .                                      2145096.350000 :SURFACE Y
LAT         .                                           19.398572 :LATITUDE
LON         .                                          -92.015617 :LONGITUDE
ELEV        .M                                            27.1400 :SURFACE ELEV
ELEV_TYPE   .                                                  KB :ELEV TYPE
~CURVE INFORMATION
#MNEMONIC.UNIT        API CODE       : CURVE DESCRIPTION
#------------------------------------------------------------------------------
DEPTH    .M                          : Measured Depth
CALI     .inches      UNKNOWN        : CALI:Import:rC:NONE:v0 (auto-composite)
DRHO     .g/cm3       UNKNOWN        : DRHO:Import:rC:NONE:v0 (auto-composite)
DT       .us/ft       UNKNOWN        : DT:Import:rC:NONE:v0 (auto-composite)
GR       .API         UNKNOWN        : GR:Import:rC:NONE:v0 (auto-composite)
ILD      .ohm.m       UNKNOWN        : ILD:Import:rC:NONE:v0 (auto-composite)
LLD      .ohm.m       UNKNOWN        : LLD:Import:rC:NONE:v0 (auto-composite)
LLS      .ohm.m       UNKNOWN        : LLS:Import:rC:NONE:v0 (auto-composite)
NPHI     .v/v_decimal UNKNOWN        : NPHI:Import:rC:NONE:v0 (auto-composite)
RHOB     .g/cm3       UNKNOWN        : RHOB:RHOB-Load:rC:NONE:v0 (auto-composite)
~A     DEPTH         CALI         DRHO           DT           GR          ILD          LLD          LLS         NPHI         RHOB
# ...
   2001.1648       5.8890      -0.2500     114.6349      27.1537       0.0010      24.3723       0.3063       0.4500       1.9566
   2001.3171       5.8890      -0.2500     117.7560      27.2480       0.0010       4.1280       0.3900       0.4500       1.8000
   2001.4696       5.8890      -0.2500     122.3837      27.6529       0.0010       4.3162       0.7383       0.4500       1.7095
   2001.6219       5.8890      -0.2500     126.9880      28.0560       0.0010       4.5040       1.0840       0.4500       1.6190
   2001.7744       5.9000      -0.2500     124.5149      27.9553       0.0010       9.6050       1.6521       0.4500       1.6850
   2001.9268       5.9110      -0.2500     122.0560      27.8550       0.0010      14.6890       2.2160       0.4500       1.7510
   2002.0792       5.9717      -0.2500     108.6806      27.6971       0.0010      40.7446       2.4227       0.4500       1.8730
   2002.2316       6.0320      -0.2500      95.3800      27.5400       0.0010      66.6960       2.6280       0.4500       1.9950
   2002.3840       6.1759      -0.2495      96.1957      27.6533       0.0010      48.4000       2.8322       0.4500       2.0520
   2002.5364       6.3190      -0.2490      97.0070      27.7660       0.0010      30.1750       3.0350       0.4500       2.1090
   2002.6888       6.6033      -0.2275      98.8244      28.0543       0.0010      20.8380       2.8141       0.4500       2.1435
   2002.8412       6.8860      -0.2060     100.6320      28.3410       0.0010      11.5360       2.5950       0.4500       2.1780
   2002.9937       7.4344      -0.1330     105.2556      29.0960       0.0010      14.4934       2.1336       0.4500       2.2450
   2003.1460       7.9800      -0.0600     109.8550      29.8470       0.0010      17.4400       1.6760       0.4500       2.3120
   2003.2983       8.6733       0.0630     108.8925      30.5498       0.0010      11.0608       1.6911       0.4500       2.3505
   2003.4508       9.3630       0.1860     107.9350      31.2490       0.0010       4.7040       1.7060       0.4500       2.3890
   2003.6031       9.9074       0.1790     103.3897      31.2104       0.0010       5.3611       1.8621       0.4500       2.3830
   2003.7556      10.4490       0.1720      98.8670      31.1720       0.0010       6.0160       2.0170       0.4499       2.3770
   2003.9080      10.3307       0.1370      93.4744      30.7510       0.0010      12.5827       2.2534       0.4494       2.3990
   2004.0604      10.2130       0.1020      88.1080      30.3320       0.0010      19.1280       2.4880       0.4457       2.4210
   2004.2128       9.9950       0.0475      83.6294      28.7182       0.0010      58.0438       2.7812       0.4346       2.4730
   2004.3652       9.7780      -0.0070      79.1720      27.1120       0.0010      96.8380       3.0720       0.4086       2.5250
   2004.5176       9.7790      -0.0060      74.8025      25.5584       0.0010      54.4874       5.3529       0.3528       2.5800
   2004.6700       9.7800      -0.0050      70.4530      24.0120       0.0010      12.2640       7.6160       0.2842       2.6350
   2004.8224       9.8051       0.0005      67.8346      23.6151       0.0010      12.7277      41.5228       0.2131       2.6320
   2004.9749       9.8300       0.0060      65.2280      23.2200       0.0010      13.1900      75.1700       0.1492       2.6290
   2005.1272       9.9848       0.0150      59.0380      23.3227       0.0010      20.5256      74.2847       0.1057       2.6160
   2005.2795      10.1390       0.0240      52.8750      23.4250       0.0010      27.8410      73.4060       0.0767       2.6030
   2005.4320      10.3405       0.0190      54.3031      23.6946       0.0010      46.5225      55.6753       0.0634       2.5675
   2005.5844      10.5410       0.0140      55.7240      23.9630       0.0010      65.1550      38.0760       0.0635       2.5320
   2005.7368      10.6393      -0.0045      59.0083      23.7680       0.0010      58.6583      38.2767       0.0813       2.5385
   2005.8892      10.7370      -0.0230      62.2740      23.5740       0.0010      52.1830      38.4760       0.1020       2.5450
   2006.0416      10.6623      -0.0190      61.0035      23.6572       0.0010      46.3980      38.7716       0.1125       2.5395
   2006.1940      10.5880      -0.0150      59.7400      23.7400       0.0010      40.6360      39.0650       0.1168       2.5340
   2006.3464      10.3834       0.0075      58.2926      24.0809       0.0010      41.3093      40.3671       0.1159       2.5385
   2006.4988      10.1800       0.0300      56.8530      24.4200       0.0010      41.9800      41.6600       0.1120       2.5430
   2006.6512       9.9805       0.0270      57.4305      25.0547       0.0010      45.6358      46.3074       0.1064       2.5505
   2006.8036       9.7820       0.0240      58.0050      25.6860       0.0010      49.2780      50.9190       0.0996       2.5580
   2006.9561       9.5569       0.0110      58.9479      26.3888       0.0010      60.1986      63.6182       0.0918       2.5695
   2007.1084       9.3330      -0.0020      59.8860      27.0880       0.0010      71.0800      76.2110       0.0835       2.5810
   2007.2607       9.3330       0.0090      59.6715      27.8690       0.0010      68.7785      74.3855       0.0748       2.5910
   2007.4132       9.3330       0.0200      59.4580      28.6460       0.0010      66.4850      72.5750       0.0656       2.6010
   2007.5656       9.3310       0.0140      59.0279      29.2590       0.0010      58.3218      60.6531       0.0555       2.5985
   2007.7180       9.3290       0.0080      58.6000      29.8690       0.0010      50.1860      48.8280       0.0466       2.5960
   2007.8704       9.2914       0.0080      59.2090      29.8625       0.0010      53.2034      51.6834       0.0419       2.6005
   2008.0228       9.2540       0.0080      59.8150      29.8560       0.0010      56.2110      54.5160       0.0418       2.6050
   2008.1752       9.0716       0.0155      61.5661      29.6746       0.0010      50.1171      50.9168       0.0490       2.5965
   2008.3276       8.8900       0.0230      63.3090      29.4940       0.0010      44.0420      47.3460       0.0595       2.5880
   2008.4800       8.5377       0.0180      63.1551      28.8906       0.0010      35.3266      41.6575       0.0711       2.5780
   2008.6324       8.1870       0.0130      63.0020      28.2900       0.0010      26.6370      36.0130       0.0806       2.5680
   2008.7848       7.7495       0.0060      61.0837      27.8215       0.0010      27.4256      31.7934       0.0844       2.5780
   2008.9373       7.3140      -0.0010      59.1740      27.3550       0.0010      28.2120      27.6060       0.0837       2.5880
   2009.0896       6.9297      -0.0050      59.4346      27.3129       0.0010      35.7818      28.9405       0.0778       2.6065
   2009.2419       6.5470      -0.0090      59.6940      27.2710       0.0010      43.3310      30.2650       0.0705       2.6250
   2009.3944       6.3470      -0.0170      61.1506      27.1978       0.0010      42.8133      38.0999       0.0644       2.6225
   2009.5468       6.1480      -0.0250      62.6000      27.1250       0.0010      42.2970      45.8770       0.0603       2.6200
   2009.6992       6.1851      -0.0185      61.9522      26.6679       0.0010      38.6320      43.4106       0.0594       2.5960
   2009.8516       6.2220      -0.0120      61.3080      26.2130       0.0010      34.9790      40.9620       0.0622       2.5720
   2010.0040       6.1889       0.0030      59.2573      24.8036       0.0010      37.3963      42.9932       0.0704       2.5730
   2010.1564       6.1560       0.0180      57.2180      23.4020       0.0010      39.8040      45.0100       0.0819       2.5740
   2010.3088       6.0332       0.0410      59.0805      21.9701       0.0010      45.7974      53.0722       0.0956       2.5515
   2010.4612       5.9110       0.0640      60.9330      20.5460       0.0010      51.7680      61.0780       0.1130       2.5290
