#------------------------------------------------------------------------------
#
#   Created by  : [OpenWorks] Log Export Utility (LEXP)
#   Created on  : 2016-05-23 11:53:49
#   Project     : CANT971
#   User        : R5K
#   Interpreter : PEP
#
#------------------------------------------------------------------------------
~VERSION INFORMATION
VERS. 2.0 : CWLS Log ASCII Standard - version 2.0
WRAP.  NO : One line per depth step
~WELL INFORMATION
#MNEMONIC   .UNIT                                           VALUE :DESCRIPTION
#------------------------------------------------------------------------------
STRT        .M                                           293.9797 :START DEPTH
STOP        .M                                          2713.7869 :STOP DEPTH
STEP        .M                                             0.1524 :STEP
NULL        .                                           -999.2500 :NULL VALUE
COMP        .                                   PEMEX EXPL & PROD :COMPANY
WELL        .                                                  28 :WELL
FLD         .                                           CANTARELL :FIELD
LOC         .                                             UNKNOWN :LOCATION
CNTY        .                                      CD. DEL CARMEN :COUNTY
STAT        .                                            CAMPECHE :STATE
CTRY        .                                              MEXICO :COUNTRY
SRVC        .                                             UNKNOWN :SERVICE COMPANY
DATE        .                                             UNKNOWN :LOG DATE
UWI         .                                          3060000156 :UNIQUE WELL ID
XCOORD      .                                       598450.720000 :SURFACE X
YCOORD      .                                      2145024.710000 :SURFACE Y
LAT         .                                           19.398172 :LATITUDE
LON         .                                          -92.062394 :LONGITUDE
ELEV        .M                                            26.5400 :SURFACE ELEV
ELEV_TYPE   .                                                  KB :ELEV TYPE
~CURVE INFORMATION
#MNEMONIC.UNIT        API CODE       : CURVE DESCRIPTION
#------------------------------------------------------------------------------
DEPTH    .M                          : Measured Depth
CALI     .inches      UNKNOWN        : CALI:Import:rC:NONE:v0 (auto-composite)
DRHO     .g/cm3       UNKNOWN        : DRHO:Import:rC:NONE:v0 (auto-composite)
DT       .us/ft       UNKNOWN        : DT:Import:rC:NONE:v0 (auto-composite)
GR       .API         UNKNOWN        : GR:Import:rC:NONE:v0 (auto-composite)
ILD      .ohm.m       UNKNOWN        : ILD:Import:rC:NONE:v0 (auto-composite)
LLD      .ohm.m       UNKNOWN        : LLD:Import:rC:NONE:v0 (auto-composite)
LLS      .ohm.m       UNKNOWN        : LLS:Import:rC:NONE:v0 (auto-composite)
MSFL     .ohm.m       UNKNOWN        : MSFL:Import:rC:NONE:v0 (auto-composite)
NPHI     .v/v_decimal UNKNOWN        : NPHI:Import:rC:NONE:v0 (auto-composite)
PEF      .b/elec      UNKNOWN        : PEF:Import:rC:NONE:v0 (auto-composite)
RHOB     .g/cm3       UNKNOWN        : RHOB:Import:rC:NONE:v0 (auto-composite)
~A     DEPTH         CALI         DRHO           DT           GR          ILD          LLD          LLS         MSFL         NPHI          PEF         RHOB
# ...
   2417.8262       6.0506      -0.0050       0.0000      33.1360    -999.2500     633.4007     603.5871     475.5571       0.0720       3.2714       2.7579
   2417.9785       6.0800      -0.0060       0.0000      31.7427    -999.2500     532.7260     509.9140     204.9060       0.0828       3.3780       2.7200
   2418.1309       6.0008       0.0106       0.0000      30.3570    -999.2500     540.2310     530.1125     590.6150       0.1050       3.2506       2.6608
   2418.2832       5.9220       0.0270       0.0000      30.0061    -999.2500     547.6840     550.1710     973.6520       0.1276       3.1240       2.6020
   2418.4358       5.9471       0.0546       0.0000      29.6570    -999.2500     579.4607     595.7883     585.2629       0.1425       3.0201       2.5975
   2418.5881       5.9720       0.0820       0.0000      28.4443    -999.2500     611.0210     641.0950     199.5180       0.1541       2.9170       2.5930
   2418.7405       6.0061       0.0910       0.0000      27.2380    -999.2500     574.8397     605.1755     426.2466       0.1545       2.8297       2.6025
   2418.8928       6.0400       0.1000       0.0000      30.4737    -999.2500     538.9000     569.4960     651.4610       0.1526       2.7430       2.6120
   2419.0452       6.1337       0.0860       0.0000      33.6930    -999.2500     606.1606     623.9029     465.4791       0.1480       2.9105       2.6030
   2419.1978       6.2270       0.0720       0.0000      32.0687    -999.2500     672.9800     677.9530     280.7170       0.1433       3.0770       2.5940
   2419.3501       6.2907       0.0700       0.0000      30.4550    -999.2500     812.8681     788.8821     430.9584       0.1405       3.1517       2.6216
   2419.5024       6.3540       0.0680       0.0000      27.6796    -999.2500     951.8570     899.0980     580.2340       0.1378       3.2260       2.6490
   2419.6548       6.3766       0.0570       0.0000      24.9220    -999.2500    1016.4854     965.3109     349.5990       0.1335       3.0013       2.6656
   2419.8074       6.3990       0.0460       0.0000      24.0553    -999.2500    1080.7061    1031.1060     120.4190       0.1302       2.7780       2.6820
   2419.9597       6.3323       0.0284       0.0000      23.1940    -999.2500     854.8522     832.5842     277.8649       0.1340       3.0508       2.6108
   2420.1121       6.2660       0.0110       0.0000      22.7145    -999.2500     630.3940     635.2890     434.3380       0.1375       3.3220       2.5400
   2420.2644       6.2369       0.0090       0.0000      22.2380    -999.2500     555.1500     558.8273     313.8425       0.1325       3.2904       2.5365
   2420.4170       6.2080       0.0070       0.0000      27.9578    -999.2500     480.3620     482.8290     194.0770       0.1261       3.2590       2.5330
   2420.5693       6.1383       0.0040       0.0000      33.6430    -999.2500     536.4523     534.6622     324.6145       0.1200       3.0979       2.5415
   2420.7217       6.0690       0.0010       0.0000      40.0515    -999.2500     592.2100     586.1880     454.3780       0.1151       2.9380       2.5500
   2420.8740       6.0264       0.0015       0.0000      46.4220    -999.2500     855.3403     822.1529    1134.5883       0.1165       3.1006       2.5922
   2421.0264       5.9840       0.0020       0.0000      44.0461    -999.2500    1116.9420    1056.7469    1810.8470       0.1172       3.2620       2.6340
   2421.1790       6.0166       0.0035       0.0000      41.6840    -999.2500    2246.3962    1957.6776    1078.7665       0.1075       3.1641       2.6516
   2421.3313       6.0490       0.0050       0.0000      35.9076    -999.2500    3369.4351    2853.4910     350.8440       0.0963       3.0670       2.6690
   2421.4836       6.0676       0.0010       0.0000      30.1640    -999.2500    2512.4578    2121.5625     631.4315       0.0865       2.9937       2.6831
   2421.6360       6.0860      -0.0030       0.0000      30.7577    -999.2500    1660.2450    1393.7030     910.4590       0.0793       2.9210       2.6970
   2421.7886       6.0263      -0.0020       0.0000      31.3480    -999.2500    1397.8541    1170.0863     684.0008       0.0845       2.9847       2.7040
   2421.9409       5.9670      -0.0010       0.0000      30.6692    -999.2500    1137.3070     948.0410     459.1340       0.0918       3.0480       2.7110
   2422.0933       5.9906       0.0005       0.0000      29.9940    -999.2500    1058.9382     880.3967     645.1219       0.0985       2.8599       2.7215
   2422.2456       6.0140       0.0020       0.0000      32.6009    -999.2500     981.1100     813.2190     829.8270       0.1031       2.6730       2.7320
   2422.3982       6.0466       0.0010       0.0000      35.1940    -999.2500     919.9683     769.7472     686.5625       0.0975       2.7989       2.7315
   2422.5505       6.0790       0.0000       0.0000      36.9339    -999.2500     859.2410     726.5700     544.2690       0.0906       2.9240       2.7310
   2422.7029       6.0825       0.0025       0.0000      38.6620    -999.2500     742.3886     632.8821     432.0349       0.0870       3.0309       2.7139
   2422.8552       6.0860       0.0050       0.0000      43.3812    -999.2500     626.3130     539.8170     320.5470       0.0841       3.1370       2.6970
   2423.0076       6.1030      -0.0060       0.0000      48.0690    -999.2500     608.4748     527.3016     365.0864       0.0820       3.1591       2.6860
   2423.1602       6.1200      -0.0170       0.0000      49.1510    -999.2500     590.7530     514.8680     409.3350       0.0814       3.1810       2.6750
   2423.3125       6.1536      -0.0185       0.0000      50.2260    -999.2500     495.8986     438.1736     516.9769       0.0880       3.2954       2.6795
   2423.4648       6.1870      -0.0200       0.0000      57.8348    -999.2500     401.6510     361.9700     623.9300       0.0951       3.4090       2.6840
   2423.6172       6.0993      -0.0145       0.0000      65.3950    -999.2500     328.0640     295.7717     390.4691       0.0975       3.3182       2.7001
   2423.7698       6.0120      -0.0090       0.0000      62.0691    -999.2500     254.9390     229.9890     158.4740       0.0997       3.2280       2.7160
   2423.9221       6.0135      -0.0045       0.0000      58.7640    -999.2500     181.8663     164.5644     115.3890       0.1055       3.3082       2.7190
   2424.0745       6.0150       0.0000       0.0000      51.5202    -999.2500     109.2430      99.5420      72.5690       0.1112       3.3880       2.7220
   2424.2268       6.0305       0.0030       0.0000      44.3210    -999.2500      86.5742      79.0653      57.2619       0.1130       3.2967       2.7325
   2424.3794       6.0460       0.0060       0.0000      40.5983    -999.2500      64.0420      58.7120      42.0470       0.1131       3.2060       2.7430
   2424.5317       6.0731       0.0070       0.0000      36.8980    -999.2500      78.2990      70.6763      45.7459       0.1085       3.3736       2.7465
   2424.6841       6.1000       0.0080       0.0000      38.6331    -999.2500      92.4720      82.5700      49.4230       0.1031       3.5400       2.7500
   2424.8364       6.1271       0.0060       0.0000      40.3580    -999.2500     135.4863     115.4670     128.9944       0.0980       3.3915       2.7319
   2424.9888       6.1540       0.0040       0.0000      43.0728    -999.2500     178.2520     148.1740     208.1060       0.0931       3.2440       2.7140
   2425.1414       6.1640       0.0115       0.0000      45.7720    -999.2500     156.1215     128.9577     136.8171       0.0885       3.5335       2.7185
   2425.2937       6.1740       0.0190       0.0000      46.1917    -999.2500     134.1160     109.8500      65.9310       0.0849       3.8210       2.7230
   2425.4460       6.1504       0.0215       0.0000      46.6090    -999.2500     181.2152     141.3220      89.2480       0.0855       3.7252       2.6909
   2425.5984       6.1270       0.0240       0.0000      44.6110    -999.2500     228.0540     172.6200     112.4360       0.0871       3.6300       2.6590
