#------------------------------------------------------------------------------
#
#   Created by  : [OpenWorks] Log Export Utility (LEXP)
#   Created on  : 2016-05-23 11:55:37
#   Project     : CANT971
#   User        : R5K
#   Interpreter : PEP
#
#------------------------------------------------------------------------------
~VERSION INFORMATION
VERS. 2.0 : CWLS Log ASCII Standard - version 2.0
WRAP.  NO : One line per depth step
~WELL INFORMATION
#MNEMONIC   .UNIT                                           VALUE :DESCRIPTION
#------------------------------------------------------------------------------
STRT        .M                                           299.0628 :START DEPTH
STOP        .M                                          2570.8896 :STOP DEPTH
STEP        .M                                             0.1524 :STEP
NULL        .                                           -999.2500 :NULL VALUE
COMP        .                                   PEMEX EXPL & PROD :COMPANY
WELL        .                                                  31 :WELL
FLD         .                                           CANTARELL :FIELD
LOC         .                                             UNKNOWN :LOCATION
CNTY        .                                      CD. DEL CARMEN :COUNTY
STAT        .                                            CAMPECHE :STATE
CTRY        .                                              MEXICO :COUNTRY
SRVC        .                                             UNKNOWN :SERVICE COMPANY
DATE        .                                             UNKNOWN :LOG DATE
UWI         .                                          3060000157 :UNIQUE WELL ID
XCOORD      .                                       599727.810000 :SURFACE X
YCOORD      .                                      2147216.930000 :SURFACE Y
LAT         .                                           19.417919 :LATITUDE
LON         .                                          -92.050118 :LONGITUDE
ELEV        .M                                            27.8000 :SURFACE ELEV
ELEV_TYPE   .                                                  KB :ELEV TYPE
~CURVE INFORMATION
#MNEMONIC.UNIT        API CODE       : CURVE DESCRIPTION
#------------------------------------------------------------------------------
DEPTH    .M                          : Measured Depth
CALI     .inches      UNKNOWN        : CALI:Import:rC:NONE:v0 (auto-composite)
DRHO     .g/cm3       UNKNOWN        : DRHO:Import:rC:NONE:v0 (auto-composite)
DT       .us/ft       UNKNOWN        : DT:Import:rC:NONE:v0 (auto-composite)
GR       .API         UNKNOWN        : GR:Import:rC:NONE:v0 (auto-composite)
ILD      .ohm.m       UNKNOWN        : ILD:Import:rC:NONE:v0 (auto-composite)
LLD      .ohm.m       UNKNOWN        : LLD:Import:rC:NONE:v0 (auto-composite)
LLS      .ohm.m       UNKNOWN        : LLS:Import:rC:NONE:v0 (auto-composite)
MSFL     .ohm.m       UNKNOWN        : MSFL:Import:rC:NONE:v0 (auto-composite)
NPHI     .v/v_decimal UNKNOWN        : NPHI:Import:rC:NONE:v0 (auto-composite)
RHOB     .g/cm3       UNKNOWN        : RHOB:Import:rC:NONE:v0 (auto-composite)
~A     DEPTH         CALI         DRHO           DT           GR          ILD          LLD          LLS         MSFL         NPHI         RHOB
# ...
   2321.7156       6.7780       0.1302    -999.2500      50.2784    -999.2500      64.8970      89.5014      39.6114       0.1077       2.7037
   2321.8679       6.7780       0.1252    -999.2500      48.5371    -999.2500      69.2985      93.0962      54.7238       0.1095       2.7222
   2322.0205       6.7780       0.1192    -999.2500      46.7360    -999.2500      74.5794      92.1951      75.6353       0.1081       2.7453
   2322.1729       6.7780       0.0902    -999.2500      42.5072    -999.2500      75.5179      88.5362      78.2391       0.1021       2.7476
   2322.3252       6.7780       0.0551    -999.2500      37.6551    -999.2500      75.3522      84.1691      76.1417       0.0954       2.7446
   2322.4775       6.7800       0.0500    -999.2500      37.1112    -999.2500      74.5837      73.6229      65.4978       0.0937       2.7352
   2322.6301       6.7825       0.0525    -999.2500      37.6579    -999.2500      73.6641      61.5127      52.6908       0.0985       2.7242
   2322.7825       6.8529       0.0614    -999.2500      41.8649    -999.2500      71.8104      59.1403      31.9587       0.1145       2.7108
   2322.9348       6.9400       0.0719    -999.2500      46.9850    -999.2500      69.7259      59.1969       9.2496       0.1327       2.6968
   2323.0872       6.9566       0.0861    -999.2500      47.6512    -999.2500      64.6049      58.8537       4.9282       0.1401       2.6836
   2323.2395       6.9561       0.1011    -999.2500      47.2337    -999.2500      58.7451      58.4132       5.1266       0.1407       2.6705
   2323.3921       6.9516       0.1197    -999.2500      45.4433    -999.2500      58.0420      54.7318       4.7426       0.1399       2.6583
   2323.5444       6.9461       0.1392    -999.2500      43.3239    -999.2500      58.5750      50.2736       4.2190       0.1383       2.6463
   2323.6968       6.9223       0.1426    -999.2500      36.6550    -999.2500      66.2147      49.9468       4.1733       0.1351       2.6067
   2323.8491       6.8943       0.1421    -999.2500      28.9120    -999.2500      75.5151      50.5956       4.2403       0.1297       2.5607
   2324.0017       6.8890       0.1371    -999.2500      27.5655    -999.2500      77.1537      52.9428       4.6539       0.1197       2.5561
   2324.1541       6.8890       0.1311    -999.2500      27.7067    -999.2500      77.0290      55.6850       5.1479       0.1094       2.5611
   2324.3064       6.8890       0.0970    -999.2500      30.5029    -999.2500      75.8037      59.0739       9.0821       0.1054       2.5807
   2324.4587       6.8890       0.0565    -999.2500      33.9071    -999.2500      74.3290      62.6109      13.8041       0.1049       2.6038
   2324.6111       6.8890       0.0502    -999.2500      34.4073    -999.2500      65.0591      69.2507      14.3646       0.1047       2.6750
   2324.7637       6.8890       0.0517    -999.2500      34.2596    -999.2500      54.0502      76.5828      13.9867       0.1044       2.7571
   2324.9160       6.8890       0.0573    -999.2500      33.5558    -999.2500      52.3689      68.7405      14.1164       0.1034       2.7720
   2325.0684       6.8890       0.0638    -999.2500      32.7298    -999.2500      52.7358      57.5659      14.3589       0.1010       2.7720
   2325.2207       6.8890       0.0876    -999.2500      30.0956    -999.2500      54.5497      55.8023      18.8648       0.0948       2.7695
   2325.3733       6.8890       0.1151    -999.2500      27.0705    -999.2500      56.6764      56.0726      24.2922       0.0882       2.7665
   2325.5256       6.8890       0.1196    -999.2500      27.9402    -999.2500      60.9921      57.9375      20.6744       0.0861       2.7544
   2325.6780       6.8890       0.1191    -999.2500      29.6382    -999.2500      65.7682      60.1416      15.1329       0.0871       2.7404
   2325.8303       6.8890       0.1173    -999.2500      29.9312    -999.2500      77.0922      74.4624      14.5370       0.0900       2.7198
   2325.9829       6.8890       0.1153    -999.2500      29.9302    -999.2500      89.7711      91.3187      14.9761       0.0942       2.6978
   2326.1353       6.8890       0.1121    -999.2500      28.2320    -999.2500      91.1014      94.0581      18.3920       0.0996       2.6533
   2326.2876       6.8890       0.1086    -999.2500      26.1844    -999.2500      90.1223      93.8917      22.4207       0.1060       2.6043
   2326.4399       6.8890       0.1043    -999.2500      25.9556    -999.2500      81.6819      92.4129      23.0323       0.1141       2.5993
   2326.5923       6.8890       0.0997    -999.2500      26.0908    -999.2500      71.7482      90.6713      22.9522       0.1211       2.6033
   2326.7449       6.8890       0.0873    -999.2500      26.6973    -999.2500      71.0662      81.7667      20.2582       0.1220       2.6232
   2326.8972       6.8890       0.0733    -999.2500      27.3967    -999.2500      72.2045      71.4527      17.0500       0.1154       2.6462
   2327.0496       6.8890       0.0723    -999.2500      28.4307    -999.2500      77.2527      71.0230      16.7850       0.0941       2.6827
   2327.2019       6.8890       0.0738    -999.2500      29.5295    -999.2500      83.0571      72.5052      17.0894       0.0706       2.7218
   2327.3545       6.8890       0.0816    -999.2500      31.4859    -999.2500      93.1360      79.2150      18.4175       0.0621       2.7528
   2327.5068       6.8890       0.0906    -999.2500      33.6054    -999.2500     104.0177      86.9185      19.9403       0.0617       2.7824
   2327.6592       6.8890       0.1042    -999.2500      33.8960    -999.2500     133.4172      99.6760      23.1187       0.0628       2.7984
   2327.8115       6.8890       0.1187    -999.2500      33.8449    -999.2500     166.2341     113.3775      26.6062       0.0646       2.8119
   2327.9641       6.8890       0.1405    -999.2500      33.3972    -999.2500     166.7556     136.5501      52.0797       0.0679       2.8110
   2328.1165       6.8890       0.1635    -999.2500      32.8767    -999.2500     161.4229     161.4607      81.5877       0.0711       2.8075
   2328.2688       6.8890       0.1649    -999.2500      28.1989    -999.2500     161.4877     164.0662      63.6119       0.0720       2.7659
   2328.4211       6.8890       0.1624    -999.2500      22.7810    -999.2500     162.5134     162.7011      37.0776       0.0713       2.7173
   2328.5735       6.8890       0.1505    -999.2500      22.0534    -999.2500     167.3054     151.3871      33.1603       0.0688       2.7117
   2328.7261       6.8890       0.1370    -999.2500      22.1455    -999.2500     172.7556     138.3344      33.1958       0.0662       2.7137
   2328.8784       6.8890       0.0945    -999.2500      22.8982    -999.2500     181.7711     139.4580      45.0145       0.0652       2.7221
   2329.0308       6.8890       0.0469    -999.2500      23.7642    -999.2500     191.3904     143.0137      58.8547       0.0652       2.7316
   2329.1831       6.8890       0.0413    -999.2500      26.0514    -999.2500     208.0099     171.0787      59.7153       0.0656       2.7484
   2329.3357       6.8890       0.0428    -999.2500      28.5779    -999.2500     225.7927     203.2698      58.3908       0.0665       2.7664
   2329.4880       6.8890       0.0486    -999.2500      33.7762    -999.2500     225.4618     205.6087      53.5961       0.0684       2.7651
   2329.6404       6.8890       0.0551    -999.2500      39.4158    -999.2500     222.1785     203.0172      48.2283       0.0720       2.7606
   2329.7927       6.8890       0.0650    -999.2500      40.0273    -999.2500     208.3559     192.1238      43.0807       0.0796       2.7613
   2329.9453       6.8890       0.0756    -999.2500      39.8350    -999.2500     192.8488     179.9035      37.9687       0.0873       2.7628
   2330.0977       6.8890       0.0822    -999.2500      38.7574    -999.2500     154.0728     163.0491      35.2448       0.0895       2.7768
