#------------------------------------------------------------------------------
#
#   Created by  : [OpenWorks] Log Export Utility (LEXP)
#   Created on  : 2016-05-23 11:57:04
#   Project     : CANT971
#   User        : R5K
#   Interpreter : PEP
#
#------------------------------------------------------------------------------
~VERSION INFORMATION
VERS. 2.0 : CWLS Log ASCII Standard - version 2.0
WRAP.  NO : One line per depth step
~WELL INFORMATION
#MNEMONIC   .UNIT                                           VALUE :DESCRIPTION
#------------------------------------------------------------------------------
STRT        .M                                           125.9451 :START DEPTH
STOP        .M                                          3005.5432 :STOP DEPTH
STEP        .M                                             0.1524 :STEP
NULL        .                                           -999.2500 :NULL VALUE
COMP        .                                   PEMEX EXPL & PROD :COMPANY
WELL        .                                                 66A :WELL
FLD         .                                           CANTARELL :FIELD
LOC         .                                             UNKNOWN :LOCATION
CNTY        .                                      CD. DEL CARMEN :COUNTY
STAT        .                                            CAMPECHE :STATE
CTRY        .                                              MEXICO :COUNTRY
SRVC        .                                             UNKNOWN :SERVICE COMPANY
DATE        .                                             UNKNOWN :LOG DATE
UWI         .                                          3060000173 :UNIQUE WELL ID
XCOORD      .                                       599692.990000 :SURFACE X
YCOORD      .                                      2143036.380000 :SURFACE Y
LAT         .                                           19.380143 :LATITUDE
LON         .                                          -92.050669 :LONGITUDE
ELEV        .M                                            26.7400 :SURFACE ELEV
ELEV_TYPE   .                                                  KB :ELEV TYPE
~CURVE INFORMATION
#MNEMONIC.UNIT        API CODE       : CURVE DESCRIPTION
#------------------------------------------------------------------------------
DEPTH    .M                          : Measured Depth
CALI     .UNKNOWN     UNKNOWN        : CALI:UNKNOWN:rC:NONE:v0 (auto-composite)
DT       .us/ft       UNKNOWN        : DT:DT:rC:NONE:v0 (auto-composite)
GR       .API         UNKNOWN        : GR:UNKNOWN:rC:NONE:v0 (auto-composite)
GR-ENT   .API         UNKNOWN        : GR-ENT:porosidad-entubado:rC:NONE:v0 (auto-composite)
GR-LWD   .UNKNOWN     UNKNOWN        : GR-LWD:GR-LWD:rC:NONE:v0 (auto-composite)
ILD      .UNKNOWN     UNKNOWN        : ILD:UNKNOWN:rC:NONE:v0 (auto-composite)
LLD      .UNKNOWN     UNKNOWN        : LLD:UNKNOWN:rC:NONE:v0 (auto-composite)
LLD-LWD  .UNKNOWN     UNKNOWN        : LLD-LWD:LLD-LWD:rC:NONE:v0 (auto-composite)
LLS      .UNKNOWN     UNKNOWN        : LLS:UNKNOWN:rC:NONE:v0 (auto-composite)
LLS-LWD  .UNKNOWN     UNKNOWN        : LLS-LWD:LLS-LWD:rC:NONE:v0 (auto-composite)
MSFL     .UNKNOWN     UNKNOWN        : MSFL:UNKNOWN:rC:NONE:v0 (auto-composite)
MSFL-LWD .UNKNOWN     UNKNOWN        : MSFL-LWD:MSFL-LWD:rC:NONE:v0 (auto-composite)
NPHI     .v/v_decimal UNKNOWN        : NPHI:PETROWORKS:rC:NONE:v1 
NPHI-ENT .UNKNOWN     UNKNOWN        : NPHI-ENT:porosidad-entubado:rC:NONE:v0 (auto-composite)
RHOB     .g/cm3       UNKNOWN        : RHOB:UNKNOWN:rC:NONE:v0 (auto-composite)
~A     DEPTH         CALI           DT           GR       GR-ENT       GR-LWD          ILD          LLD      LLD-LWD          LLS      LLS-LWD         MSFL     MSFL-LWD         NPHI     NPHI-ENT         RHOB
# ...
   2402.3440       5.8451      58.7904      42.3406      30.8219      33.0069    -999.2500     924.9658     154.7696     257.4482      90.8540      34.6713      62.7263       0.0992       0.0967       2.7078
   2402.4963       5.8573      58.3032      41.9691      31.3209      32.4592    -999.2500     824.1086     167.8281     231.9658     102.6438      29.1626      70.9170       0.0980       0.0944       2.7082
   2402.6487       5.8628      57.5560      41.5788      31.4811      36.1384    -999.2500     711.1029     133.2893     203.6525     101.2943      26.7741      81.5446       0.0976       0.0976       2.7093
   2402.8010       5.8729      57.3746      40.8963      31.3558      39.5400    -999.2500     621.6173     106.8400     181.6123      95.3600      24.3069      78.9000       0.0969       0.1001       2.7091
   2402.9536       5.8894      57.9949      39.7997      30.4253      38.7722    -999.2500     565.4521     114.0471     168.4590      90.0900      21.7280      56.4142       0.0960       0.1016       2.7053
   2403.1060       5.9013      58.5219      37.5236      29.1616      38.5570    -999.2500     533.2232     161.9956     161.2013     124.7333      22.4501      83.1855       0.0960       0.1027       2.7027
   2403.2583       5.9068      58.9172      33.5703      27.2227      39.2794    -999.2500     535.0255     202.9678     162.3259     158.6101      27.8652     111.4577       0.0969       0.1013       2.6922
   2403.4106       5.9100      58.5566      31.2460      25.2655      41.0600    -999.2500     557.9720     245.4478     169.7646     148.6855      33.8970     101.8430       0.0959       0.0995       2.6827
   2403.5630       5.9100      57.1246      31.2460      23.7343      36.1753    -999.2500     611.0878     251.1586     186.2125     113.6919      40.8087      71.2294       0.0917       0.0911       2.6762
   2403.7156       5.9100      57.6984      31.5967      22.7294      30.9300    -999.2500     727.1318     163.3455     217.8112     101.8223      42.4829      62.5578       0.0865       0.0795       2.6752
   2403.8679       5.9100      61.1067      32.4399      22.7223      33.5596    -999.2500     931.5156     165.2789     270.6789     121.6328      36.8049      80.1078       0.0802       0.0684       2.6690
   2404.0203       5.9100      64.8335      33.3291      22.8552      36.0341    -999.2500     992.9434     170.4000     279.8848     112.8430      34.2177      67.0673       0.0787       0.0719       2.6650
   2404.1726       5.9100      69.0092      34.2832      23.0061      40.0865    -999.2500     852.9728     151.7552     227.5794      83.9965      35.9849      41.9656       0.0841       0.0865       2.6621
   2404.3252       5.9100      71.3470      34.6931      23.0597      40.2325    -999.2500     774.1339     106.3802     197.7621      68.0817      41.5525      44.8017       0.0892       0.0952       2.6614
   2404.4775       5.9100      71.0864      34.3338      22.9209      26.8684    -999.2500     781.7251     121.2536     199.7392      85.1103      52.4933      59.6519       0.0938       0.0969       2.6714
   2404.6299       5.9171      69.9817      34.4048      23.2802      29.0350    -999.2500     804.4214     166.3631     205.8623     156.1024      57.2338      85.8119       0.0940       0.0927       2.6786
   2404.7822       5.9341      67.6872      35.0865      24.0097      34.6229    -999.2500     848.5500     221.1236     217.8680     197.7986      53.1768      99.9559       0.0879       0.0819       2.6789
   2404.9348       5.9463      65.3843      35.8181      24.9100      33.1697    -999.2500    1011.5563     257.2833     253.5159     193.0972      48.6746      98.8604       0.0822       0.0793       2.6765
   2405.0872       5.9518      63.0694      36.6212      25.5544      29.9600    -999.2500    1344.9613     150.5075     323.0524     158.4373      43.5343      90.1214       0.0773       0.0819       2.6577
   2405.2395       5.9550      62.4882      37.0580      25.6010      30.5289    -999.2500    1426.4343     139.1225     336.6404     125.4070      36.6862      77.6070       0.0765       0.0860       2.6442
   2405.3918       5.9550      64.3519      36.9677      25.3245      32.0899    -999.2500    1145.4980     152.4445     269.7455      99.5841      27.3815      66.8311       0.0807       0.0904       2.6346
   2405.5442       5.9550      66.5335      36.6562      24.5009      31.1385    -999.2500     875.8409     326.4256     207.8452     292.2827      27.4323     139.7733       0.0883       0.1017       2.6309
   2405.6968       5.9550      69.1650      36.0334      23.5201      28.7283    -999.2500     622.0420     307.5515     152.9674     278.4088      40.6371     134.4610       0.1006       0.1116       2.6080
   2405.8491       5.9550      70.1694      34.9020      22.6343      29.1517    -999.2500     448.3465     119.1166     116.1237      92.1780      44.8619      63.7662       0.1062       0.1168       2.6072
   2406.0015       5.9550      68.8779      33.0528      22.0774      29.9000    -999.2500     387.6773      99.1500     104.7263      66.6200      36.4158      51.1000       0.1048       0.1120       2.6140
   2406.1538       5.9585      67.5604      32.1807      22.4432      26.5981    -999.2500     364.4633      99.1500     101.0676      50.7000      34.4310      36.9400       0.0999       0.0993       2.6301
   2406.3064       5.9670      66.2059      32.7015      23.1745      23.7200    -999.2500     394.6388      99.1500     108.4399      47.3680      41.6564      35.8287       0.0911       0.0936       2.6439
   2406.4587       5.9766      64.5984      33.2578      24.1353      22.2222    -999.2500     423.0287     107.5556     114.9230      43.3248      47.2243      34.0800       0.0843       0.0910       2.6529
   2406.6111       5.9876      62.6337      33.8650      24.7908      21.1700    -999.2500     448.8643     191.1360     120.1339      54.9834      50.4212      34.0800       0.0796       0.0883       2.6575
   2406.7634       5.9986      60.3089      33.7334      24.7273      22.8841    -999.2500     482.1607     175.3040     127.3681      48.3738      60.5747      28.3650       0.0759       0.0848       2.6741
   2406.9160       6.0096      57.4739      32.5689      24.3697      25.0500    -999.2500     525.8889      41.9100     137.4313      16.7300      80.4551      11.4200       0.0735       0.0815       2.6876
   2407.0684       6.0383      55.1272      31.5842      23.4374      24.0309    -999.2500     626.9364      51.4927     161.1696      23.0364     104.1280      17.0287       0.0702       0.0738       2.6758
   2407.2207       6.0918      53.4705      30.8516      22.2854      22.3200    -999.2500     808.4131      85.5300     204.0967      45.4600     133.1222      36.9400       0.0656       0.0678       2.6652
   2407.3730       6.1486      53.1961      30.0774      20.9580      22.3200    -999.2500    1127.5203      85.5300     288.8617      45.4600     250.0731      36.9400       0.0611       0.0654       2.6660
   2407.5254       6.2101      54.8812      29.2442      19.5944      21.1100    -999.2500    1641.7186      93.4600     432.9319      46.6700     491.7028      35.0700       0.0567       0.0653       2.6708
   2407.6780       6.2356      56.2222      28.6459      18.4455      21.1100    -999.2500    2072.8447      92.0877     515.8809      46.2568     621.1771      34.9530       0.0546       0.0665       2.6881
   2407.8303       6.2106      57.0770      28.3815      17.7355      28.0625    -999.2500    2385.7957      83.7236     511.8812      43.7215     591.1036      34.2260       0.0560       0.0678       2.7023
   2407.9827       6.1854      57.9046      28.4408      17.6210      29.8400    -999.2500    2251.0859      76.2464     443.2811      40.6524     471.5731      31.8467       0.0596       0.0747       2.7055
   2408.1350       6.1599      58.6938      28.9624      18.0605      30.7455    -999.2500    1477.2777      55.2700     282.4551      31.3700     224.3303      23.7500       0.0654       0.0960       2.7372
