#------------------------------------------------------------------------------
#
#   Created by  : [OpenWorks] Log Export Utility (LEXP)
#   Created on  : 2016-05-23 11:56:20
#   Project     : CANT971
#   User        : R5K
#   Interpreter : PEP
#
#------------------------------------------------------------------------------
~VERSION INFORMATION
VERS. 2.0 : CWLS Log ASCII Standard - version 2.0
WRAP.  NO : One line per depth step
~WELL INFORMATION
#MNEMONIC   .UNIT                                           VALUE :DESCRIPTION
#------------------------------------------------------------------------------
STRT        .M                                          1446.1469 :START DEPTH
STOP        .M                                          3739.7668 :STOP DEPTH
STEP        .M                                             0.1524 :STEP
NULL        .                                           -999.2500 :NULL VALUE
COMP        .                                             UNKNOWN :COMPANY
WELL        .                                               468-V :WELL
FLD         .                                             UNKNOWN :FIELD
LOC         .                                             UNKNOWN :LOCATION
CNTY        .                                             UNKNOWN :COUNTY
STAT        .                                             UNKNOWN :STATE
CTRY        .                                             UNKNOWN :COUNTRY
SRVC        .                                             UNKNOWN :SERVICE COMPANY
DATE        .                                             UNKNOWN :LOG DATE
UWI         .                                               468-V :UNIQUE WELL ID
XCOORD      .                                       598699.140000 :SURFACE X
YCOORD      .                                      2143301.650000 :SURFACE Y
LAT         .                                           19.382589 :LATITUDE
LON         .                                          -92.060118 :LONGITUDE
ELEV        .M                                             0.0000 :SURFACE ELEV
ELEV_TYPE   .                                                  NA :ELEV TYPE
~CURVE INFORMATION
#MNEMONIC.UNIT        API CODE       : CURVE DESCRIPTION
#------------------------------------------------------------------------------
DEPTH    .M                          : Measured Depth
CALI     .inches      UNKNOWN        : CALI:PETROWORKS:rC:NONE:v1 
DRHO     .g/cm3       UNKNOWN        : DRHO:PETROWORKS:rC:NONE:v1 
DT       .us/ft       UNKNOWN        : DT:sonico:rC:NONE:v0 (auto-composite)
GR       .API         UNKNOWN        : GR:PETROWORKS:rC:NONE:v1 
GR-LWD   .API         UNKNOWN        : GR-LWD:PETROWORKS:rC:NONE:v3 
ILD-LWD  .ohm.m       UNKNOWN        : ILD-LWD:PETROWORKS:rC:NONE:v3 
ILM-LWD  .UNKNOWN     UNKNOWN        : ILM-LWD:PETROWORKS:rC:NONE:v3 
NPHI     .v/v_decimal UNKNOWN        : NPHI:PETROWORKS:rC:NONE:v1 
PEF      .b/elec      UNKNOWN        : PEF:PETROWORKS:rC:NONE:v1 
RHOB     .g/cm3       UNKNOWN        : RHOB:PETROWORKS:rC:NONE:v1 
~A     DEPTH         CALI         DRHO           DT           GR       GR-LWD      ILD-LWD      ILM-LWD         NPHI          PEF         RHOB
# ...
   3229.8364       6.5380       0.1067      52.1942      47.2028      30.3710     116.4923     112.7486       0.0431       3.3123       2.6219
   3229.9888       6.5495       0.1069      51.4359      49.5519      30.9906     108.5142     115.9482       0.0446       3.4070       2.6244
   3230.1414       6.5505       0.1064      51.0906      50.7539      31.8574     103.7830     108.5434       0.0442       3.4725       2.6253
   3230.2937       6.5950       0.1051      50.6114      49.6870      32.2244     105.3133     104.0443       0.0430       3.5321       2.6181
   3230.4460       6.6063       0.1031      50.4659      47.2276      31.5056     101.7369     105.3719       0.0418       3.5849       2.5981
   3230.5984       6.6006       0.1011      50.4814      44.7178      30.0937      97.1119     101.6998       0.0409       3.6335       2.5749
   3230.7507       6.6321       0.1000      50.6409      44.0792      29.2721      93.4217      97.0906       0.0402       3.6305       2.5642
   3230.9033       6.6422       0.0993      50.8270      43.5164      29.4350      95.5900      93.1344       0.0407       3.5900       2.5553
   3231.0557       6.5937       0.0997      50.8934      41.2451      29.4222      94.5125      95.4579       0.0421       3.5496       2.5476
   3231.2080       6.5839       0.1007      50.8081      39.9746      29.9092      94.1098      94.6454       0.0438       3.5096       2.5393
   3231.3604       6.5654       0.1011      50.4504      42.4090      29.7384      96.5282      94.5958       0.0454       3.4558       2.5332
   3231.5129       6.5587       0.1013      50.0599      44.1141      29.8870      93.1323      97.1850       0.0451       3.3810       2.5274
   3231.6653       6.5401       0.1011      50.0066      43.3009      29.4165      95.4121      93.6744       0.0439       3.3452       2.5320
   3231.8176       6.5364       0.1006      49.9774      41.6829      29.0900      92.8510      95.5900       0.0428       3.3212       2.5421
   3231.9700       6.5353       0.0992      49.9545      39.9221      28.9370      87.3501      92.3283       0.0407       3.2962       2.5562
   3232.1226       6.5348       0.0987      49.8828      40.0527      28.7583      88.0619      86.6448       0.0405       3.2769       2.5670
   3232.2749       6.5273       0.0997      49.7543      39.7777      29.0654      84.9667      87.7262       0.0407       3.2746       2.5831
   3232.4272       6.5078       0.1012      49.6858      38.4483      28.9649      84.4514      84.9679       0.0409       3.2595       2.6004
   3232.5796       6.4776       0.1042      49.6804      36.7779      28.3635      88.6134      84.9125       0.0419       3.2069       2.6377
   3232.7319       6.4613       0.1067      49.6145      37.7908      27.4821      87.2029      88.9200       0.0421       3.1973       2.6649
   3232.8845       6.4477       0.1084      49.4078      41.1938      27.0223      83.9697      86.9351       0.0418       3.2601       2.6725
   3233.0369       6.4473       0.1085      48.8453      43.0084      27.0483      85.7700      83.5747       0.0415       3.3443       2.6749
   3233.1892       6.4483       0.1082      48.6874      42.8583      26.1872      83.9121      85.6699       0.0416       3.4170       2.6937
   3233.3416       6.4526       0.1075      48.6566      41.0344      25.1025      80.6008      84.1209       0.0424       3.4183       2.7083
   3233.4941       6.4518       0.1063      49.1143      39.0162      23.4093      83.5742      80.7850       0.0433       3.3897       2.7159
   3233.6465       6.4540       0.1060      49.2868      36.0484      22.1535      84.8353      83.5767       0.0435       3.3752       2.7161
   3233.7988       6.4559       0.1061      49.4658      31.3376      21.8400      83.5973      84.9027       0.0433       3.3757       2.7082
   3233.9512       6.4460       0.1064      49.4245      30.5267      22.0226      85.6382      83.3274       0.0431       3.3721       2.6945
   3234.1038       6.4191       0.1070      49.4970      30.4898      22.5738      85.7126      84.5918       0.0443       3.3628       2.6729
   3234.2561       6.4211       0.1075      50.0649      30.4537      23.2789      82.0522      85.7700       0.0468       3.3503       2.6570
   3234.4084       6.4474       0.1080      50.9136      32.2465      23.4896      83.4547      82.2786       0.0492       3.3286       2.6531
   3234.5608       6.4842       0.1087      52.6207      37.0262      25.3836      87.7298      83.5105       0.0511       3.2975       2.6697
   3234.7131       6.5068       0.1097      53.0896      42.7648      28.8227      85.1554      87.4915       0.0527       3.2621       2.6929
   3234.8657       6.5331       0.1104      53.2289      51.0040      32.1636      80.9026      85.0724       0.0565       3.2435       2.6970
   3235.0181       6.5356       0.1105      52.7785      54.6554      34.6030      79.7087      80.9880       0.0583       3.2326       2.6930
   3235.1704       6.5352       0.1090      52.6850      54.1257      36.3478      78.0298      79.7900       0.0575       3.2510       2.6828
   3235.3228       6.5330       0.1074      52.9727      52.5937      38.1665      78.5553      78.1947       0.0572       3.2678       2.6770
   3235.4753       6.5359       0.1054      54.2993      53.3458      39.6311      78.0333      78.7167       0.0579       3.2502       2.6589
   3235.6277       6.5362       0.1039      55.1393      56.0826      40.3757      75.4080      78.0331       0.0594       3.2266       2.6299
   3235.7800       6.5352       0.1021      55.8179      59.4986      40.9161      75.9292      75.2608       0.0600       3.1833       2.5944
   3235.9324       6.5402       0.1010      55.5398      60.6573      40.8011      75.2638      75.8129       0.0598       3.1311       2.5783
   3236.0850       6.5560       0.1001      54.2771      60.0122      40.9126      72.5944      75.2623       0.0587       3.0750       2.5637
   3236.2373       6.5612       0.0997      53.6734      59.8563      41.8045      74.8175      72.6931       0.0596       3.0568       2.5553
   3236.3896       6.5454       0.0994      53.5014      60.8239      42.9103      74.5035      74.9334       0.0621       3.0566       2.5524
   3236.5420       6.5369       0.0994      56.0608      61.7580      43.6716      70.5564      74.5065       0.0648       3.0628       2.5555
   3236.6943       6.5360       0.0997      57.3158      62.9621      43.8800      67.5381      70.5563       0.0668       3.0770       2.5645
   3236.8469       6.5447       0.1002      59.7624      64.1385      44.2347      66.6100      67.5369       0.0675       3.1233       2.5749
   3236.9993       6.5618       0.1009      60.6906      66.1552      45.1636      66.6100      66.6100       0.0678       3.1968       2.5816
   3237.1516       6.5647       0.1013      60.4660      68.7959      46.3054      65.1419      66.6100       0.0691       3.2242       2.5813
   3237.3040       6.5629       0.1016      59.7434      70.9151      47.1210      62.8558      65.1427       0.0708       3.2227       2.5820
   3237.4565       6.5635       0.1010      59.2111      70.8097      48.8239      61.9700      62.8344       0.0732       3.2216       2.5783
   3237.6089       6.5612       0.0993      58.9344      70.9392      51.2387      63.2980      62.0149       0.0754       3.2268       2.5678
   3237.7612       6.5396       0.0982      58.9001      73.3461      53.2900      62.8313      63.3887       0.0782       3.2299       2.5606
   3237.9136       6.5369       0.0978      58.8034      72.7060      53.5782      60.7149      62.8335       0.0805       3.2504       2.5428
   3238.0662       6.5369       0.0981      58.0423      69.0037      52.9539      61.1377      60.6023       0.0807       3.3011       2.5117
   3238.2185       6.5270       0.0987      57.3266      69.7167      52.3232      61.9700      61.0733       0.0788       3.3588       2.4951
