#------------------------------------------------------------------------------
#
#   Created by  : [OpenWorks] Log Export Utility (LEXP)
#   Created on  : 2016-05-23 11:57:27
#   Project     : CANT971
#   User        : R5K
#   Interpreter : PEP
#
#------------------------------------------------------------------------------
~VERSION INFORMATION
VERS. 2.0 : CWLS Log ASCII Standard - version 2.0
WRAP.  NO : One line per depth step
~WELL INFORMATION
#MNEMONIC   .UNIT                                           VALUE :DESCRIPTION
#------------------------------------------------------------------------------
STRT        .M                                           813.0000 :START DEPTH
STOP        .M                                          2589.2219 :STOP DEPTH
STEP        .M                                             0.1524 :STEP
NULL        .                                           -999.2500 :NULL VALUE
COMP        .                                   PEMEX EXPL & PROD :COMPANY
WELL        .                                                  84 :WELL
FLD         .                                           CANTARELL :FIELD
LOC         .                                             UNKNOWN :LOCATION
CNTY        .                                      CD. DEL CARMEN :COUNTY
STAT        .                                            CAMPECHE :STATE
CTRY        .                                              MEXICO :COUNTRY
SRVC        .                                             UNKNOWN :SERVICE COMPANY
DATE        .                                             UNKNOWN :LOG DATE
UWI         .                                          3060000616 :UNIQUE WELL ID
XCOORD      .                                       601709.550000 :SURFACE X
YCOORD      .                                      2142344.590000 :SURFACE Y
LAT         .                                           19.373791 :LATITUDE
LON         .                                          -92.031505 :LONGITUDE
ELEV        .M                                            24.0000 :SURFACE ELEV
ELEV_TYPE   .                                                  KB :ELEV TYPE
~CURVE INFORMATION
#MNEMONIC.UNIT        API CODE       : CURVE DESCRIPTION
#------------------------------------------------------------------------------
DEPTH    .M                          : Measured Depth
CALI     .in          UNKNOWN        : CALI:UNKNOWN:rC:NONE:v0 (auto-composite)
DRHO     .g/cm3       UNKNOWN        : DRHO:UNKNOWN:rC:NONE:v0 (auto-composite)
DT       .us/ft       UNKNOWN        : DT:DT:rC:NONE:v0 (auto-composite)
ILD      .ohmm        UNKNOWN        : ILD:UNKNOWN:rC:NONE:v0 (auto-composite)
ILM      .ohmm        UNKNOWN        : ILM:UNKNOWN:rC:NONE:v0 (auto-composite)
LLD      .ohmm        UNKNOWN        : LLD:UNKNOWN:rC:NONE:v0 (auto-composite)
LLS      .ohmm        UNKNOWN        : LLS:UNKNOWN:rC:NONE:v0 (auto-composite)
MSFL     .ohmm        UNKNOWN        : MSFL:UNKNOWN:rC:NONE:v0 (auto-composite)
NPHI     .v/v_decimal UNKNOWN        : NPHI:NPHI:rC:NONE:v0 (auto-composite)
PEF      .b/elec      UNKNOWN        : PEF:UNKNOWN:rC:NONE:v0 (auto-composite)
RG       .UNKNOWN     UNKNOWN        : RG:UNKNOWN:rC:NONE:v0 (auto-composite)
RHOB     .g/cm3       UNKNOWN        : RHOB:UNKNOWN:rC:NONE:v0 (auto-composite)
~A     DEPTH         CALI         DRHO           DT          ILD          ILM          LLD          LLS         MSFL         NPHI          PEF           RG         RHOB
# ...
   2583.2783       8.1786       0.0865      51.6384       0.0000       0.0000       0.0000       0.0000       0.0000       4.9369       3.7624       0.0000       2.7411
   2583.4309       8.0317       0.1016      52.9739       0.0000       0.0000       0.0000       0.0000       0.0000       4.9199       4.1595       0.0000       2.7025
   2583.5833       7.9340       0.1048      52.8862       0.0000       0.0000       0.0000       0.0000       0.0000       4.8236       4.4025       0.0000       2.6596
   2583.7356       7.8728       0.0993      52.0431       0.0000       0.0000       0.0000       0.0000       0.0000       4.6851       4.5308       0.0000       2.6135
   2583.8879       7.8146       0.0898      51.7833       0.0000       0.0000       0.0000       0.0000       0.0000       4.6494       4.6128       0.0000       2.5671
   2584.0403       7.7584       0.0772      51.8343       0.0000       0.0000       0.0000       0.0000       0.0000       4.6684       4.6609       0.0000       2.5205
   2584.1929       7.7113       0.0656      52.0635       0.0000       0.0000       0.0000       0.0000       0.0000       4.7158       4.6600       0.0000       2.4741
   2584.3452       7.6707       0.0545      52.3874       0.0000       0.0000       0.0000       0.0000       0.0000       4.7783       4.6239       0.0000       2.4280
   2584.4976       7.6413       0.0538      52.1467       0.0000       0.0000       0.0000       0.0000       0.0000       4.7870       4.5073       0.0000       2.4022
   2584.6499       7.6198       0.0604      51.6050       0.0000       0.0000       0.0000       0.0000       0.0000       4.7669       4.3343       0.0000       2.3907
   2584.8025       7.6110       0.0642      50.3224       0.0000       0.0000       0.0000       0.0000       0.0000       4.7623       4.3078       0.0000       2.3884
   2584.9548       7.6110       0.0662      48.6461       0.0000       0.0000       0.0000       0.0000       0.0000       4.7658       4.3815       0.0000       2.3924
   2585.1072       7.6113       0.0682      48.0630       0.0000       0.0000       0.0000       0.0000       0.0000       4.8078       4.4266       0.0000       2.3931
   2585.2595       7.6118       0.0702      48.0630       0.0000       0.0000       0.0000       0.0000       0.0000       4.8703       4.4527       0.0000       2.3916
   2585.4121       7.6211       0.0752      48.0424       0.0000       0.0000       0.0000       0.0000       0.0000       4.9991       4.4254       0.0000       2.3913
   2585.5645       7.6361       0.0823      48.0109       0.0000       0.0000       0.0000       0.0000       0.0000       5.1632       4.3633       0.0000       2.3918
   2585.7168       7.6423       0.0868      48.0000       0.0000       0.0000       0.0000       0.0000       0.0000       5.2700       4.3561       0.0000       2.3981
   2585.8691       7.6428       0.0898      48.0000       0.0000       0.0000       0.0000       0.0000       0.0000       5.3464       4.3842       0.0000       2.4081
   2586.0215       7.6430       0.0870      48.0114       0.0000       0.0000       0.0000       0.0000       0.0000       5.3923       4.3839       0.0000       2.4065
   2586.1741       7.6430       0.0805      48.0289       0.0000       0.0000       0.0000       0.0000       0.0000       5.4218       4.3659       0.0000       2.3974
   2586.3264       7.6564       0.0764      48.0644       0.0000       0.0000       0.0000       0.0000       0.0000       5.4777       4.3096       0.0000       2.3928
   2586.4788       7.6779       0.0739      48.1094       0.0000       0.0000       0.0000       0.0000       0.0000       5.5477       4.2299       0.0000       2.3908
   2586.6311       7.6916       0.0730      32.4151       0.0000       0.0000       0.0000       0.0000       0.0000       5.5710       4.2138       0.0000       2.3925
   2586.7837       7.7007       0.0730       8.3438       0.0000       0.0000       0.0000       0.0000       0.0000       5.5695       4.2359       0.0000       2.3965
   2586.9360       7.7046       0.0765       0.0000       0.0000       0.0000       0.0000       0.0000       0.0000       5.5582       4.3256       0.0000       2.4015
   2587.0884       7.7056       0.0820       0.0000       0.0000       0.0000       0.0000       0.0000       0.0000       5.5417       4.4548       0.0000       2.4070
   2587.2407       7.7019       0.0891       0.0000       0.0000       0.0000       0.0000       0.0000       0.0000       5.5367       4.5424       0.0000       2.4103
   2587.3933       7.6953       0.0971       0.0000       0.0000       0.0000       0.0000       0.0000       0.0000       5.5377       4.6061       0.0000       2.4123
   2587.5457    -999.2500    -999.2500       0.0000    -999.2500    -999.2500    -999.2500    -999.2500    -999.2500       5.5396    -999.2500    -999.2500    -999.2500
   2587.6980    -999.2500    -999.2500       0.0000    -999.2500    -999.2500    -999.2500    -999.2500    -999.2500       5.5421    -999.2500    -999.2500    -999.2500
   2587.8503    -999.2500    -999.2500       0.0000    -999.2500    -999.2500    -999.2500    -999.2500    -999.2500       5.5453    -999.2500    -999.2500    -999.2500
   2588.0027    -999.2500    -999.2500       0.0000    -999.2500    -999.2500    -999.2500    -999.2500    -999.2500       5.5488    -999.2500    -999.2500    -999.2500
   2588.1553    -999.2500    -999.2500       0.0000    -999.2500    -999.2500    -999.2500    -999.2500    -999.2500       5.5533    -999.2500    -999.2500    -999.2500
   2588.3076    -999.2500    -999.2500       0.0000    -999.2500    -999.2500    -999.2500    -999.2500    -999.2500       5.5583    -999.2500    -999.2500    -999.2500
   2588.4600    -999.2500    -999.2500       0.0000    -999.2500    -999.2500    -999.2500    -999.2500    -999.2500       5.5616    -999.2500    -999.2500    -999.2500
   2588.6123    -999.2500    -999.2500       0.0000    -999.2500    -999.2500    -999.2500    -999.2500    -999.2500       5.5641    -999.2500    -999.2500    -999.2500
   2588.7649    -999.2500    -999.2500       0.0000    -999.2500    -999.2500    -999.2500    -999.2500    -999.2500       5.5666    -999.2500    -999.2500    -999.2500
   2588.9172    -999.2500    -999.2500       0.0000    -999.2500    -999.2500    -999.2500    -999.2500    -999.2500       5.5691    -999.2500    -999.2500    -999.2500
   2589.0696    -999.2500    -999.2500       0.0000    -999.2500    -999.2500    -999.2500    -999.2500    -999.2500       5.5713    -999.2500    -999.2500    -999.2500
   2589.2219    -999.2500    -999.2500       0.0000    -999.2500    -999.2500    -999.2500    -999.2500    -999.2500       5.5733    -999.2500    -999.2500    -999.2500
