#------------------------------------------------------------------------------
#
#   Created by  : [OpenWorks] Log Export Utility (LEXP)
#   Created on  : 2016-05-23 11:57:27
#   Project     : CANT971
#   User        : R5K
#   Interpreter : PEP
#
#------------------------------------------------------------------------------
~VERSION INFORMATION
VERS. 2.0 : CWLS Log ASCII Standard - version 2.0
WRAP.  NO : One line per depth step
~WELL INFORMATION
#MNEMONIC   .UNIT                                           VALUE :DESCRIPTION
#------------------------------------------------------------------------------
STRT        .M                                           813.0000 :START DEPTH
STOP        .M                                          2589.2219 :STOP DEPTH
STEP        .M                                             0.1524 :STEP
NULL        .                                           -999.2500 :NULL VALUE
COMP        .                                   PEMEX EXPL & PROD :COMPANY
WELL        .                                                  84 :WELL
FLD         .                                           CANTARELL :FIELD
LOC         .                                             UNKNOWN :LOCATION
CNTY        .                                      CD. DEL CARMEN :COUNTY
STAT        .                                            CAMPECHE :STATE
CTRY        .                                              MEXICO :COUNTRY
SRVC        .                                             UNKNOWN :SERVICE COMPANY
DATE        .                                             UNKNOWN :LOG DATE
UWI         .                                          3060000616 :UNIQUE WELL ID
XCOORD      .                                       601709.550000 :SURFACE X
YCOORD      .                                      2142344.590000 :SURFACE Y
LAT         .                                           19.373791 :LATITUDE
LON         .                                          -92.031505 :LONGITUDE
ELEV        .M                                            24.0000 :SURFACE ELEV
ELEV_TYPE   .                                                  KB :ELEV TYPE
~CURVE INFORMATION
#MNEMONIC.UNIT        API CODE       : CURVE DESCRIPTION
#------------------------------------------------------------------------------
DEPTH    .M                          : Measured Depth
CALI     .in          UNKNOWN        : CALI:UNKNOWN:rC:NONE:v0 (auto-composite)
DRHO     .g/cm3       UNKNOWN        : DRHO:UNKNOWN:rC:NONE:v0 (auto-composite)
DT       .us/ft       UNKNOWN        : DT:DT:rC:NONE:v0 (auto-composite)
ILD      .ohmm        UNKNOWN        : ILD:UNKNOWN:rC:NONE:v0 (auto-composite)
ILM      .ohmm        UNKNOWN        : ILM:UNKNOWN:rC:NONE:v0 (auto-composite)
LLD      .ohmm        UNKNOWN        : LLD:UNKNOWN:rC:NONE:v0 (auto-composite)
LLS      .ohmm        UNKNOWN        : LLS:UNKNOWN:rC:NONE:v0 (auto-composite)
MSFL     .ohmm        UNKNOWN        : MSFL:UNKNOWN:rC:NONE:v0 (auto-composite)
NPHI     .v/v_decimal UNKNOWN        : NPHI:NPHI:rC:NONE:v0 (auto-composite)
PEF      .b/elec      UNKNOWN        : PEF:UNKNOWN:rC:NONE:v0 (auto-composite)
RG       .UNKNOWN     UNKNOWN        : RG:UNKNOWN:rC:NONE:v0 (auto-composite)
RHOB     .g/cm3       UNKNOWN        : RHOB:UNKNOWN:rC:NONE:v0 (auto-composite)
~A     DEPTH         CALI         DRHO           DT          ILD          ILM          LLD          LLS         MSFL         NPHI          PEF           RG         RHOB
# ...
   1522.5743       0.0000      -0.1000    -999.2500       0.8248       0.9191       0.0000       0.0000       0.0000    -999.2500       0.0000      30.5393       0.0000
   1522.7268       0.0000      -0.1000    -999.2500       0.8479       0.9391       0.0000       0.0000       0.0000    -999.2500       0.0000      30.7589       0.0000
   1522.8792       0.0000      -0.1000    -999.2500       0.8665       0.9574       0.0000       0.0000       0.0000    -999.2500       0.0000      31.0410       0.0000
   1523.0316       0.0000      -0.1000    -999.2500       0.8726       0.9704       0.0000       0.0000       0.0000    -999.2500       0.0000      31.5033       0.0000
   1523.1840       0.0000      -0.1000    -999.2500       0.8753       0.9766       0.0000       0.0000       0.0000    -999.2500       0.0000      31.6257       0.0000
   1523.3364       0.0000      -0.1000    -999.2500       0.8688       0.9635       0.0000       0.0000       0.0000    -999.2500       0.0000      30.7958       0.0000
   1523.4888       0.0000      -0.1000    -999.2500       0.8623       0.9501       0.0000       0.0000       0.0000    -999.2500       0.0000      30.8884       0.0000
   1523.6412       0.0000      -0.1000    -999.2500       0.8557       0.9356       0.0000       0.0000       0.0000    -999.2500       0.0000      33.5047       0.0000
   1523.7936       0.0000      -0.1000    -999.2500       0.8463       0.9214       0.0000       0.0000       0.0000    -999.2500       0.0000      35.5986       0.0000
   1523.9460       0.0000      -0.1000    -999.2500       0.8293       0.9084       0.0000       0.0000       0.0000    -999.2500       0.0000      36.3032       0.0000
   1524.0984       0.0000      -0.1000    -999.2500       0.8145       0.8944       0.0000       0.0000       0.0000    -999.2500       0.0000      36.9079       0.0000
   1524.2509       0.0000      -0.1000    -999.2500       0.8055       0.8779       0.0000       0.0000       0.0000    -999.2500       0.0000      37.2529       0.0000
   1524.4032       0.0000      -0.1000    -999.2500       0.7957       0.8646       0.0000       0.0000       0.0000    -999.2500       0.0000      37.8155       0.0000
   1524.5555       0.0000      -0.1000    -999.2500       0.7842       0.8596       0.0000       0.0000       0.0000    -999.2500       0.0000      38.9281       0.0000
   1524.7080       0.0000      -0.1000    -999.2500       0.7747       0.8519       0.0000       0.0000       0.0000    -999.2500       0.0000      39.4699       0.0000
   1524.8604       0.0000      -0.1000    -999.2500       0.7702       0.8379       0.0000       0.0000       0.0000    -999.2500       0.0000      38.6084       0.0000
   1525.0128       0.0000      -0.1000    -999.2500       0.7705       0.8335       0.0000       0.0000       0.0000    -999.2500       0.0000      37.6824       0.0000
   1525.1652       0.0000      -0.1000    -999.2500       0.7826       0.8520       0.0000       0.0000       0.0000    -999.2500       0.0000      36.6014       0.0000
   1525.3176       0.0000      -0.1000    -999.2500       0.7902       0.8677       0.0000       0.0000       0.0000    -999.2500       0.0000      35.9471       0.0000
   1525.4700       0.0000      -0.1000    -999.2500       0.7877       0.8767       0.0000       0.0000       0.0000    -999.2500       0.0000      36.2916       0.0000
   1525.6224       0.0000      -0.1000    -999.2500       0.7881       0.8845       0.0000       0.0000       0.0000    -999.2500       0.0000      36.6409       0.0000
   1525.7748       0.0000      -0.1000    -999.2500       0.7952       0.8895       0.0000       0.0000       0.0000    -999.2500       0.0000      37.0012       0.0000
   1525.9272       0.0000      -0.1000    -999.2500       0.8002       0.8913       0.0000       0.0000       0.0000    -999.2500       0.0000      36.3159       0.0000
   1526.0796       0.0000      -0.1000    -999.2500       0.8007       0.8858       0.0000       0.0000       0.0000    -999.2500       0.0000      33.2995       0.0000
   1526.2321       0.0000      -0.1000    -999.2500       0.8026       0.8818       0.0000       0.0000       0.0000    -999.2500       0.0000      32.1103       0.0000
   1526.3844       0.0000      -0.1000    -999.2500       0.8076       0.8813       0.0000       0.0000       0.0000    -999.2500       0.0000      34.8904       0.0000
   1526.5367       0.0000      -0.1000    -999.2500       0.8139       0.8858       0.0000       0.0000       0.0000    -999.2500       0.0000      36.8662       0.0000
   1526.6892       0.0000      -0.1000    -999.2500       0.8229       0.9009       0.0000       0.0000       0.0000    -999.2500       0.0000      37.1324       0.0000
   1526.8416       0.0000      -0.1000    -999.2500       0.8326       0.9149       0.0000       0.0000       0.0000    -999.2500       0.0000      37.3936       0.0000
   1526.9940       0.0000      -0.1000    -999.2500       0.8436       0.9270       0.0000       0.0000       0.0000    -999.2500       0.0000      37.6443       0.0000
   1527.1464       0.0000      -0.1000    -999.2500       0.8573       0.9405       0.0000       0.0000       0.0000    -999.2500       0.0000      38.1750       0.0000
   1527.2988       0.0000      -0.1000    -999.2500       0.8764       0.9570       0.0000       0.0000       0.0000    -999.2500       0.0000      39.2716       0.0000
   1527.4512       0.0000      -0.1000    -999.2500       0.8915       0.9714       0.0000       0.0000       0.0000    -999.2500       0.0000      40.0421       0.0000
   1527.6036       0.0000      -0.1000    -999.2500       0.8990       0.9814       0.0000       0.0000       0.0000    -999.2500       0.0000      40.1674       0.0000
   1527.7560       0.0000      -0.1000    -999.2500       0.9071       0.9885       0.0000       0.0000       0.0000    -999.2500       0.0000      40.2606       0.0000
   1527.9084       0.0000      -0.1000    -999.2500       0.9161       0.9900       0.0000       0.0000       0.0000    -999.2500       0.0000      40.2917       0.0000
   1528.0608       0.0000      -0.1000    -999.2500       0.9239       0.9952       0.0000       0.0000       0.0000    -999.2500       0.0000      39.8937       0.0000
   1528.2133       0.0000      -0.1000    -999.2500       0.9294       1.0072       0.0000       0.0000       0.0000    -999.2500       0.0000      38.6878       0.0000
   1528.3656       0.0000      -0.1000    -999.2500       0.9300       1.0124       0.0000       0.0000       0.0000    -999.2500       0.0000      37.5975       0.0000
   1528.5179       0.0000      -0.1000    -999.2500       0.9215       1.0048       0.0000       0.0000       0.0000    -999.2500       0.0000      36.7200       0.0000
   1528.6704       0.0000      -0.1000    -999.2500       0.9153       0.9973       0.0000       0.0000       0.0000    -999.2500       0.0000      36.2232       0.0000
   1528.8228       0.0000      -0.1000    -999.2500       0.9133       0.9898       0.0000       0.0000       0.0000    -999.2500       0.0000      36.4112       0.0000
   1528.9752       0.0000      -0.1000    -999.2500       0.9111       0.9859       0.0000       0.0000       0.0000    -999.2500       0.0000      36.5652       0.0000
   1529.1276       0.0000      -0.1000    -999.2500       0.9086       0.9884       0.0000       0.0000       0.0000    -999.2500       0.0000      36.6594       0.0000
   1529.2800       0.0000      -0.1000    -999.2500       0.9063       0.9907       0.0000       0.0000       0.0000    -999.2500       0.0000      36.6960       0.0000
   1529.4324       0.0000      -0.1000    -999.2500       0.9043       0.9927       0.0000       0.0000       0.0000    -999.2500       0.0000      36.6333       0.0000
   1529.5848       0.0000      -0.1000    -999.2500       0.9052       0.9938       0.0000       0.0000       0.0000    -999.2500       0.0000      35.8286       0.0000
   1529.7372       0.0000      -0.1000    -999.2500       0.9113       0.9933       0.0000       0.0000       0.0000    -999.2500       0.0000      33.7768       0.0000
