#------------------------------------------------------------------------------
#
#   Created by  : [OpenWorks] Log Export Utility (LEXP)
#   Created on  : 2016-05-23 11:57:04
#   Project     : CANT971
#   User        : R5K
#   Interpreter : PEP
#
#------------------------------------------------------------------------------
~VERSION INFORMATION
VERS. 2.0 : CWLS Log ASCII Standard - version 2.0
WRAP.  NO : One line per depth step
~WELL INFORMATION
#MNEMONIC   .UNIT                                           VALUE :DESCRIPTION
#------------------------------------------------------------------------------
STRT        .M                                           125.9451 :START DEPTH
STOP        .M                                          3005.5432 :STOP DEPTH
STEP        .M                                             0.1524 :STEP
NULL        .                                           -999.2500 :NULL VALUE
COMP        .                                   PEMEX EXPL & PROD :COMPANY
WELL        .                                                 66A :WELL
FLD         .                                           CANTARELL :FIELD
LOC         .                                             UNKNOWN :LOCATION
CNTY        .                                      CD. DEL CARMEN :COUNTY
STAT        .                                            CAMPECHE :STATE
CTRY        .                                              MEXICO :COUNTRY
SRVC        .                                             UNKNOWN :SERVICE COMPANY
DATE        .                                             UNKNOWN :LOG DATE
UWI         .                                          3060000173 :UNIQUE WELL ID
XCOORD      .                                       599692.990000 :SURFACE X
YCOORD      .                                      2143036.380000 :SURFACE Y
LAT         .                                           19.380143 :LATITUDE
LON         .                                          -92.050669 :LONGITUDE
ELEV        .M                                            26.7400 :SURFACE ELEV
ELEV_TYPE   .                                                  KB :ELEV TYPE
~CURVE INFORMATION
#MNEMONIC.UNIT        API CODE       : CURVE DESCRIPTION
#------------------------------------------------------------------------------
DEPTH    .M                          : Measured Depth
CALI     .UNKNOWN     UNKNOWN        : CALI:UNKNOWN:rC:NONE:v0 (auto-composite)
DT       .us/ft       UNKNOWN        : DT:DT:rC:NONE:v0 (auto-composite)
GR       .API         UNKNOWN        : GR:UNKNOWN:rC:NONE:v0 (auto-composite)
GR-ENT   .API         UNKNOWN        : GR-ENT:porosidad-entubado:rC:NONE:v0 (auto-composite)
GR-LWD   .UNKNOWN     UNKNOWN        : GR-LWD:GR-LWD:rC:NONE:v0 (auto-composite)
ILD      .UNKNOWN     UNKNOWN        : ILD:UNKNOWN:rC:NONE:v0 (auto-composite)
LLD      .UNKNOWN     UNKNOWN        : LLD:UNKNOWN:rC:NONE:v0 (auto-composite)
LLD-LWD  .UNKNOWN     UNKNOWN        : LLD-LWD:LLD-LWD:rC:NONE:v0 (auto-composite)
LLS      .UNKNOWN     UNKNOWN        : LLS:UNKNOWN:rC:NONE:v0 (auto-composite)
LLS-LWD  .UNKNOWN     UNKNOWN        : LLS-LWD:LLS-LWD:rC:NONE:v0 (auto-composite)
MSFL     .UNKNOWN     UNKNOWN        : MSFL:UNKNOWN:rC:NONE:v0 (auto-composite)
MSFL-LWD .UNKNOWN     UNKNOWN        : MSFL-LWD:MSFL-LWD:rC:NONE:v0 (auto-composite)
NPHI     .v/v_decimal UNKNOWN        : NPHI:PETROWORKS:rC:NONE:v1 
NPHI-ENT .UNKNOWN     UNKNOWN        : NPHI-ENT:porosidad-entubado:rC:NONE:v0 (auto-composite)
RHOB     .g/cm3       UNKNOWN        : RHOB:UNKNOWN:rC:NONE:v0 (auto-composite)
~A     DEPTH         CALI           DT           GR       GR-ENT       GR-LWD          ILD          LLD      LLD-LWD          LLS      LLS-LWD         MSFL     MSFL-LWD         NPHI     NPHI-ENT         RHOB
# ...
   2176.4871       6.0450      48.1818      26.2449      14.2608      13.9115    -999.2500   32391.2344     163.1959   28322.2461      64.6036     291.5569      24.0325       0.0268       0.0348       2.7595
   2176.6394       6.0450      47.9491      26.7171      14.6926      14.1333    -999.2500   32453.5059     165.1026   28322.2461      73.0183     300.0192      27.7767       0.0263       0.0336       2.7629
   2176.7920       6.0450      48.0966      27.2973      15.1807      14.9174    -999.2500   32526.4160     255.4770   28322.2461     152.4156     253.7322      39.0888       0.0255       0.0331       2.7675
   2176.9443       6.0450      47.9198      28.0471      15.6713      16.0184    -999.2500   32576.7441     272.2514   28322.2461     167.9156     231.2545      42.7707       0.0246       0.0325       2.7761
   2177.0967       6.0450      47.2851      29.0362      15.9130      17.1628    -999.2500   32595.1953     250.0512   28322.2461     151.0967     242.3852      45.0655       0.0234       0.0319       2.7773
   2177.2490       6.0450      46.9337      29.1006      15.8854      17.9757    -999.2500   32606.0117     265.4738   28322.2461     282.3414     252.0203      56.5445       0.0229       0.0319       2.7816
   2177.4016       6.0450      46.9837      27.8552      15.7144      15.2000    -999.2500   32606.0117     279.4100   28322.2461     397.9400     259.5365      66.6000       0.0232       0.0319       2.7882
   2177.5540       6.0450      46.9933      27.2648      15.7748      14.2808    -999.2500   32606.0117     464.5222   28322.2461     397.9400     262.6680      57.6871       0.0240       0.0310       2.7892
   2177.7063       6.0450      46.9458      27.6056      16.3413      19.8551    -999.2500   32606.0117     516.0629   28322.2461     389.1521     259.5658      54.9292       0.0253       0.0316       2.7893
   2177.8586       6.0450      47.0858      28.0808      16.8002      18.4002    -999.2500   32606.0117     445.4324   27585.6562     195.6092     248.7488      52.2675       0.0278       0.0339       2.7842
   2178.0110       6.0450      47.4915      28.7476      17.5538      17.3778    -999.2500   32606.0117     442.8995   25798.1484     159.2142     226.9248      52.1791       0.0314       0.0375       2.7807
   2178.1636       6.0450      48.3336      28.9576      17.8978      17.8925    -999.2500   32606.0117     618.1669   22896.4219     266.2316     192.7508      58.8834       0.0364       0.0417       2.7785
   2178.3159       6.0450      49.7924      28.5263      18.1146      19.1871    -999.2500   32606.0117     600.7857   18430.6230     280.3795     141.2405      58.7536       0.0430       0.0475       2.7748
   2178.4683       6.0450      51.0555      28.2740      18.4130      16.7794    -999.2500   32606.0117     445.8394   16139.4287     256.2696     122.0735      54.3482       0.0461       0.0518       2.7615
   2178.6206       6.0450      52.0409      28.2740      18.7501      15.5926    -999.2500   32606.0117     429.0700   16911.6855     221.8799     148.4696      56.0082       0.0453       0.0569       2.7597
   2178.7732       6.0450      52.5424      28.3038      18.7523      14.3027    -999.2500   32651.7188     511.8335   18997.4551     223.6515     175.4508      58.0581       0.0438       0.0618       2.7602
   2178.9255       6.0450      52.3598      28.3758      18.5601      12.9197    -999.2500   32762.0430     808.2067   22940.2188     318.5943     203.2593      59.6766       0.0418       0.0632       2.7536
   2179.0779       6.0483      52.1982      28.2398      18.2241      14.9966    -999.2500   32842.0664     545.4586   25886.6230     300.6701     231.6018      56.3980       0.0409       0.0642       2.7516
   2179.2302       6.0563      52.0663      27.8089      18.0120      19.7286    -999.2500   32879.0977     427.0915   27419.3887     288.8500     260.7019      54.3191       0.0412       0.0673       2.7435
   2179.3828       6.0658      51.9395      27.9194      17.4892      19.0998    -999.2500   32878.1992     397.6663   28322.2461     288.8500     309.7155      52.2967       0.0418       0.0681       2.7397
   2179.5352       6.0773      51.8199      28.8060      17.2245      16.4032    -999.2500   32822.9375     391.8105   28322.2461     256.5185     387.2715      50.1046       0.0427       0.0657       2.7400
   2179.6875       6.0853      51.8526      29.2303      17.0765      16.3745    -999.2500   32752.4355     427.2786   28322.2461     218.7361     469.8703      48.6947       0.0427       0.0661       2.7475
   2179.8398       6.0883      52.1000      28.9896      17.0476      17.9468    -999.2500   32660.0176     429.0700   28322.2461     360.9420     559.7229      48.6400       0.0415       0.0678       2.7433
   2179.9922       6.0852      52.0336      28.9088      17.8072      16.2669    -999.2500   32606.0117     352.7234   27540.2676     307.5721     592.2569      45.2339       0.0403       0.0667       2.7318
   2180.1448       6.0737      51.5229      29.0528      18.3594      15.4971    -999.2500   32606.0117     227.5806   25658.8906     156.7197     544.2057      40.3649       0.0389       0.0622       2.7382
   2180.2971       6.0706      50.8177      29.0328      19.0316      18.8263    -999.2500   32651.7363     272.2958   23280.6992     263.4417     437.2328      48.7908       0.0376       0.0534       2.7525
   2180.4495       6.0790      49.8381      28.7816      19.7754      17.7194    -999.2500   32761.9727     279.4100   20201.5410     663.5109     247.1256      61.7296       0.0363       0.0482       2.7728
   2180.6018       6.0853      48.9551      28.4586      20.6368      16.3500    -999.2500   32842.0391     279.4100   19569.1562     405.4600     121.1079      56.9400       0.0344       0.0482       2.7724
   2180.7544       6.0883      48.2088      28.0333      21.1921      21.5634    -999.2500   32879.0977     279.4100   22424.2734     225.9200      86.4399      56.2286       0.0317       0.0482       2.7735
   2180.9067       6.0900      47.6307      27.4985      21.3283      20.5345    -999.2500   32900.9102     272.7014   24871.7500     217.3960      72.1463      61.4341       0.0288       0.0469       2.7848
   2181.0591       6.0900      47.2898      26.8071      20.7829      14.8470    -999.2500   32900.9102     229.3453   26736.1211     160.9411      86.9969      58.3938       0.0259       0.0449       2.7856
   2181.2114       6.0900      46.8536      26.5939      19.7309      20.1634    -999.2500   32900.9102     233.6519   27927.0977     141.9905     105.5714      49.0712       0.0235       0.0410       2.7852
   2181.3640       6.0900      46.2824      27.0492      18.9433      23.5129    -999.2500   32900.9102     492.9055   28176.5801     256.0254     129.3521      57.3338       0.0219       0.0371       2.7917
   2181.5164       6.0900      45.7354      27.2454      18.0816      24.4229    -999.2500   32839.6289     421.2815   28322.2461     185.7295     157.2584      51.5760       0.0207       0.0357       2.7969
   2181.6687       6.0900      45.2227      27.0781      17.7731      21.9000    -999.2500   32692.3594     243.8031   28322.2461      93.2170     190.9534      40.9636       0.0198       0.0343       2.7985
   2181.8210       6.0900      45.1355      27.2078      17.4327      21.0084    -999.2500   32606.0117     192.3400   28322.2461      81.5973     248.3208      36.3954       0.0193       0.0333       2.7973
   2181.9734       6.0900      45.6517      27.7586      17.0384      20.4886    -999.2500   32606.0117     198.8690   28322.2461      81.4276     339.2420      33.3409       0.0194       0.0337       2.7936
   2182.1260       6.0900      46.4931      27.9413      16.9290      18.4275    -999.2500   32606.0117     251.6519   28322.2461      89.3345     367.0537      38.2621       0.0201       0.0337       2.7927
   2182.2783       6.0900      47.7940      27.6004      16.9091      15.8215    -999.2500   32606.0117     178.3910   28322.2461      73.1701     305.0929      34.6293       0.0215       0.0348       2.7911
