#------------------------------------------------------------------------------
#
#   Created by  : [OpenWorks] Log Export Utility (LEXP)
#   Created on  : 2016-05-11 12:45:43
#   Project     : CANT971
#   User        : R5K
#   Interpreter : PEP
#
#------------------------------------------------------------------------------
~VERSION INFORMATION
VERS. 2.0 : CWLS Log ASCII Standard - version 2.0
WRAP.  NO : One line per depth step
~WELL INFORMATION
#MNEMONIC   .UNIT                                           VALUE :DESCRIPTION
#------------------------------------------------------------------------------
STRT        .M                                            80.3144 :START DEPTH
STOP        .M                                          1350.4160 :STOP DEPTH
STEP        .M                                             0.1524 :STEP
NULL        .                                           -999.2500 :NULL VALUE
COMP        .                                   PEMEX EXPL & PROD :COMPANY
WELL        .                                         CANTARELL-3 :WELL
FLD         .                                           CANTARELL :FIELD
LOC         .                                             UNKNOWN :LOCATION
CNTY        .                                      CD. DEL CARMEN :COUNTY
STAT        .                                            CAMPECHE :STATE
CTRY        .                                              MEXICO :COUNTRY
SRVC        .                                             UNKNOWN :SERVICE COMPANY
DATE        .                                             UNKNOWN :LOG DATE
UWI         .                                          3060000139 :UNIQUE WELL ID
XCOORD      .                                       600825.370000 :SURFACE X
YCOORD      .                                      2145118.460000 :SURFACE Y
LAT         .                                           19.398901 :LATITUDE
LON         .                                          -92.039777 :LONGITUDE
ELEV        .M                                            27.7000 :SURFACE ELEV
ELEV_TYPE   .                                                  KB :ELEV TYPE
~CURVE INFORMATION
#MNEMONIC.UNIT        API CODE       : CURVE DESCRIPTION
#------------------------------------------------------------------------------
DEPTH    .M                          : Measured Depth
CALI     .inches      UNKNOWN        : CALI:Import:rC:NONE:v0 (auto-composite)
DRHO     .g/cm3       UNKNOWN        : DRHO:Import:rC:NONE:v0 (auto-composite)
DT       .us/ft       UNKNOWN        : DT:Import:rC:NONE:v0 (auto-composite)
GR       .API         UNKNOWN        : GR:Import:rC:NONE:v0 (auto-composite)
ILD      .ohm.m       UNKNOWN        : ILD:Import:rC:NONE:v0 (auto-composite)
NPHI     .v/v_decimal UNKNOWN        : NPHI:Import:rC:NONE:v0 (auto-composite)
RHOB     .g/cm3       UNKNOWN        : RHOB:Import:rC:NONE:v0 (auto-composite)
SP       .mV          UNKNOWN        : SP:Import:rC:NONE:v0 (auto-composite)
~A     DEPTH         CALI         DRHO           DT           GR          ILD         NPHI         RHOB           SP
# ...
    963.6248      14.2715       0.0215      84.9330      31.8044       0.7305       0.3816       2.1020     131.0402
    963.7772      14.2790       0.0210      84.8218      30.2030       0.7630       0.3765       2.1230     131.6110
    963.9296      14.3256       0.0240      84.7110      30.4972       0.7995       0.3748       2.1390     131.4921
    964.0820      14.3720       0.0270      80.2954      30.7910       0.8360       0.3756       2.1550     131.3730
    964.2344      14.3710       0.0370      75.8960      30.7900       0.8540       0.3837       2.1715     130.8353
    964.3868      14.3700       0.0470      76.6774      30.7890       0.8720       0.3919       2.1880     130.2970
    964.5392      14.3545       0.0445      77.4560      30.8130       0.8675       0.3929       2.1790     129.7179
    964.6916      14.3390       0.0420      84.5817      30.8370       0.8630       0.3918       2.1700     129.1380
    964.8440      14.2629       0.0335      91.6830      30.9591       0.8430       0.3893       2.1710     129.2859
    964.9964      14.1870       0.0250     119.7636      31.0810       0.8230       0.3869       2.1720     129.4340
    965.1488      14.0488       0.0230     147.7400      31.2772       0.7955       0.3872       2.1675     130.4316
    965.3012      13.9110       0.0210     147.1373      31.4730       0.7680       0.3884       2.1630     131.4300
    965.4536      13.8124       0.0155     146.5370      32.1110       0.7365       0.3918       2.1445     131.3116
    965.6060      13.7140       0.0100     143.4661      32.7480       0.7050       0.3961       2.1260     131.1930
    965.7584      13.7140       0.0100     140.4070      32.6990       0.6850       0.4026       2.1029     130.7287
    965.9108      13.7140       0.0100     114.9660      32.6500       0.6650       0.4084       2.0800     130.2640
    966.0632      13.7140       0.0180      89.6200      32.3547       0.6685       0.4086       2.0825     129.8063
    966.2156      13.7140       0.0260      90.0613      32.0600       0.6720       0.4068       2.0850     129.3480
    966.3680      13.6154       0.0230      90.5010      31.1987       0.6910       0.4017       2.0985     129.4234
    966.5204      13.5170       0.0200      89.9275      30.3390       0.7100       0.3950       2.1120     129.4990
    966.6728      13.6061       0.0215      89.3560      28.5845       0.7455       0.3839       2.1541     130.1295
    966.8252      13.6950       0.0230      82.6489      26.8330       0.7810       0.3739       2.1960     130.7610
    966.9776      13.6850       0.0210      75.9670      26.9311       0.8175       0.3732       2.1885     130.7400
    967.1300      13.6750       0.0190      80.1950      27.0290       0.8540       0.3750       2.1810     130.7190
    967.2824      13.7391       0.0190      84.4060      27.4218       0.9050       0.3788       2.1875     130.6160
    967.4348      13.8030       0.0190      82.6456      27.8140       0.9560       0.3829       2.1940     130.5130
    967.5872      14.1929       0.0205      80.8920      28.1578       0.9550       0.3859       2.1930     130.7199
    967.7396      14.5820       0.0220      74.4373      28.5010       0.9540       0.3893       2.1920     130.9270
    967.8920      14.5700       0.0260      68.0070      28.9900       0.9485       0.3948       2.1740     130.9180
    968.0444      14.5580       0.0300      68.1528      29.4780       0.9430       0.4012       2.1560     130.9090
    968.1968      14.5089       0.0305      68.2980      31.2027       0.9310       0.4090       2.1565     130.4533
    968.3492      14.4600       0.0310      69.2928      32.9240       0.9190       0.4157       2.1570     129.9970
    968.5016      14.3739       0.0310      70.2840      32.9240       0.9095       0.4151       2.1585     130.0730
    968.6540      14.2880       0.0310      76.1451      32.9240       0.9000       0.4118       2.1600     130.1490
    968.8064      13.7503       0.0205      81.9840      32.5061       0.8880       0.4032       2.1600     130.4648
    968.9588      13.2140       0.0100     100.1134      32.0890       0.8760       0.3923       2.1600     130.7810
    969.1112      13.2470       0.0120     118.1690      30.6319       0.8605       0.3758       2.1730     131.0604
    969.2636      13.2800       0.0140     137.9305      29.1770       0.8450       0.3608       2.1860     131.3400
    969.4160      13.4707       0.0135     157.6140      29.3727       0.8460       0.3597       2.1770     131.3965
    969.5684      13.6610       0.0130     156.8325      29.5680       0.8470       0.3607       2.1680     131.4530
    969.7208      13.9429       0.0100     156.0540      29.3953       0.8545       0.3596       2.1695     131.3950
    969.8732      14.2240       0.0070     153.4652      29.2230       0.8620       0.3565       2.1710     131.3370
    970.0256      14.2736       0.0095     150.8860      28.6554       0.8585       0.3459       2.1875     130.6859
    970.1780      14.3230       0.0120     149.7770      28.0890       0.8550       0.3356       2.2040     130.0340
    970.3304      14.6314       0.0120     148.6720      27.5450       0.8295       0.3351       2.1950     130.0735
    970.4828      14.9390       0.0120     149.5881      27.0020       0.8040       0.3373       2.1860     130.1130
    970.6352      14.9290       0.0110     150.5010      27.2948       0.8040       0.3438       2.1494     130.2829
    970.7876      14.9190       0.0100     154.1543      27.5870       0.8040       0.3521       2.1130     130.4530
    970.9400      14.8504       0.0090     157.7940      28.8650       0.7990       0.3650       2.1386     130.6234
    971.0924      14.7820       0.0080     157.1106      30.1410       0.7940       0.3784       2.1640     130.7940
    971.2448      14.8606       0.0080     156.4300      31.3747       0.7720       0.3898       2.1610     131.1433
    971.3972      14.9390       0.0080     152.2905      32.6060       0.7500       0.3996       2.1580     131.4930
    971.5496      15.4622       0.0120     148.1670      32.7772       0.7245       0.4025       2.1189     131.4795
    971.7020      15.9840       0.0160     153.6728      32.9480       0.6990       0.4049       2.0800     131.4660
    971.8544      15.9695       0.0130     159.1580      33.8079       0.7030       0.4112       2.0845     131.2376
    972.0068      15.9550       0.0100     159.0598      34.6660       0.7070       0.4171       2.0890     131.0090
    972.1592      15.7037       0.0160     158.9620      34.4703       0.6970       0.4165       2.1040     130.1775
    972.3116      15.4530       0.0220     158.5793      34.2750       0.6870       0.4140       2.1190     129.3450
    972.4640      15.6402       0.0205     158.1980      33.5814       0.6875       0.4078       2.1290     129.4529
    972.6164      15.8270       0.0190     157.5713      32.8890       0.6880       0.3999       2.1390     129.5610
    972.7688      15.3439       0.0085     156.9470      32.9626       0.6905       0.3867       2.1385     130.7283
    972.9212      14.8620      -0.0020     154.7030      33.0360       0.6930       0.3746       2.1380     131.8970
    973.0736      14.8620      -0.0015     152.4680      33.5509       0.7015       0.3752       2.1119     131.8390
    973.2260      14.8620      -0.0010     155.4173      34.0650       0.7100       0.3774       2.0860     131.7810
    973.3784      15.0002       0.0005     158.3550      33.9669       0.7290       0.3761       2.0910     131.5486
    973.5308      15.1380       0.0020     158.2448      33.8690       0.7480       0.3714       2.0960     131.3160
    973.6832      15.1040       0.0030     158.1350      33.4736       0.7720       0.3504       2.1496     131.0956
    973.8356      15.0700       0.0040     156.2656      33.0790       0.7960       0.3297       2.2030     130.8750
    973.9880      14.7691       0.0075     154.4030      32.4644       0.8165       0.3267       2.2015     130.5532
