#------------------------------------------------------------------------------
#
#   Created by  : [OpenWorks] Log Export Utility (LEXP)
#   Created on  : 2016-05-12 17:01:20
#   Project     : CANT971
#   User        : R5K
#   Interpreter : PEP
#
#------------------------------------------------------------------------------
~VERSION INFORMATION
VERS. 2.0 : CWLS Log ASCII Standard - version 2.0
WRAP.  NO : One line per depth step
~WELL INFORMATION
#MNEMONIC   .UNIT                                           VALUE :DESCRIPTION
#------------------------------------------------------------------------------
STRT        .M                                           993.9530 :START DEPTH
STOP        .M                                          2371.9539 :STOP DEPTH
STEP        .M                                             0.1524 :STEP
NULL        .                                           -999.2500 :NULL VALUE
COMP        .                                   PEMEX EXPL & PROD :COMPANY
WELL        .                                                  55 :WELL
FLD         .                                           CANTARELL :FIELD
LOC         .                                             UNKNOWN :LOCATION
CNTY        .                                      CD. DEL CARMEN :COUNTY
STAT        .                                            CAMPECHE :STATE
CTRY        .                                              MEXICO :COUNTRY
SRVC        .                                             UNKNOWN :SERVICE COMPANY
DATE        .                                             UNKNOWN :LOG DATE
UWI         .                                          3060000168 :UNIQUE WELL ID
XCOORD      .                                       602149.520000 :SURFACE X
YCOORD      .                                      2147170.290000 :SURFACE Y
LAT         .                                           19.417375 :LATITUDE
LON         .                                          -92.027057 :LONGITUDE
ELEV        .M                                            28.1700 :SURFACE ELEV
ELEV_TYPE   .                                                  KB :ELEV TYPE
~CURVE INFORMATION
#MNEMONIC.UNIT        API CODE       : CURVE DESCRIPTION
#------------------------------------------------------------------------------
DEPTH    .M                          : Measured Depth
CALI     .inches      UNKNOWN        : CALI:CALI-Load:rC:NONE:v0 (auto-composite)
DRHO     .UNKNOWN     UNKNOWN        : DRHO:DRHO-Load:rC:NONE:v0 (auto-composite)
DT       .us/ft       UNKNOWN        : DT:DT:rC:NONE:v0 (auto-composite)
GR       .UNKNOWN     UNKNOWN        : GR:GR-Load:rC:NONE:v0 (auto-composite)
ILD      .UNKNOWN     UNKNOWN        : ILD:ILD-Load:rC:NONE:v0 (auto-composite)
LLD      .UNKNOWN     UNKNOWN        : LLD:LLD-Load:rC:NONE:v0 (auto-composite)
LLS      .UNKNOWN     UNKNOWN        : LLS:LLS-Load:rC:NONE:v0 (auto-composite)
MSFL     .UNKNOWN     UNKNOWN        : MSFL:MSFL-Load:rC:NONE:v0 (auto-composite)
NPHI     .v/v_decimal UNKNOWN        : NPHI:NPHI:rC:NONE:v0 (auto-composite)
RHOB     .UNKNOWN     UNKNOWN        : RHOB:RHOB-Load:rC:NONE:v0 (auto-composite)
SP       .UNKNOWN     UNKNOWN        : SP:SP-Load:rC:NONE:v0 (auto-composite)
~A     DEPTH         CALI         DRHO           DT           GR          ILD          LLD          LLS         MSFL         NPHI         RHOB           SP
# ...
   1952.8538       5.0800      -0.0090      83.6600      21.1330    -999.2500     404.7690      76.6530     145.7500      19.2100       2.4500     -20.8830
   1953.0062       5.0800      -0.0005      71.8415      23.5008    -999.2500     296.7801      55.6066      96.6308      17.8462       2.5373     -21.7219
   1953.1586       5.0800       0.0080      60.0100      25.8750    -999.2500     188.7590      34.5540      47.4970      16.4830       2.6250     -22.5630
   1953.3110       5.0950       0.0150      60.1994      24.4355    -999.2500     190.3678      34.9161      38.2898      14.9517       2.6724     -22.7407
   1953.4634       5.1100       0.0220      60.3890      22.9920    -999.2500     191.9760      35.2780      29.0860      13.4210       2.7200     -22.9190
   1953.6158       5.1100       0.0220      61.8050      23.0764    -999.2500     204.8261      38.2034      29.4370      10.8777       2.7200     -24.0408
   1953.7682       5.1100       0.0220      63.2230      23.1610    -999.2500     217.6730      41.1280      29.7880       8.3350       2.7200     -25.1660
   1953.9207       5.0950       0.0210      64.9109      28.5567    -999.2500     228.1072      42.5006      83.1944       7.5525       2.7150     -25.9608
   1954.0730       5.0800       0.0200      66.6000      33.9690    -999.2500     238.5400      43.8730     136.5940       6.7700       2.7100     -26.7580
   1954.2255       5.0950       0.0220      67.5950      32.1739    -999.2500     207.2245      38.6785     142.2345       7.3645       2.6965     -26.8598
   1954.3778       5.1100       0.0240      68.5900      30.3730    -999.2500     175.9090      33.4840     147.8750       7.9590       2.6830     -26.9620
   1954.5302       5.0950       0.0290      68.4910      25.3384    -999.2500     171.8727      32.2436      84.3789       9.1994       2.6680     -27.8820
   1954.6826       5.0800       0.0340      68.3920      20.2870    -999.2500     167.8360      31.0030      20.8750      10.4400       2.6530     -28.8050
   1954.8350       5.0950       0.0215      67.7326      18.2807    -999.2500     186.4852      32.8503      23.5702      10.0149       2.6365     -28.2627
   1954.9874       5.1100       0.0090      67.0730      16.2690    -999.2500     205.1390      34.6980      26.2660       9.5900       2.6200     -27.7190
   1955.1398       5.0950       0.0100      65.4868      15.1027    -999.2500     223.2271      34.2191      18.7319       9.6400       2.6380     -28.4523
   1955.2922       5.0800       0.0110      63.9000      13.9340    -999.2500     241.3220      33.7400      11.1950       9.6900       2.6560     -29.1870
   1955.4446       5.0800       0.0359      66.7093      14.0853    -999.2500     270.7636      33.8655      14.2372       9.9596       2.6929     -28.9617
   1955.5970       5.0800       0.0610      69.5200      14.2370    -999.2500     300.2200      33.9910      17.2810      10.2290       2.7300     -28.7360
   1955.7494       5.0780       0.0600      69.4965      14.9832    -999.2500     299.2293      33.9080      17.0916      10.5877       2.7260     -28.7839
   1955.9019       5.0760       0.0590      69.4730      15.7310    -999.2500     298.2380      33.8250      16.9020      10.9460       2.7220     -28.8320
   1956.0542       5.0530       0.0475      69.1816      16.4272    -999.2500     286.6024      32.8404      14.8853      11.4732       2.6761     -29.1421
   1956.2065       5.0300       0.0360      68.8900      17.1250    -999.2500     274.9580      31.8550      12.8670      12.0000       2.6300     -29.4530
   1956.3590       5.0445       0.0345      68.1903      16.3235    -999.2500     277.8927      31.8610      27.7939      12.3481       2.5951     -29.1254
   1956.5114       5.0590       0.0330      67.4900      15.5200    -999.2500     280.8300      31.8670      42.7340      12.6960       2.5600     -28.7970
   1956.6638       5.0595       0.0280      70.2846      16.2256    -999.2500     254.3718      28.5976      31.8040      13.9614       2.5600     -29.5965
   1956.8162       5.0600       0.0230      73.0820      16.9330    -999.2500     227.8870      25.3250      20.8630      15.2260       2.5600     -30.3980
   1956.9686       5.0450       0.0270      73.2759      18.5578    -999.2500     214.4307      23.9337      16.9406      15.3880       2.5600     -29.3764
   1957.1210       5.0300       0.0310      73.4700      20.1870    -999.2500     200.9700      22.5420      13.0170      15.5500       2.5600     -28.3520
   1957.2734       5.0300       0.0370      72.7809      19.2688    -999.2500     220.7174      23.6397      11.1272      15.1649       2.5675     -28.7964
   1957.4258       5.0300       0.0430      72.0910      18.3480    -999.2500     240.4580      24.7370       9.2380      14.7800       2.5750     -29.2420
   1957.5782       5.0300       0.0490      70.8688      17.5447    -999.2500     275.2033      27.1053      11.8668      14.1149       2.5920     -28.6464
   1957.7306       5.0300       0.0550      69.6450      16.7390    -999.2500     309.9410      29.4730      14.4950      13.4500       2.6090     -28.0490
   1957.8831       5.0550       0.0480      68.9327      16.4884    -999.2500     420.3388      37.1749      24.2680      12.8250       2.6195     -27.1858
   1958.0354       5.0800       0.0410      68.2200      16.2370    -999.2500     530.7260      44.8760      34.0400      12.2000       2.6300     -26.3200
   1958.1877       5.0550       0.0340      68.7700      14.4883    -999.2500     613.4828      47.3255      69.3165      12.5800       2.6051     -27.1801
   1958.3402       5.0300       0.0270      69.3200      12.7340    -999.2500     696.2420      49.7750     104.5940      12.9600       2.5800     -28.0430
   1958.4926       5.0550       0.0315      69.7450      12.7445    -999.2500     676.9235      45.9958      69.8347      12.9125       2.5800     -28.7902
   1958.6450       5.0800       0.0360      70.1700      12.7550    -999.2500     657.6020      42.2160      35.0700      12.8650       2.5800     -29.5400
   1958.7974       5.0550       0.0360      70.1185      13.0456    -999.2500     707.7910      42.3820      35.5149      12.6369       2.5850     -30.0348
   1958.9498       5.0300       0.0360      70.0670      13.3370    -999.2500     757.9940      42.5480      35.9600      12.4090       2.5900     -30.5310
   1959.1022       5.0300       0.0355      68.2439      13.3580    -999.2500     836.1796      47.2150      61.4473      11.6791       2.5950     -32.0375
   1959.2546       5.0300       0.0350      66.4200      13.3790    -999.2500     914.3970      51.8840      86.9450      10.9500       2.6000     -33.5470
   1959.4070       5.0300       0.0280      63.9207      13.5633    -999.2500    1094.6285      69.2639      63.7207       9.9795       2.6150     -33.4921
   1959.5594       5.0300       0.0210      61.4200      13.7480    -999.2500    1274.9561      86.6530      40.4840       9.0100       2.6300     -33.4370
   1959.7118       5.0300       0.0220      63.5128      15.2603    -999.2500    1338.1233      86.3896      60.1420       9.3302       2.6260     -34.4828
   1959.8643       5.0300       0.0230      65.6070      16.7760    -999.2500    1401.3320      86.1260      79.8130       9.6500       2.6220     -35.5310
   1960.0166       5.0440       0.0305      67.0129      17.6265    -999.2500    1247.6947      77.9282      76.5248      10.2402       2.6110     -35.2973
   1960.1689       5.0580       0.0380      68.4200      18.4790    -999.2500    1093.9370      69.7240      73.2340      10.8300       2.6000     -35.0630
   1960.3214       5.0690       0.0365      65.8961      19.0203    -999.2500    1015.8845      72.0934      89.0318      10.3568       2.6065     -34.1731
   1960.4738       5.0800       0.0350      63.3700      19.5630    -999.2500     937.7610      74.4650     104.8440       9.8840       2.6130     -33.2810
   1960.6262       5.0550       0.0440      63.5249      19.1376    -999.2500     908.3632      74.3201     103.6006       9.2738       2.6285     -33.8273
