#------------------------------------------------------------------------------
#
#   Created by  : [OpenWorks] Log Export Utility (LEXP)
#   Created on  : 2015-10-01 09:49:56
#   Project     : CANT971
#   User        : R5K
#   Interpreter : PEP
#
#------------------------------------------------------------------------------
~VERSION INFORMATION
VERS. 2.0 : CWLS Log ASCII Standard - version 2.0
WRAP.  NO : One line per depth step
~WELL INFORMATION
#MNEMONIC   .UNIT                                           VALUE :DESCRIPTION
#------------------------------------------------------------------------------
STRT        .M                                           799.8710 :START DEPTH
STOP        .M                                          1367.5610 :STOP DEPTH
STEP        .M                                             0.1524 :STEP
NULL        .                                           -999.2500 :NULL VALUE
COMP        .                                   PEMEX EXPL & PROD :COMPANY
WELL        .                                        CANTARELL-1A :WELL
FLD         .                                           CANTARELL :FIELD
LOC         .                                             UNKNOWN :LOCATION
CNTY        .                                      CD. DEL CARMEN :COUNTY
STAT        .                                            CAMPECHE :STATE
CTRY        .                                              MEXICO :COUNTRY
SRVC        .                                             UNKNOWN :SERVICE COMPANY
DATE        .                                             UNKNOWN :LOG DATE
UWI         .                                          3060000138 :UNIQUE WELL ID
XCOORD      .                                       600823.080000 :SURFACE X
YCOORD      .                                      2145118.550000 :SURFACE Y
LAT         .                                           19.398902 :LATITUDE
LON         .                                          -92.039798 :LONGITUDE
ELEV        .M                                            27.7000 :SURFACE ELEV
ELEV_TYPE   .                                                  KB :ELEV TYPE
~CURVE INFORMATION
#MNEMONIC.UNIT        API CODE       : CURVE DESCRIPTION
#------------------------------------------------------------------------------
DEPTH    .M                          : Measured Depth
CALI     .inches      UNKNOWN        : CALI:UNKNOWN:rC:NONE:v0 (auto-composite)
DRHO     .g/cm3       UNKNOWN        : DRHO:UNKNOWN:rC:NONE:v0 (auto-composite)
DT       .us/ft       UNKNOWN        : DT:DT:rC:NONE:v0 (auto-composite)
ILD      .ohm.m       UNKNOWN        : ILD:UNKNOWN:rC:NONE:v0 (auto-composite)
LLD      .ohm.m       UNKNOWN        : LLD:UNKNOWN:rC:NONE:v0 (auto-composite)
LLS      .ohm.m       UNKNOWN        : LLS:UNKNOWN:rC:NONE:v0 (auto-composite)
MSFL     .ohm.m       UNKNOWN        : MSFL:UNKNOWN:rC:NONE:v0 (auto-composite)
NPHI     .v/v_decimal UNKNOWN        : NPHI:NPHI:rC:NONE:v0 (auto-composite)
GR       .API         UNKNOWN        : RG:UNKNOWN:rC:NONE:v0 (auto-composite)
RHOB     .g/cm3       UNKNOWN        : RHOB:UNKNOWN:rC:NONE:v0 (auto-composite)
~A     DEPTH         CALI         DRHO           DT          ILD          LLD          LLS         MSFL         NPHI           GR         RHOB
# ...
   1090.0406      16.4241       0.0267    -999.2500       1.2234       0.2000       0.2000       0.2000      36.2838      27.4340       2.4034
   1090.1930      16.4442       0.0217    -999.2500       1.2164       0.2000       0.2000       0.2000      36.4498      28.0246       2.3949
   1090.3455      16.4183       0.0256    -999.2500       1.2170       0.2000       0.2000       0.2000      37.2937      27.9654       2.4046
   1090.4978      16.3687       0.0341    -999.2500       1.2215       0.2000       0.2000       0.2000      38.8187      27.5700       2.4236
   1090.6503      16.3327       0.0367    -999.2500       1.2143       0.2000       0.2000       0.2000      39.2765      27.3049       2.4290
   1090.8026      16.3036       0.0362    -999.2500       1.2013       0.2000       0.2000       0.2000      38.6620      27.1058       2.4275
   1090.9551      16.2410       0.0300    -999.2500       1.1658       0.2000       0.2000       0.2000      38.3557      27.5018       2.4200
   1091.1074      16.1618       0.0209    -999.2500       1.1192       0.2000       0.2000       0.2000      38.3592      28.1917       2.4094
   1091.2599      16.1228       0.0227    -999.2500       1.0692       0.2000       0.2000       0.2000      38.3717      28.6149       2.4094
   1091.4122      16.1033       0.0298    -999.2500       1.0175       0.2000       0.2000       0.2000      38.3932      28.9096       2.4144
   1091.5646      16.1106       0.0337    -999.2500       0.9945       0.2000       0.2000       0.2000      38.1899      29.4057       2.4085
   1091.7170      16.1307       0.0362    -999.2500       0.9850       0.2000       0.2000       0.2000      37.7604      29.9969       2.3975
   1091.8694      16.1370       0.0363    -999.2500       0.9954       0.2000       0.2000       0.2000      36.9533      30.1143       2.3854
   1092.0219      16.1370       0.0353    -999.2500       1.0149       0.2000       0.2000       0.2000      35.7663      30.0141       2.3729
   1092.1742      16.1100       0.0326    -999.2500       1.0383       0.2000       0.2000       0.2000      34.8652      29.5056       2.3790
   1092.3267      16.0709       0.0291    -999.2500       1.0634       0.2000       0.2000       0.2000      34.2517      28.8137       2.3936
   1092.4790      16.0656       0.0242    -999.2500       1.0881       0.2000       0.2000       0.2000      33.4337      28.6706       2.4053
   1092.6315      16.0752       0.0186    -999.2500       1.1127       0.2000       0.2000       0.2000      32.4098      28.7679       2.4159
   1092.7838      16.0228       0.0181    -999.2500       1.1063       0.2000       0.2000       0.2000      32.1353      28.6579       2.4151
   1092.9363      15.9442       0.0196    -999.2500       1.0868       0.2000       0.2000       0.2000      32.6128      28.4594       2.4096
   1093.0886      15.9210       0.0172    -999.2500       1.0739       0.2000       0.2000       0.2000      33.5564      28.1218       2.4023
   1093.2411      15.9210       0.0132    -999.2500       1.0639       0.2000       0.2000       0.2000      34.9679      27.7262       2.3943
   1093.3934      15.9281       0.0145    -999.2500       1.1031       0.2000       0.2000       0.2000      36.2419      27.7514       2.3877
   1093.5458      15.9382       0.0180    -999.2500       1.1622       0.2000       0.2000       0.2000      37.3778      27.9475       2.3817
   1093.6982      15.9058       0.0230    -999.2500       1.2613       0.2000       0.2000       0.2000      37.6883      27.4364       2.3904
   1093.8506      15.8567       0.0285    -999.2500       1.3760       0.2000       0.2000       0.2000      37.1698      26.6461       2.4050
   1094.0031      15.7790       0.0304    -999.2500       1.4594       0.2000       0.2000       0.2000      36.9811      25.3566       2.4293
   1094.1554      15.6902       0.0309    -999.2500       1.5306       0.2000       0.2000       0.2000      37.1236      23.8745       2.4573
   1094.3079      15.7090       0.0281    -999.2500       1.5857       0.2000       0.2000       0.2000      37.4958      23.8284       2.4650
   1094.4602      15.7682       0.0241    -999.2500       1.6349       0.2000       0.2000       0.2000      38.0988      24.3212       2.4650
   1094.6127      15.7697       0.0234    -999.2500       1.6498       0.2000       0.2000       0.2000      37.9496      25.8976       2.4441
   1094.7650      15.7501       0.0239    -999.2500       1.6523       0.2000       0.2000       0.2000      37.0447      27.8692       2.4155
   1094.9175      15.7232       0.0244    -999.2500       1.5698       0.2000       0.2000       0.2000      35.5976      29.1139       2.4006
   1095.0698      15.6936       0.0249    -999.2500       1.4570       0.2000       0.2000       0.2000      33.6057      30.0996       2.3906
   1095.2223      15.7154       0.0246    -999.2500       1.3580       0.2000       0.2000       0.2000      32.7379      29.7658       2.3820
   1095.3746      15.7550       0.0241    -999.2500       1.2638       0.2000       0.2000       0.2000      33.0004      28.9754       2.3740
   1095.5270      15.8171       0.0225    -999.2500       1.2093       0.2000       0.2000       0.2000      33.8013      28.4060       2.3772
   1095.6794      15.8868       0.0205    -999.2500       1.1681       0.2000       0.2000       0.2000      35.1438      27.9111       2.3843
   1095.8318      15.9116       0.0185    -999.2500       1.1618       0.2000       0.2000       0.2000      35.6575      28.0114       2.3841
   1095.9843      15.9216       0.0165    -999.2500       1.1668       0.2000       0.2000       0.2000      35.3375      28.3068       2.3816
   1096.1366      15.9312       0.0171    -999.2500       1.1733       0.2000       0.2000       0.2000      33.9484      28.0772       2.3738
   1096.2891      15.9407       0.0186    -999.2500       1.1803       0.2000       0.2000       0.2000      31.4834      27.6808       2.3643
   1096.4414      15.9962       0.0182    -999.2500       1.1663       0.2000       0.2000       0.2000      30.3674      27.2095       2.3674
   1096.5939      16.0659       0.0172    -999.2500       1.1457       0.2000       0.2000       0.2000      30.6090      26.7152       2.3744
   1096.7462      16.1125       0.0151    -999.2500       1.1460       0.2000       0.2000       0.2000      31.1939      27.1312       2.3791
   1096.8987      16.1521       0.0126    -999.2500       1.1525       0.2000       0.2000       0.2000      32.1234      27.8206       2.3831
   1097.0510      16.1761       0.0132    -999.2500       1.1816       0.2000       0.2000       0.2000      33.1140      28.2043       2.3817
   1097.2035      16.1957       0.0147    -999.2500       1.2171       0.2000       0.2000       0.2000      34.1660      28.4990       2.3787
   1097.3558      16.2309       0.0146    -999.2500       1.2344       0.2000       0.2000       0.2000      34.8976      28.2549       2.3757
   1097.5082      16.2705       0.0141    -999.2500       1.2464       0.2000       0.2000       0.2000      35.3076      27.8583       2.3726
   1097.6606      16.3101       0.0168    -999.2500       1.2577       0.2000       0.2000       0.2000      35.0954      27.3851       2.3799
   1097.8130      16.3497       0.0203    -999.2500       1.2687       0.2000       0.2000       0.2000      34.2584      26.8910       2.3899
   1097.9655      16.3818       0.0210    -999.2500       1.2849       0.2000       0.2000       0.2000      33.9889      26.8638       2.3960
   1098.1178      16.4118       0.0210    -999.2500       1.3024       0.2000       0.2000       0.2000      34.2894      26.9611       2.4010
   1098.2703      16.4180       0.0306    -999.2500       1.2877       0.2000       0.2000       0.2000      34.8158      26.5879       2.4175
   1098.4226      16.4180       0.0426    -999.2500       1.2646       0.2000       0.2000       0.2000      35.5693      26.0935       2.4371
