#------------------------------------------------------------------------------
#
#   Created by  : [OpenWorks] Log Export Utility (LEXP)
#   Created on  : 2016-05-23 11:52:56
#   Project     : CANT971
#   User        : R5K
#   Interpreter : PEP
#
#------------------------------------------------------------------------------
~VERSION INFORMATION
VERS. 2.0 : CWLS Log ASCII Standard - version 2.0
WRAP.  NO : One line per depth step
~WELL INFORMATION
#MNEMONIC   .UNIT                                           VALUE :DESCRIPTION
#------------------------------------------------------------------------------
STRT        .M                                           340.6189 :START DEPTH
STOP        .M                                          3243.0769 :STOP DEPTH
STEP        .M                                             0.1524 :STEP
NULL        .                                           -999.2500 :NULL VALUE
COMP        .                                   PEMEX EXPL & PROD :COMPANY
WELL        .                                                2098 :WELL
FLD         .                                           CANTARELL :FIELD
LOC         .                                             UNKNOWN :LOCATION
CNTY        .                                      CD. DEL CARMEN :COUNTY
STAT        .                                            CAMPECHE :STATE
CTRY        .                                              MEXICO :COUNTRY
SRVC        .                                             UNKNOWN :SERVICE COMPANY
DATE        .                                             UNKNOWN :LOG DATE
UWI         .                                          3060000229 :UNIQUE WELL ID
XCOORD      .                                       599692.800000 :SURFACE X
YCOORD      .                                      2143031.510000 :SURFACE Y
LAT         .                                           19.380099 :LATITUDE
LON         .                                          -92.050671 :LONGITUDE
ELEV        .M                                            26.7400 :SURFACE ELEV
ELEV_TYPE   .                                                  KB :ELEV TYPE
~CURVE INFORMATION
#MNEMONIC.UNIT        API CODE       : CURVE DESCRIPTION
#------------------------------------------------------------------------------
DEPTH    .M                          : Measured Depth
CALI     .inches      UNKNOWN        : CALI:litodensidad:rC:NONE:v0 (auto-composite)
CGR      .API         UNKNOWN        : CGR:Espectrometria:rC:NONE:v0 (auto-composite)
DRHO     .g/cm3       UNKNOWN        : DRHO:litodensidad:rC:NONE:v0 (auto-composite)
DT       .us/ft       UNKNOWN        : DT:DT-Load:rC:NONE:v0 (auto-composite)
GR       .API         UNKNOWN        : GR:GR-load:rC:NONE:v0 (auto-composite)
ILD      .UNKNOWN     UNKNOWN        : ILD:resistivos:rC:NONE:v0 (auto-composite)
LLD      .ohm.m       UNKNOWN        : LLD:resistivos:rC:NONE:v0 (auto-composite)
LLS      .UNKNOWN     UNKNOWN        : LLS:resistivos:rC:NONE:v0 (auto-composite)
MSFL     .UNKNOWN     UNKNOWN        : MSFL:resistivos:rC:NONE:v0 (auto-composite)
NPHI     .v/v_decimal UNKNOWN        : NPHI:porosidad:rC:NONE:v0 (auto-composite)
PEF      .UNKNOWN     UNKNOWN        : PEF:litodensidad:rC:NONE:v0 (auto-composite)
POTA     .UNKNOWN     UNKNOWN        : POTA:Espectrometria:rC:NONE:v0 (auto-composite)
RHOB     .UNKNOWN     UNKNOWN        : RHOB:litodensidad:rC:NONE:v0 (auto-composite)
THOR     .ppm         UNKNOWN        : THOR:Espectrometria:rC:NONE:v0 (auto-composite)
URAN     .ppm         UNKNOWN        : URAN:Espectrometria:rC:NONE:v0 (auto-composite)
~A     DEPTH         CALI          CGR         DRHO           DT           GR          ILD          LLD          LLS         MSFL         NPHI          PEF         POTA         RHOB         THOR         URAN
# ...
   2682.3972       8.9379    -999.2500       0.0461      58.6198      34.4723    -999.2500      53.3891      61.5563      94.1263       0.0963    -999.2500    -999.2500       2.6503    -999.2500    -999.2500
   2682.5496       8.9513    -999.2500       0.0340      58.4425      34.8302    -999.2500      53.6825      61.6346     100.0848       0.0940    -999.2500    -999.2500       2.6590    -999.2500    -999.2500
   2682.7021       8.9613    -999.2500       0.0340      57.3621      35.3844    -999.2500      55.3366      62.1128      99.4776       0.0956    -999.2500    -999.2500       2.6580    -999.2500    -999.2500
   2682.8545       8.9710    -999.2500       0.0341      56.3184      35.9336    -999.2500      57.2666      62.8672      99.2084       0.0971    -999.2500    -999.2500       2.6566    -999.2500    -999.2500
   2683.0068       8.9710    -999.2500       0.0361      56.3949      36.3172    -999.2500      66.6991      71.1327     108.5439       0.0971    -999.2500    -999.2500       2.6451    -999.2500    -999.2500
   2683.1592       8.9710    -999.2500       0.0380      56.4848      36.7068    -999.2500      75.7933      79.1087     116.7840       0.0971    -999.2500    -999.2500       2.6340    -999.2500    -999.2500
   2683.3118       8.9705    -999.2500       0.0380      56.9949      37.2841    -999.2500      75.4552      79.0142      93.0672       0.0977    -999.2500    -999.2500       2.6350    -999.2500    -999.2500
   2683.4641       8.9694    -999.2500       0.0380      57.4850      37.8823    -999.2500      75.0392      78.8633      70.1567       0.0983    -999.2500    -999.2500       2.6359    -999.2500    -999.2500
   2683.6165       8.9443    -999.2500       0.0365      57.3586      39.1573    -999.2500      72.5003      77.1740      70.2377       0.1006    -999.2500    -999.2500       2.6334    -999.2500    -999.2500
   2683.7688       8.9201    -999.2500       0.0348      57.2461      40.4320    -999.2500      69.7930      75.3768      70.4433       0.1029    -999.2500    -999.2500       2.6307    -999.2500    -999.2500
   2683.9214       8.9226    -999.2500       0.0298      57.5747      41.7000    -999.2500      62.3733      70.5585      74.2972       0.1054    -999.2500    -999.2500       2.6197    -999.2500    -999.2500
   2684.0737       8.9256    -999.2500       0.0247      57.9420      42.9621    -999.2500      55.2332      65.8135      80.5723       0.1079    -999.2500    -999.2500       2.6085    -999.2500    -999.2500
   2684.2261       8.9486    -999.2500       0.0142      59.4961      44.0345    -999.2500      55.7505      63.0757     156.1358       0.1094    -999.2500    -999.2500       2.5935    -999.2500    -999.2500
   2684.3784       8.9710    -999.2500       0.0041      60.9951      45.0691    -999.2500      56.1672      60.3801     228.4354       0.1108    -999.2500    -999.2500       2.5782    -999.2500    -999.2500
   2684.5308       8.9705    -999.2500       0.0076      60.8447      44.9076    -999.2500      53.7588      58.8721     204.8021       0.1123    -999.2500    -999.2500       2.5517    -999.2500    -999.2500
   2684.6833       8.9694    -999.2500       0.0110      60.6808      44.7277    -999.2500      51.4429      57.4539     179.8166       0.1137    -999.2500    -999.2500       2.5260    -999.2500    -999.2500
   2684.8357       8.9469    -999.2500       0.0095      60.0995      43.9459    -999.2500      51.6664      58.5048     115.9935       0.1129    -999.2500    -999.2500       2.5275    -999.2500    -999.2500
   2684.9880       8.9251    -999.2500       0.0081      59.5208      43.1539    -999.2500      51.8583      59.5130      54.2748       0.1119    -999.2500    -999.2500       2.5294    -999.2500    -999.2500
   2685.1404       8.9296    -999.2500       0.0121      59.0155      42.0385    -999.2500      51.1981      59.3736      54.6355       0.1059    -999.2500    -999.2500       2.5419    -999.2500    -999.2500
   2685.2930       8.9345    -999.2500       0.0160      58.4914      40.9646    -999.2500      50.4436      59.1810      55.0432       0.1001    -999.2500    -999.2500       2.5546    -999.2500    -999.2500
   2685.4453       8.9525    -999.2500       0.0155      57.3855      41.1760    -999.2500      47.0893      57.5244      56.8094       0.1005    -999.2500    -999.2500       2.5751    -999.2500    -999.2500
   2685.5977       8.9696    -999.2500       0.0150      56.3179      41.4286    -999.2500      43.6886      55.7685      58.6488       0.1008    -999.2500    -999.2500       2.5955    -999.2500    -999.2500
   2685.7500       8.9561    -999.2500       0.0150      56.4094      42.9942    -999.2500      39.0336      51.3344      62.5526       0.0979    -999.2500    -999.2500       2.6125    -999.2500    -999.2500
   2685.9026       8.9436    -999.2500       0.0150      56.5433      44.5048    -999.2500      34.3043      46.7354      66.8101       0.0951    -999.2500    -999.2500       2.6289    -999.2500    -999.2500
   2686.0549       8.9656    -999.2500       0.0155      57.9974      44.3074    -999.2500      27.5203      37.5750      81.3005       0.0953    -999.2500    -999.2500       2.6269    -999.2500    -999.2500
   2686.2073       8.9869    -999.2500       0.0161      59.4043      44.0886    -999.2500      21.0000      28.7555      94.9631       0.0956    -999.2500    -999.2500       2.6245    -999.2500    -999.2500
   2686.3596       8.9844    -999.2500       0.0186      59.3808      43.1832    -999.2500      21.6167      29.1634      85.2168       0.0968    -999.2500    -999.2500       2.6070    -999.2500    -999.2500
   2686.5120       8.9811    -999.2500       0.0212      59.3526      42.2657    -999.2500      22.3740      29.7009      76.0672       0.0980    -999.2500    -999.2500       2.5900    -999.2500    -999.2500
   2686.6646       8.9471    -999.2500       0.0267      59.1790      40.9693    -999.2500      27.0322      33.8405      84.2438       0.1007    -999.2500    -999.2500       2.5915    -999.2500    -999.2500
   2686.8169       8.9140    -999.2500       0.0322      58.9931      39.7125    -999.2500      32.1377      38.6456      91.9414       0.1033    -999.2500    -999.2500       2.5933    -999.2500    -999.2500
   2686.9692       8.9140    -999.2500       0.0372      58.4304      39.7290    -999.2500      49.3903      61.5273      86.0479       0.1029    -999.2500    -999.2500       2.6038    -999.2500    -999.2500
   2687.1216       8.9140    -999.2500       0.0415      57.8880      39.7516    -999.2500      66.0236      83.5605      80.3645       0.1024    -999.2500    -999.2500       2.6139    -999.2500    -999.2500
   2687.2742       8.9125    -999.2500       0.0265      57.9861      39.9640    -999.2500      65.4064      81.9599      80.8022       0.1006    -999.2500    -999.2500       2.6099    -999.2500    -999.2500
   2687.4265       8.9103    -999.2500       0.0120      58.1115      40.1648    -999.2500      64.7104      80.2042      81.6050       0.0988    -999.2500    -999.2500       2.6061    -999.2500    -999.2500
   2687.5789       8.8832    -999.2500       0.0130      59.0756      39.9907    -999.2500      61.8671      74.2197      92.8097       0.0966    -999.2500    -999.2500       2.6081    -999.2500    -999.2500
   2687.7312       8.8572    -999.2500       0.0143      60.0096      39.8326    -999.2500      59.1268      68.4500     103.4284       0.0943    -999.2500    -999.2500       2.6103    -999.2500    -999.2500
   2687.8835       8.8637    -999.2500       0.0233      59.9976      40.1754    -999.2500      59.2648      68.6816      96.9054       0.0913    -999.2500    -999.2500       2.6193    -999.2500    -999.2500
   2688.0361       8.8708    -999.2500       0.0319      59.9772      40.5035    -999.2500      59.4323      69.0581      91.6517       0.0883    -999.2500    -999.2500       2.6283    -999.2500    -999.2500
   2688.1885       8.9019    -999.2500       0.0284      59.6971      40.3529    -999.2500      60.4049      73.3977     122.6784       0.0845    -999.2500    -999.2500       2.6393    -999.2500    -999.2500
