#------------------------------------------------------------------------------
#
#   Created by  : [OpenWorks] Log Export Utility (LEXP)
#   Created on  : 2016-05-23 11:55:51
#   Project     : CANT971
#   User        : R5K
#   Interpreter : PEP
#
#------------------------------------------------------------------------------
~VERSION INFORMATION
VERS. 2.0 : CWLS Log ASCII Standard - version 2.0
WRAP.  NO : One line per depth step
~WELL INFORMATION
#MNEMONIC   .UNIT                                           VALUE :DESCRIPTION
#------------------------------------------------------------------------------
STRT        .M                                           490.1183 :START DEPTH
STOP        .M                                          2794.5586 :STOP DEPTH
STEP        .M                                             0.1524 :STEP
NULL        .                                           -999.2500 :NULL VALUE
COMP        .                                   PEMEX EXPL & PROD :COMPANY
WELL        .                                                  41 :WELL
FLD         .                                           CANTARELL :FIELD
LOC         .                                             UNKNOWN :LOCATION
CNTY        .                                      CD. DEL CARMEN :COUNTY
STAT        .                                            CAMPECHE :STATE
CTRY        .                                              MEXICO :COUNTRY
SRVC        .                                             UNKNOWN :SERVICE COMPANY
DATE        .                                             UNKNOWN :LOG DATE
UWI         .                                          3060000463 :UNIQUE WELL ID
XCOORD      .                                       601713.000000 :SURFACE X
YCOORD      .                                      2142348.040000 :SURFACE Y
LAT         .                                           19.373822 :LATITUDE
LON         .                                          -92.031472 :LONGITUDE
ELEV        .M                                            24.0000 :SURFACE ELEV
ELEV_TYPE   .                                                  KB :ELEV TYPE
~CURVE INFORMATION
#MNEMONIC.UNIT        API CODE       : CURVE DESCRIPTION
#------------------------------------------------------------------------------
DEPTH    .M                          : Measured Depth
CALI     .inches      UNKNOWN        : CALI:Import:rC:NONE:v0 (auto-composite)
DRHO     .g/cm3       UNKNOWN        : DRHO:Import:rC:NONE:v0 (auto-composite)
DT       .us/ft       UNKNOWN        : DT:Import:rC:NONE:v0 (auto-composite)
GR       .API         UNKNOWN        : GR:Import:rC:NONE:v0 (auto-composite)
ILD      .ohm.m       UNKNOWN        : ILD:Import:rC:NONE:v0 (auto-composite)
LLD      .ohm.m       UNKNOWN        : LLD:Import:rC:NONE:v0 (auto-composite)
LLS      .ohm.m       UNKNOWN        : LLS:Import:rC:NONE:v0 (auto-composite)
NPHI     .v/v_decimal UNKNOWN        : NPHI:Import:rC:NONE:v0 (auto-composite)
PEF      .b/elec      UNKNOWN        : PEF:Import:rC:NONE:v0 (auto-composite)
RHOB     .g/cm3       UNKNOWN        : RHOB:Import:rC:NONE:v0 (auto-composite)
~A     DEPTH         CALI         DRHO           DT           GR          ILD          LLD          LLS         NPHI          PEF         RHOB
# ...
   2384.7551       8.3330       0.0650      55.9920      21.8700    -999.2500     234.1270      73.6550       0.0760       2.9760       2.7610
   2384.9075       8.3330       0.0620      58.6666      22.9353    -999.2500     505.0963     160.2700       0.0622       2.9335       2.7730
   2385.0598       8.3330       0.0590      61.3440      24.0000    -999.2500     775.9130     246.9750       0.0495       2.8910       2.7850
   2385.2124       8.3305       0.0510      60.4190      23.8875    -999.2500    1098.4852     416.2571       0.0481       2.9485       2.7835
   2385.3647       8.3280       0.0430      59.4930      23.7750    -999.2500    1420.9160     585.4650       0.0484       3.0060       2.7820
   2385.5171       8.3070       0.0360      56.2331      23.3316    -999.2500    1538.5229     774.6681       0.0500       3.1450       2.7740
   2385.6694       8.2860       0.0290      52.9690      22.8890    -999.2500    1656.0930     963.8120       0.0514       3.2840       2.7660
   2385.8218       8.2540       0.0205      53.5471      22.2995    -999.2500    1614.7897     925.8555       0.0507       3.2730       2.7700
   2385.9744       8.2220       0.0120      54.1250      21.7110    -999.2500    1573.4940     887.9060       0.0496       3.2620       2.7740
   2386.1267       8.2220       0.0160      53.4690      22.2650    -999.2500    1475.4420     802.4189       0.0473       3.2455       2.7840
   2386.2791       8.2220       0.0200      52.8130      22.8180    -999.2500    1377.3960     716.9370       0.0448       3.2290       2.7940
   2386.4314       8.2220       0.0330      52.9540      22.3822    -999.2500    1245.2937     656.8779       0.0425       3.2250       2.8045
   2386.5840       8.2220       0.0460      53.0950      21.9470    -999.2500    1113.1830     596.8150       0.0405       3.2210       2.8150
   2386.7363       8.2220       0.0610      53.3015      20.8747    -999.2500    1131.8147     576.6654       0.0423       3.1725       2.8140
   2386.8887       8.2220       0.0760      53.5080      19.8040    -999.2500    1150.4500     556.5120       0.0442       3.1240       2.8130
   2387.0410       8.2220       0.0755      53.7925      20.1407    -999.2500    1214.6094     556.5120       0.0444       3.0040       2.8100
   2387.1936       8.2220       0.0750      54.0770      20.4770    -999.2500    1278.7889     556.5120       0.0445       2.8840       2.8070
   2387.3459       8.2220       0.0770      54.9288      23.7474    -999.2500    1404.8342     574.2516       0.0460       2.9310       2.8020
   2387.4983       8.2220       0.0790      55.7810      27.0140    -999.2500    1530.9351     591.9990       0.0473       2.9780       2.7970
   2387.6506       8.2220       0.0840      55.2447      36.4554    -999.2500    1511.6705     648.4390       0.0460       3.0805       2.7870
   2387.8030       8.2220       0.0890      54.7080      45.8870    -999.2500    1492.3950     704.9110       0.0446       3.1830       2.7770
   2387.9556       8.2220       0.0835      53.8183      45.0396    -999.2500    1430.6169     833.2781       0.0449       3.2535       2.7665
   2388.1079       8.2220       0.0780      52.9280      44.1930    -999.2500    1368.8950     961.7340       0.0456       3.3240       2.7560
   2388.2603       8.2285       0.0630      52.5606      41.8881    -999.2500    1265.8226     888.6129       0.0486       3.3050       2.7605
   2388.4126       8.2350       0.0480      52.1930      39.5850    -999.2500    1162.8311     815.4320       0.0523       3.2860       2.7650
   2388.5652       8.2695       0.0305      51.6982      37.4008    -999.2500     974.6151     662.2642       0.0597       3.2480       2.7630
   2388.7175       8.3040       0.0130      51.2030      35.2180    -999.2500     786.5230     508.9520       0.0675       3.2100       2.7610
   2388.8699       8.3675       0.0155      53.1420      34.2157    -999.2500     568.1053     402.9507       0.0753       3.1300       2.7490
   2389.0222       8.4310       0.0180      55.0830      33.2140    -999.2500     349.8040     296.8360       0.0827       3.0500       2.7370
   2389.1748       8.4795       0.0250      57.8843      32.0568    -999.2500     399.1801     329.5907       0.0861       3.0780       2.7220
   2389.3271       8.5280       0.0320      60.6890      30.9000    -999.2500     448.5360     362.3320       0.0895       3.1060       2.7070
   2389.4795       8.5630       0.0390      69.7450      29.2149    -999.2500     634.0742     469.8297       0.0974       3.2050       2.7185
   2389.6318       8.5980       0.0460      78.8130      27.5330    -999.2500     819.5600     577.2970       0.1048       3.3040       2.7300
   2389.7842       8.6275       0.0535      67.6086      28.4883    -999.2500     759.2923     566.4371       0.1038       3.5775       2.7300
   2389.9368       8.6570       0.0610      56.4060      29.4420    -999.2500     699.0340     555.5790       0.1020       3.8510       2.7300
   2390.0891       8.6620       0.0720      72.7503      31.4131    -999.2500     550.5142     483.7974       0.1020       3.8140       2.7160
   2390.2415       8.6670       0.0830      89.0940      33.3810    -999.2500     401.9990     412.0180       0.1025       3.7770       2.7020
   2390.3938       8.6495       0.0825      84.8752      36.2492    -999.2500     297.5470     318.3040       0.1065       3.3730       2.7080
   2390.5464       8.6320       0.0820      80.6560      39.1130    -999.2500     193.0850     224.5810       0.1103       2.9690       2.7140
   2390.6987       8.5800       0.0785     103.5755      49.8944    -999.2500     154.2013     178.8095       0.1082       2.9730       2.7425
   2390.8511       8.5280       0.0750     126.5000      60.6610    -999.2500     115.3090     133.0280       0.1053       2.9770       2.7710
   2391.0034       8.4670       0.0690     123.0856      60.5559    -999.2500     101.8358     115.8355       0.1002       3.0875       2.7670
   2391.1560       8.4060       0.0630     119.6700      60.4510    -999.2500      88.3580      98.6370       0.0955       3.1980       2.7630
   2391.3083       8.3695       0.0575     108.6176      57.3517    -999.2500      74.3168      88.3149       0.0981       3.4934       2.7515
   2391.4607       8.3330       0.0520      97.5600      54.2560    -999.2500      60.2690      77.9880       0.1010       3.7890       2.7400
   2391.6130       8.3330       0.0475      88.9551      48.8208    -999.2500      65.6819      72.0628       0.0995       3.7875       2.7275
   2391.7654       8.3330       0.0430      80.3450      43.3910    -999.2500      71.0980      66.1340       0.0974       3.7860       2.7150
   2391.9180       8.3330       0.0350      78.2907      40.4927    -999.2500      90.3815      73.1550       0.0928       3.7585       2.7070
   2392.0703       8.3330       0.0270      76.2350      37.5970    -999.2500     109.6480      80.1810       0.0876       3.7310       2.6990
   2392.2227       8.3365       0.0195      71.8129      40.2920    -999.2500     132.7532     124.8820       0.0783       3.6280       2.7225
   2392.3750       8.3400       0.0120      67.3870      42.9850    -999.2500     155.8410     169.6210       0.0698       3.5250       2.7460
   2392.5276       8.3640       0.0140      63.8797      51.8808    -999.2500     165.2460     168.4106       0.0750       3.3870       2.7420
   2392.6799       8.3880       0.0160      60.3690      60.7710    -999.2500     174.6450     167.1990       0.0827       3.2490       2.7380
   2392.8323       8.4135       0.0215      59.7558      59.4782    -999.2500     181.7148     165.0922       0.1026       3.0780       2.7195
   2392.9846       8.4390       0.0270      59.1420      58.1860    -999.2500     188.7810     162.9830       0.1218       2.9070       2.7010
   2393.1372       8.4415       0.0315      53.1842      52.6540    -999.2500     197.4771     164.3903       0.1208       2.9395       2.7040
