#------------------------------------------------------------------------------
#
#   Created by  : [OpenWorks] Log Export Utility (LEXP)
#   Created on  : 2016-05-23 11:52:48
#   Project     : CANT971
#   User        : R5K
#   Interpreter : PEP
#
#------------------------------------------------------------------------------
~VERSION INFORMATION
VERS. 2.0 : CWLS Log ASCII Standard - version 2.0
WRAP.  NO : One line per depth step
~WELL INFORMATION
#MNEMONIC   .UNIT                                           VALUE :DESCRIPTION
#------------------------------------------------------------------------------
STRT        .M                                           688.5826 :START DEPTH
STOP        .M                                          3180.0178 :STOP DEPTH
STEP        .M                                             0.1524 :STEP
NULL        .                                           -999.2500 :NULL VALUE
COMP        .                                   PEMEX EXPL & PROD :COMPANY
WELL        .                                               2092D :WELL
FLD         .                                           CANTARELL :FIELD
LOC         .                                             UNKNOWN :LOCATION
CNTY        .                                      CD. DEL CARMEN :COUNTY
STAT        .                                            CAMPECHE :STATE
CTRY        .                                              MEXICO :COUNTRY
SRVC        .                                             UNKNOWN :SERVICE COMPANY
DATE        .                                             UNKNOWN :LOG DATE
UWI         .                                          3060000657 :UNIQUE WELL ID
XCOORD      .                                       601715.500000 :SURFACE X
YCOORD      .                                      2142373.650000 :SURFACE Y
LAT         .                                           19.374053 :LATITUDE
LON         .                                          -92.031447 :LONGITUDE
ELEV        .M                                            30.0000 :SURFACE ELEV
ELEV_TYPEF  .b/elec                                            KB :ELEV TYPE
~CURVE INFORMATION
#MNEMONIC.UNIT        API CODE       : CURVE DESCRIPTION
#------------------------------------------------------------------------------
DEPTH    .M                          : Measured Depth
CALI     .in          UNKNOWN        : CALI:UNKNOWN:rC:NONE:v0 (auto-composite)
CGR      .API         UNKNOWN        : CGR:UNKNOWN:rC:NONE:v0 (auto-composite)
DRHO     .g/cm3       UNKNOWN        : DRHO:UNKNOWN:rC:NONE:v0 (auto-composite)
DT       .us/ft       UNKNOWN        : DT:DT:rC:NONE:v0 (auto-composite)
GR       .API         UNKNOWN        : GR:UNKNOWN:rC:NONE:v0 (auto-composite)
ILD      .ohmm        UNKNOWN        : ILD:UNKNOWN:rC:NONE:v0 (auto-composite)
ILM      .ohmm        UNKNOWN        : ILM:UNKNOWN:rC:NONE:v0 (auto-composite)
LLD      .ohmm        UNKNOWN        : LLD:UNKNOWN:rC:NONE:v0 (auto-composite)
LLS      .ohmm        UNKNOWN        : LLS:UNKNOWN:rC:NONE:v0 (auto-composite)
MSFL     .ohmm        UNKNOWN        : MSFL:UNKNOWN:rC:NONE:v0 (auto-composite)
NPHI     .v/v_decimal UNKNOWN        : NPHI:PETROWORKS:rC:NONE:v1 
PEF      .b/elec      UNKNOWN        : PEF:UNKNOWN:rC:NONE:v0 (auto-composite)
POTA     .wtpercent   UNKNOWN        : POTA:UNKNOWN:rC:NONE:v0 (auto-composite)
RHOB     .g/cm3       UNKNOWN        : RHOB:UNKNOWN:rC:NONE:v0 (auto-composite)
SFLU     .ohmm       UNKNOWN        : SFLU:induccion:rC:NONE:v0 (auto-composite)
THOR     .ppm         UNKNOWN        : THOR:UNKNOWN:rC:NONE:v0 (auto-composite)
URAN     .ppm         UNKNOWN        : URAN:UNKNOWN:rC:NONE:v0 (auto-composite)
~A     DEPTH         CALI          CGR         DRHO           DT           GR          ILD          ILM          LLD          LLS         MSFL         NPHI          PEF         POTA         RHOB         SFLU         THOR         URAN
# ...
   3174.2266       7.9599    -999.2500       0.0626      60.3000      30.9320    -999.2500    -999.2500       0.2500       0.0250     155.1761       0.0265       3.2957    -999.2500       2.7907    -999.2500    -999.2500    -999.2500
   3174.3789       7.9558    -999.2500       0.0605      60.3000      30.9320    -999.2500    -999.2500       0.2500       0.0250     155.0523       0.0264       3.2645    -999.2500       2.7858    -999.2500    -999.2500    -999.2500
   3174.5315       7.9603    -999.2500       0.0575      60.3000      30.9320    -999.2500    -999.2500       0.2500       0.0250     155.1108       0.0269       3.2390    -999.2500       2.7788    -999.2500    -999.2500    -999.2500
   3174.6838       7.9647    -999.2500       0.0554      60.3000      30.9320    -999.2500    -999.2500       0.2500       0.0250     155.1483       0.0272       3.2160    -999.2500       2.7738    -999.2500    -999.2500    -999.2500
   3174.8362       7.9687    -999.2500       0.0574      60.3000      30.9320    -999.2500    -999.2500       0.2500       0.0250     155.0873       0.0271       3.2045    -999.2500       2.7783    -999.2500    -999.2500    -999.2500
   3174.9885       7.9720    -999.2500       0.0588      60.3000      30.9320    -999.2500    -999.2500       0.2500       0.0250     155.0328       0.0270       3.1956    -999.2500       2.7820    -999.2500    -999.2500    -999.2500
   3175.1409       7.9720    -999.2500       0.0578      60.3000      30.9320    -999.2500    -999.2500       0.2500       0.0250     155.0087       0.0269       3.1991    -999.2500       2.7820    -999.2500    -999.2500    -999.2500
   3175.2935       7.2591    -999.2500       0.0519      52.8273      28.1660    -999.2500    -999.2500       0.2276       0.0228     141.1297       0.0236       2.9157    -999.2500       2.5332    -999.2500    -999.2500    -999.2500
   3175.4458       3.2749    -999.2500       0.0234      24.7709      12.7067    -999.2500    -999.2500       0.1027       0.0103      63.6687       0.0110       1.3154    -999.2500       1.1428    -999.2500    -999.2500    -999.2500
   3175.5981       0.0000    -999.2500       0.0000       3.0143       0.0000    -999.2500    -999.2500       0.0000       0.0000       0.0000       0.0013       0.0000    -999.2500       0.0000    -999.2500    -999.2500    -999.2500
   3175.7505       0.0000    -999.2500       0.0000       0.0000       0.0000    -999.2500    -999.2500       0.0000       0.0000       0.0000       0.0000       0.0000    -999.2500       0.0000    -999.2500    -999.2500    -999.2500
   3175.9031       0.0000    -999.2500       0.0000       0.0000       0.0000    -999.2500    -999.2500       0.0000       0.0000       0.0000       0.0000       0.0000    -999.2500       0.0000    -999.2500    -999.2500    -999.2500
   3176.0554       0.0000    -999.2500       0.0000       0.0000       0.0000    -999.2500    -999.2500       0.0000       0.0000       0.0000       0.0000       0.0000    -999.2500       0.0000    -999.2500    -999.2500    -999.2500
   3176.2078       0.0000    -999.2500       0.0000       0.0000       0.0000    -999.2500    -999.2500       0.0000       0.0000       0.0000       0.0000       0.0000    -999.2500       0.0000    -999.2500    -999.2500    -999.2500
   3176.3601       0.0000    -999.2500       0.0000       0.0000       0.0000    -999.2500    -999.2500       0.0000       0.0000       0.0000       0.0000       0.0000    -999.2500       0.0000    -999.2500    -999.2500    -999.2500
   3176.5127       0.0000    -999.2500       0.0000       0.0000       0.0000    -999.2500    -999.2500       0.0000       0.0000       0.0000       0.0000       0.0000    -999.2500       0.0000    -999.2500    -999.2500    -999.2500
   3176.6650       0.0000    -999.2500       0.0000       0.0000       0.0000    -999.2500    -999.2500       0.0000       0.0000       0.0000       0.0000       0.0000    -999.2500       0.0000    -999.2500    -999.2500    -999.2500
   3176.8174       0.0000    -999.2500       0.0000       0.0000       0.0000    -999.2500    -999.2500       0.0000       0.0000       0.0000       0.0000       0.0000    -999.2500       0.0000    -999.2500    -999.2500    -999.2500
   3176.9697       0.0000    -999.2500       0.0000       0.0000       0.0000    -999.2500    -999.2500       0.0000       0.0000       0.0000       0.0000       0.0000    -999.2500       0.0000    -999.2500    -999.2500    -999.2500
   3177.1221       0.0000    -999.2500       0.0000       0.0000       0.0000    -999.2500    -999.2500       0.0000       0.0000       0.0000       0.0000       0.0000    -999.2500       0.0000    -999.2500    -999.2500    -999.2500
   3177.2747       0.0000    -999.2500       0.0000       0.0000       0.0000    -999.2500    -999.2500       0.0000       0.0000       0.0000       0.0000       0.0000    -999.2500       0.0000    -999.2500    -999.2500    -999.2500
   3177.4270       0.0000    -999.2500       0.0000       0.0000       0.0000    -999.2500    -999.2500       0.0000       0.0000       0.0000       0.0000       0.0000    -999.2500       0.0000    -999.2500    -999.2500    -999.2500
   3177.5793       0.0000    -999.2500       0.0000       0.0000       0.0000    -999.2500    -999.2500       0.0000       0.0000       0.0000       0.0000       0.0000    -999.2500       0.0000    -999.2500    -999.2500    -999.2500
   3177.7317       0.0000    -999.2500       0.0000       0.0000       0.0000    -999.2500    -999.2500       0.0000       0.0000       0.0000       0.0000       0.0000    -999.2500       0.0000    -999.2500    -999.2500    -999.2500
   3177.8843       0.0000    -999.2500       0.0000       0.0000       0.0000    -999.2500    -999.2500       0.0000       0.0000       0.0000       0.0000       0.0000    -999.2500       0.0000    -999.2500    -999.2500    -999.2500
   3178.0366       0.0000    -999.2500       0.0000       0.0000       0.0000    -999.2500    -999.2500       0.0000       0.0000       0.0000       0.0000       0.0000    -999.2500       0.0000    -999.2500    -999.2500    -999.2500
   3178.1890       0.0000    -999.2500       0.0000       0.0000       0.0000    -999.2500    -999.2500       0.0000       0.0000       0.0000       0.0000       0.0000    -999.2500       0.0000    -999.2500    -999.2500    -999.2500
   3178.3413       0.0000    -999.2500       0.0000       0.0000       0.0000    -999.2500    -999.2500       0.0000       0.0000       0.0000       0.0000       0.0000    -999.2500       0.0000    -999.2500    -999.2500    -999.2500
   3178.4939       0.0000    -999.2500       0.0000       0.0000       0.0000    -999.2500    -999.2500       0.0000       0.0000       0.0000       0.0000       0.0000    -999.2500       0.0000    -999.2500    -999.2500    -999.2500
   3178.6462       0.0000    -999.2500       0.0000       0.0000       0.0000    -999.2500    -999.2500       0.0000       0.0000       0.0000       0.0000       0.0000    -999.2500       0.0000    -999.2500    -999.2500    -999.2500
   3178.7986       0.0000    -999.2500       0.0000       0.0000       0.0000    -999.2500    -999.2500       0.0000       0.0000       0.0000       0.0000       0.0000    -999.2500       0.0000    -999.2500    -999.2500    -999.2500
   3178.9509       0.0000    -999.2500       0.0000       0.0000       0.0000    -999.2500    -999.2500       0.0000       0.0000       0.0000       0.0000       0.0000    -999.2500       0.0000    -999.2500    -999.2500    -999.2500
   3179.1033       0.0000    -999.2500       0.0000       0.0000       0.0000    -999.2500    -999.2500       0.0000       0.0000       0.0000       0.0000       0.0000    -999.2500       0.0000    -999.2500    -999.2500    -999.2500
   3179.2559       0.0000    -999.2500       0.0000       0.0000       0.0000    -999.2500    -999.2500       0.0000       0.0000       0.0000       0.0000       0.0000    -999.2500       0.0000    -999.2500    -999.2500    -999.2500
   3179.4082       0.0000    -999.2500       0.0000       0.0000       0.0000    -999.2500    -999.2500       0.0000       0.0000       0.0000       0.0000       0.0000    -999.2500       0.0000    -999.2500    -999.2500    -999.2500
