#------------------------------------------------------------------------------
#
#   Created by  : [OpenWorks] Log Export Utility (LEXP)
#   Created on  : 2016-05-23 11:55:55
#   Project     : CANT971
#   User        : R5K
#   Interpreter : PEP
#
#------------------------------------------------------------------------------
~VERSION INFORMATION
VERS. 2.0 : CWLS Log ASCII Standard - version 2.0
WRAP.  NO : One line per depth step
~WELL INFORMATION
#MNEMONIC   .UNIT                                           VALUE :DESCRIPTION
#------------------------------------------------------------------------------
STRT        .M                                          2870.4541 :START DEPTH
STOP        .M                                          3966.9722 :STOP DEPTH
STEP        .M                                             0.1524 :STEP
NULL        .                                           -999.2500 :NULL VALUE
COMP        .                                             UNKNOWN :COMPANY
WELL        .                                            418D-ST1 :WELL
FLD         .                                             UNKNOWN :FIELD
LOC         .                                             UNKNOWN :LOCATION
CNTY        .                                             UNKNOWN :COUNTY
STAT        .                                             UNKNOWN :STATE
CTRY        .                                             UNKNOWN :COUNTRY
SRVC        .                                             UNKNOWN :SERVICE COMPANY
DATE        .                                             UNKNOWN :LOG DATE
UWI         .                                            418D-ST1 :UNIQUE WELL ID
XCOORD      .                                       597130.010000 :SURFACE X
YCOORD      .                                      2144879.410000 :SURFACE Y
LAT         .                                           19.396924 :LATITUDE
LON         .                                          -92.074978 :LONGITUDE
ELEV        .M                                             0.0000 :SURFACE ELEV
ELEV_TYPE   .                                                  NA :ELEV TYPE
~CURVE INFORMATION
#MNEMONIC.UNIT        API CODE       : CURVE DESCRIPTION
#------------------------------------------------------------------------------
DEPTH    .M                          : Measured Depth
CALI     .inches      UNKNOWN        : CALI:litodensidad:rC:NONE:v0 (auto-composite)
CGR      .API         UNKNOWN        : CGR:litodensidad:rC:NONE:v0 (auto-composite)
DRHO     .g/cm3       UNKNOWN        : DRHO:litodensidad:rC:NONE:v0 (auto-composite)
DT       .us/ft       UNKNOWN        : DT:DT-Load:rC:NONE:v0 (auto-composite)
GR       .API         UNKNOWN        : GR:litodensidad:rC:NONE:v0 (auto-composite)
LLD      .ohm.m       UNKNOWN        : LLD:PETROWORKS:rC:NONE:v1 
LLS      .ohm.m       UNKNOWN        : LLS:PETROWORKS:rC:NONE:v1 
MSFL     .ohm.m       UNKNOWN        : MSFL:resistivos:rC:NONE:v0 (auto-composite)
NPHI     .v/v_decimal UNKNOWN        : NPHI:litodensidad:rC:NONE:v0 (auto-composite)
PEF      .UNKNOWN     UNKNOWN        : PEF:litodensidad:rC:NONE:v0 (auto-composite)
POTA     .UNKNOWN     UNKNOWN        : POTA:litodensidad:rC:NONE:v0 (auto-composite)
RHOB     .g/cm3       UNKNOWN        : RHOB:litodensidad:rC:NONE:v0 (auto-composite)
THOR     .ppm         UNKNOWN        : THOR:litodensidad:rC:NONE:v0 (auto-composite)
URAN     .ppm         UNKNOWN        : URAN:litodensidad:rC:NONE:v0 (auto-composite)
~A     DEPTH         CALI          CGR         DRHO           DT           GR          LLD          LLS         MSFL         NPHI          PEF         POTA         RHOB         THOR         URAN
# ...
   3286.5061      13.4844      84.5526      -0.0034    -999.2500     104.8853       9.2041       9.0039       0.4072       0.0822       3.2949       0.0269       2.6250      11.2792       2.6132
   3286.6584      13.3438      87.2929      -0.0017    -999.2500     108.5144       9.7925       9.3256       0.4077       0.0946       3.2656       0.0276       2.5838      11.7217       2.7275
   3286.8108      13.3438      85.6280       0.0040    -999.2500     105.6466       9.3232       9.0455       0.4043       0.0781       3.1250       0.0269       2.5833      11.5608       2.5729
   3286.9634      13.3438      81.4775       0.0052    -999.2500      97.6406       9.0711       8.6176       0.4087       0.0677       2.9844       0.0256       2.5682      11.0169       2.0773
   3287.1157      13.3438      87.2326       0.0039    -999.2500     104.1840       9.4973       9.0626       0.4155       0.0678       2.8086       0.0274       2.5431      11.7591       2.1786
   3287.2681      13.3438      89.2291       0.0020    -999.2500     106.7164       9.0718       8.7074       0.4312       0.0678       2.9512       0.0282       2.5308      11.9676       2.2475
   3287.4204      13.3438      88.9877       0.0002    -999.2500     106.2966       8.4327       7.8788       0.4092       0.0808       3.2148       0.0280       2.5509      11.9845       2.2246
   3287.5730      13.3516      88.8809      -0.0009    -999.2500     105.9589       8.7750       8.1646       0.4092       0.0867       3.5742       0.0279       2.5906      12.0136       2.1949
   3287.7253      13.6328      89.0419      -0.0002    -999.2500     105.7944       8.9681       8.2913       0.4224       0.0893       3.4043       0.0280       2.6314      11.9921       2.1531
   3287.8777      13.6953      86.3844      -0.0031    -999.2500     101.4995       9.2452       8.4460       0.4331       0.0810       3.1191       0.0271       2.6408      11.6711       1.9426
   3288.0300      13.3984      90.7798      -0.0012    -999.2500     107.2024       9.7484       8.9375       0.4438       0.0774       3.0254       0.0282       2.6468      12.3998       2.1107
   3288.1826      13.4297      90.9049       0.0003    -999.2500     106.7338      11.2145       9.9534       0.4316       0.0751       3.1387       0.0281       2.6394      12.4858       2.0344
   3288.3350      13.5156      92.7242      -0.0017    -999.2500     109.7701      13.3123      11.7819       0.4390       0.0648       3.3027       0.0287       2.6387      12.7199       2.1908
   3288.4873      13.5156      89.1862       0.0014    -999.2500     103.1934      14.2808      12.4172       0.4282       0.0592       3.3496       0.0279       2.6540      12.0714       1.8002
   3288.6396      13.5234      87.7698       0.0013    -999.2500     100.6771      14.4328      12.4824       0.4316       0.0578       3.3926       0.0277       2.6702      11.8124       1.6589
   3288.7920      13.5625      87.4297      -0.0013    -999.2500      99.8800      14.1728      12.1330       0.4248       0.0577       3.4766       0.0275       2.6812      11.8003       1.6001
   3288.9446      13.5391      87.9694      -0.0046    -999.2500     100.0387      13.6221      11.6544       0.4277       0.0607       3.6602       0.0276       2.6829      11.8722       1.5512
   3289.0969      13.5547      88.6780      -0.0013    -999.2500      99.9536      12.0067      10.4797       0.4263       0.0599       4.6563       0.0275       2.6978      12.1116       1.4492
   3289.2493      13.6484      84.7865       0.0099    -999.2500      93.8555       9.3465       8.0730       0.4194       0.0826       6.4648       0.0259       2.6796      11.7703       1.1656
   3289.4016      13.8828      82.3069      -0.0073    -999.2500      90.5413       7.5505       6.5700       0.4395       0.1027       7.9805       0.0249       2.3042      11.5412       1.0583
   3289.5542      14.1875      84.7413      -0.0096    -999.2500      94.5180       6.4485       5.5905       0.4634       0.1401      10.0391       0.0258       1.9839      11.7932       1.2565
   3289.7065      14.6797      89.2124       0.0035    -999.2500     100.6802       6.0195       5.3114       0.4551       0.2090      10.2188       0.0275       1.8666      12.2680       1.4739
   3289.8589      16.7656      85.9060       0.0170    -999.2500      95.3986       6.1537       5.4084       0.4644       0.2566       6.3281       0.0265       1.9451      11.8176       1.2200
   3290.0112      19.0156      83.7078       0.0536    -999.2500      92.0133       6.5280       5.6947       0.5630       0.2953       4.5078       0.0257       2.2096      11.5745       1.0674
   3290.1638      14.4688      88.0388       0.1009    -999.2500      98.0582       6.8242       6.0912       0.4639       0.2964       3.8789       0.0269       2.4559      12.2028       1.2877
   3290.3162      14.3438      89.4873       0.1087    -999.2500     100.1902       7.2982       6.4636       0.4536       0.2955       4.0586       0.0274       2.5386      12.3957       1.3756
   3290.4685      14.3438      89.2291       0.1090    -999.2500     100.7051       7.7148       6.7792       0.4570       0.2881       4.1719       0.0276       2.5493      12.2263       1.4749
   3290.6208      14.3438      92.7529       0.1319    -999.2500     107.1983       7.9999       7.0979       0.4863       0.2787       4.8555       0.0291       2.5623      12.5454       1.8566
   3290.7732      14.4531      94.9375       0.1511    -999.2500     110.8169       7.5561       6.5748       0.5352       0.2445       5.7305       0.0298       2.5776      12.8300       2.0409
   3290.9258      15.2266      94.0994       0.1250    -999.2500     110.3046       7.1830       6.1759       0.5273       0.2349       6.6914       0.0295       2.5222      12.7145       2.0827
   3291.0781      16.8594      94.0078       0.0907    -999.2500     110.0538       6.8741       5.9929       0.4380       0.2470       5.7500       0.0294       2.4948      12.7523       2.0623
   3291.2305      17.9375      96.5282       0.0579    -999.2500     113.8594       7.0334       6.1168       0.4219       0.2820       4.2969       0.0303       2.4846      13.0488       2.2275
   3291.3828      16.9063      91.9465       0.0327    -999.2500     108.1947       7.8505       6.8242       0.4263       0.3004       3.6074       0.0291       2.5211      12.3232       2.0883
   3291.5354      13.5234      74.8136       0.0078    -999.2500      90.1529       8.6704       7.4443       0.4380       0.2932       3.3867       0.0250       2.5228       9.4656       1.9715
   3291.6877      13.5156      73.5668      -0.0018    -999.2500      88.8175       9.5515       8.1240       0.4370       0.2391       3.3008       0.0246       2.5178       9.2842       1.9601
   3291.8401      13.5156      75.2306      -0.0019    -999.2500      91.4181      10.3956       8.9319       0.4482       0.1623       3.3887       0.0249       2.5308       9.6053       2.0805
   3291.9924      13.5156      70.5648      -0.0035    -999.2500      85.5922      10.5528       9.1702       0.4604       0.1122       3.1113       0.0227       2.5446       9.3147       1.9314
   3292.1450      13.5156      65.6585      -0.0064    -999.2500      79.4236      11.0115       9.4560       0.4663       0.1108       2.9668       0.0202       2.5225       9.0410       1.7691
   3292.2974      13.5156      67.1205      -0.0091    -999.2500      82.1385      11.1286       9.6528       0.4917       0.1110       2.6836       0.0204       2.4904       9.3487       1.9302
   3292.4497      13.5000      70.2460      -0.0087    -999.2500      87.9434      12.0919      10.3503       0.5098       0.1110       2.6582       0.0214       2.4636       9.7620       2.2745
   3292.6021      13.5000      71.5511      -0.0055    -999.2500      90.0912      10.5503       9.0979       0.4917       0.1054       3.4277       0.0218       2.4845       9.9383       2.3828
   3292.7544      13.5156      69.1393       0.0004    -999.2500      86.8298       6.8168       5.9717       0.5200       0.1079       4.1719       0.0209       2.4909       9.7047       2.2736
