#------------------------------------------------------------------------------
#
#   Created by  : [OpenWorks] Log Export Utility (LEXP)
#   Created on  : 2016-05-23 11:50:15
#   Project     : CANT971
#   User        : R5K
#   Interpreter : PEP
#
#------------------------------------------------------------------------------
~VERSION INFORMATION
VERS. 2.0 : CWLS Log ASCII Standard - version 2.0
WRAP.  NO : One line per depth step
~WELL INFORMATION
#MNEMONIC   .UNIT                                           VALUE :DESCRIPTION
#------------------------------------------------------------------------------
STRT        .M                                          2144.1199 :START DEPTH
STOP        .M                                          3100.2776 :STOP DEPTH
STEP        .M                                             0.1524 :STEP
NULL        .                                           -999.2500 :NULL VALUE
COMP        .                                   PEMEX EXPL & PROD :COMPANY
WELL        .                                               1004D :WELL
FLD         .                                           CANTARELL :FIELD
LOC         .                                             UNKNOWN :LOCATION
CNTY        .                                      CD. DEL CARMEN :COUNTY
STAT        .                                            CAMPECHE :STATE
CTRY        .                                              MEXICO :COUNTRY
SRVC        .                                             UNKNOWN :SERVICE COMPANY
DATE        .                                             UNKNOWN :LOG DATE
UWI         .                                               1004D :UNIQUE WELL ID
XCOORD      .                                       594534.600000 :SURFACE X
YCOORD      .                                      2142053.350000 :SURFACE Y
LAT         .                                           19.371510 :LATITUDE
LON         .                                          -92.099834 :LONGITUDE
ELEV        .M                                            30.0000 :SURFACE ELEV
ELEV_TYPE   .                                                  KB :ELEV TYPE
~CURVE INFORMATION
#MNEMONIC.UNIT        API CODE       : CURVE DESCRIPTION
#------------------------------------------------------------------------------
DEPTH    .M                          : Measured Depth
CALI     .in          UNKNOWN        : CALI:litodensidad:rC:NONE:v0 (auto-composite)
DRHO     .g/cm3       UNKNOWN        : DRHO:litodensidad:rC:NONE:v0 (auto-composite)
DT       .us/ft       UNKNOWN        : DT:DT-Load:rC:NONE:v0 (auto-composite)
GR       .API         UNKNOWN        : GR:TMDL:rC:NONE:v0 (auto-composite)
GR-LWD   .API         UNKNOWN        : GR-LWD:PETROWORKS:rC:NONE:v1 
ILD-LWD  .ohm.m       UNKNOWN        : ILD-LWD:resistivos-LWD:rC:NONE:v0 (auto-composite)
ILM-LWD  .ohm.m       UNKNOWN        : ILM-LWD:resistivos-LWD:rC:NONE:v0 (auto-composite)
LLD-LWD  .ohm.m       UNKNOWN        : LLD-LWD:resistivos-LWD:rC:NONE:v0 (auto-composite)
LLS      .ohm.m       UNKNOWN        : LLS:resistivos:rC:NONE:v0 (auto-composite)
LLS-LWD  .ohm.m       UNKNOWN        : LLS-LWD:resistivos-LWD:rC:NONE:v0 (auto-composite)
MSFL     .ohm.m       UNKNOWN        : MSFL:resistivos:rC:NONE:v0 (auto-composite)
MSFL-LWD .ohm.m       UNKNOWN        : MSFL-LWD:resistivos-LWD:rC:NONE:v0 (auto-composite)
NPHI     .v/v_decimal UNKNOWN        : NPHI:PETROWORKS:rC:NONE:v2 
PEF      .b/elec      UNKNOWN        : PEF:litodensidad:rC:NONE:v0 (auto-composite)
RHOB     .g/cm3       UNKNOWN        : RHOB:litodensidad:rC:NONE:v0 (auto-composite)
~A     DEPTH         CALI         DRHO           DT           GR       GR-LWD      ILD-LWD      ILM-LWD      LLD-LWD          LLS      LLS-LWD         MSFL     MSFL-LWD         NPHI          PEF         RHOB
# ...
   2548.2847       3.7752      -0.2995    -999.2500    -999.2500      56.3206    -999.2500    -999.2500       4.3092       0.0984       4.3467       0.0796       3.9526       0.0166      10.0000       1.2994
   2548.4370       3.7826      -0.4267    -999.2500    -999.2500      56.9128    -999.2500    -999.2500       4.8979       0.0994       4.7457       0.0797       4.1236       0.0209      10.0000       1.1675
   2548.5894       3.7845      -0.5370    -999.2500    -999.2500      55.6485    -999.2500    -999.2500       5.7221       0.1021       5.6171       0.0784       4.0893       0.0246      10.0000       1.1398
   2548.7419       3.7845      -0.1132    -999.2500    -999.2500      54.0009    -999.2500    -999.2500       7.6927       0.1004       5.2264       0.0781       5.3768       0.0231      10.0000       1.7844
   2548.8943       3.7845       0.6316    -999.2500    -999.2500      54.0585    -999.2500    -999.2500       3.4934       0.1011       3.5678       0.0778       3.8173       0.0168      10.0000       2.7552
   2549.0466       3.7845       1.3694    -999.2500    -999.2500      52.8858    -999.2500    -999.2500       3.4144       0.0983       3.2440       0.0792       2.9636       0.0119      10.0000       3.6106
   2549.1990       3.7845       1.5972    -999.2500    -999.2500      46.4849    -999.2500    -999.2500       7.5915       0.1010       6.2018       0.0814       6.7191       0.0129      10.0000       3.8501
   2549.3516       3.7845       1.5419    -999.2500    -999.2500      35.8748    -999.2500    -999.2500     101.1752       0.1004      98.2835       0.0823      33.9601       0.0131      10.0000       3.7834
   2549.5039       3.7845       1.0814    -999.2500    -999.2500      26.8131    -999.2500    -999.2500      36.2475       0.1002      39.1584       0.0810      29.0179       0.0149      10.0000       3.3174
   2549.6562       3.7845       0.3765    -999.2500    -999.2500      23.1974    -999.2500    -999.2500      75.7313       0.1002      77.5205       0.0798      27.6159       0.0154      10.0000       2.5598
   2549.8086       3.7845      -0.3174    -999.2500    -999.2500      24.0577    -999.2500    -999.2500      38.2027       0.1000      39.2179       0.0783      21.7456       0.0172      10.0000       1.7092
   2549.9612       3.7939      -0.6297    -999.2500    -999.2500      25.6684    -999.2500    -999.2500      47.0529       0.1030      41.9211       0.0786      17.1240       0.0196      10.0000       1.2033
   2550.1135       3.7864      -0.5572    -999.2500    -999.2500      27.8538    -999.2500    -999.2500      29.0856       0.1010      31.7592       0.0777      12.5475       0.0206      10.0000       1.1332
   2550.2659       3.7658      -0.4254    -999.2500    -999.2500      31.4061    -999.2500    -999.2500      71.0171       0.0998      57.7084       0.0778      15.8264       0.0216      10.0000       1.2057
   2550.4182       3.7807      -0.2783    -999.2500    -999.2500      38.2425    -999.2500    -999.2500       6.7108       0.0993       5.3517       0.0770       7.9983       0.0243      10.0000       1.3366
   2550.5706       3.7845      -0.2656    -999.2500    -999.2500      46.1276    -999.2500    -999.2500       6.3435       0.1000       7.6834       0.0775       5.6918       0.0236      10.0000       1.3307
   2550.7231       3.7845      -0.2974    -999.2500    -999.2500      53.1435    -999.2500    -999.2500       5.7437       0.1009       6.1817       0.0772       4.9327       0.0237       9.9829       1.2984
   2550.8755       3.7845      -0.2994    -999.2500    -999.2500      57.3634    -999.2500    -999.2500       5.3161       0.0990       4.9751       0.0772       3.9058       0.0190       9.9829       1.2912
   2551.0278       3.7845      -0.3683    -999.2500    -999.2500      58.8995    -999.2500    -999.2500       4.7741       0.0994       4.7562       0.0786       4.3499       0.0167       9.9829       1.1999
   2551.1802       3.7845      -0.4111    -999.2500    -999.2500      58.1051    -999.2500    -999.2500       5.9822       0.1036       6.3501       0.0812       5.2357       0.0133      10.0000       1.1005
   2551.3328       3.7845      -0.4653    -999.2500    -999.2500      57.0567    -999.2500    -999.2500       5.1617       0.1013       5.2531       0.0857       4.4060       0.0102      10.0000       0.9767
   2551.4851       3.7845      -0.4632    -999.2500    -999.2500      56.9344    -999.2500    -999.2500       5.5415       0.1014       5.8071       0.0889       4.8025       0.0097      10.0000       0.9359
   2551.6375       3.7845      -0.4732    -999.2500    -999.2500      58.8488    -999.2500    -999.2500       5.1584       0.0984       5.6208       0.0879       5.0688       0.0123      10.0000       0.9359
   2551.7898       3.7845      -0.5261    -999.2500    -999.2500      60.5123    -999.2500    -999.2500       5.6007       0.1026       5.4797       0.0843       4.3177       0.0157      10.0000       0.9359
   2551.9424       3.7845      -0.5350    -999.2500    -999.2500      61.2424    -999.2500    -999.2500       4.9359       0.1025       4.8447       0.0801       4.4412       0.0147      10.0000       0.9359
   2552.0947       3.7845      -0.5003    -999.2500    -999.2500      62.4712    -999.2500    -999.2500       4.1442       0.0981       4.2421       0.0790       3.8524       0.0117      10.0000       0.9359
   2552.2471       3.7845      -0.4338    -999.2500    -999.2500      63.2821    -999.2500    -999.2500       4.3189       0.1004       4.4606       0.0770       3.9365       0.0094      10.0000       0.9359
   2552.3994       3.7845      -0.3981    -999.2500    -999.2500      64.7485    -999.2500    -999.2500       3.5378       0.1049       2.3759       0.0768       1.5365       0.0118      10.0000       0.9359
   2552.5518       3.7845      -0.4242    -999.2500    -999.2500      63.9185    -999.2500    -999.2500       4.1239       0.1006       3.8841       0.0767       3.0947       0.0127      10.0000       0.9359
   2552.7043       3.7845      -0.4644    -999.2500    -999.2500      61.9537    -999.2500    -999.2500       9.3053       0.0980       7.7454       0.0804       5.6945       0.0126      10.0000       0.9359
   2552.8567       3.7845      -0.4803    -999.2500    -999.2500      59.3873    -999.2500    -999.2500       5.2122       0.1022       5.2644       0.0831       4.9493       0.0096      10.0000       0.9359
   2553.0090       3.7658      -0.4489    -999.2500    -999.2500      58.6564    -999.2500    -999.2500       5.2362       0.1032       5.3793       0.0869       4.7270       0.0065      10.0000       0.9359
   2553.1614       3.7807      -0.4124    -999.2500    -999.2500      59.3584    -999.2500    -999.2500       3.9908       0.1025       3.5769       0.0908       1.9617       0.0068      10.0000       0.9359
   2553.3140       3.7845      -0.4311    -999.2500    -999.2500      60.1006    -999.2500    -999.2500       5.4079       0.1039       5.4815       0.0926       4.4518       0.0084      10.0000       0.9798
   2553.4663       3.7752      -0.4738    -999.2500    -999.2500      60.0100    -999.2500    -999.2500       5.5575       0.1021       5.3683       0.0918       6.6090       0.0111      10.0000       0.9945
   2553.6187       3.7826      -0.5019    -999.2500    -999.2500      59.3005    -999.2500    -999.2500       5.9269       0.1042       6.6877       0.0903       6.0703       0.0102      10.0000       0.9945
   2553.7710       3.7845      -0.5140    -999.2500    -999.2500      59.5021    -999.2500    -999.2500       6.2650       0.1004       5.6663       0.0854       5.8980       0.0107      10.0000       0.9506
   2553.9236       3.7845      -0.4273    -999.2500    -999.2500      59.5827    -999.2500    -999.2500       6.4961       0.1033       6.1207       0.0823       6.1947       0.0127      10.0000       1.0642
   2554.0759       3.7752      -0.4097    -999.2500    -999.2500      52.6752    -999.2500    -999.2500       4.9694       0.1014       4.5929       0.0780       4.6335       0.0148      10.0000       1.1250
