#------------------------------------------------------------------------------
#
#   Created by  : [OpenWorks] Log Export Utility (LEXP)
#   Created on  : 2016-05-23 11:57:02
#   Project     : CANT971
#   User        : R5K
#   Interpreter : PEP
#
#------------------------------------------------------------------------------
~VERSION INFORMATION
VERS. 2.0 : CWLS Log ASCII Standard - version 2.0
WRAP.  NO : One line per depth step
~WELL INFORMATION
#MNEMONIC   .UNIT                                           VALUE :DESCRIPTION
#------------------------------------------------------------------------------
STRT        .M                                           493.3184 :START DEPTH
STOP        .M                                          2467.0508 :STOP DEPTH
STEP        .M                                             0.1524 :STEP
NULL        .                                           -999.2500 :NULL VALUE
COMP        .                                   PEMEX EXPL & PROD :COMPANY
WELL        .                                                  63 :WELL
FLD         .                                           CANTARELL :FIELD
LOC         .                                             UNKNOWN :LOCATION
CNTY        .                                      CD. DEL CARMEN :COUNTY
STAT        .                                            CAMPECHE :STATE
CTRY        .                                              MEXICO :COUNTRY
SRVC        .                                             UNKNOWN :SERVICE COMPANY
DATE        .                                             UNKNOWN :LOG DATE
UWI         .                                          3060000615 :UNIQUE WELL ID
XCOORD      .                                       601716.240000 :SURFACE X
YCOORD      .                                      2142344.800000 :SURFACE Y
LAT         .                                           19.373792 :LATITUDE
LON         .                                          -92.031441 :LONGITUDE
ELEV        .M                                            24.0000 :SURFACE ELEV
ELEV_TYPE   .                                                  KB :ELEV TYPE
~CURVE INFORMATION
#MNEMONIC.UNIT        API CODE       : CURVE DESCRIPTION
#------------------------------------------------------------------------------
DEPTH    .M                          : Measured Depth
CALI     .inches      UNKNOWN        : CALI:Import:rC:NONE:v0 (auto-composite)
DRHO     .g/cm3       UNKNOWN        : DRHO:Import:rC:NONE:v0 (auto-composite)
DT       .us/ft       UNKNOWN        : DT:Import:rC:NONE:v0 (auto-composite)
GR       .API         UNKNOWN        : GR:Import:rC:NONE:v0 (auto-composite)
ILD      .ohm.m       UNKNOWN        : ILD:Import:rC:NONE:v0 (auto-composite)
ILM      .ohm.m       UNKNOWN        : ILM:Import:rC:NONE:v0 (auto-composite)
LLD      .ohm.m       UNKNOWN        : LLD:Import:rC:NONE:v0 (auto-composite)
LLS      .ohm.m       UNKNOWN        : LLS:Import:rC:NONE:v0 (auto-composite)
MSFL     .ohm.m       UNKNOWN        : MSFL:Import:rC:NONE:v0 (auto-composite)
NPHI     .v/v_decimal UNKNOWN        : NPHI:Import:rC:NONE:v0 (auto-composite)
PEF      .b/elec      UNKNOWN        : PEF:Import:rC:NONE:v0 (auto-composite)
RHOB     .g/cm3       UNKNOWN        : RHOB:Import:rC:NONE:v0 (auto-composite)
~A     DEPTH         CALI         DRHO           DT           GR          ILD          ILM          LLD          LLS         MSFL         NPHI          PEF         RHOB
# ...
   2300.1729       6.4980       0.1230      48.5535      21.1540    -999.2500    -999.2500     780.1085     375.3064     133.2622       0.0319       3.3571       2.7910
   2300.3252       6.4960       0.1230      48.5570      21.1830    -999.2500    -999.2500     779.7050     374.5980      50.5460       0.0320       3.3090       2.7910
   2300.4775       6.4191       0.1195      48.6783      22.2152    -999.2500    -999.2500     765.6998     351.2249      39.6232       0.0322       3.2351       2.7900
   2300.6299       6.3420       0.1160      48.8000      23.2500    -999.2500    -999.2500     751.6580     327.7910      28.6720       0.0324       3.1610       2.7890
   2300.7825       6.4628       0.1300      48.9729      23.1317    -999.2500    -999.2500     728.2934     316.7750      39.9756       0.0321       3.0192       2.7535
   2300.9348       6.5840       0.1440      49.1460      23.0130    -999.2500    -999.2500     704.8650     305.7290      51.3100       0.0327       2.8770       2.7180
   2301.0872       6.4707       0.1570      49.3639      21.4422    -999.2500    -999.2500     660.2418     287.8191     140.0593       0.0369       3.0957       2.7115
   2301.2395       6.3570       0.1700      49.5820      19.8670    -999.2500    -999.2500     615.4910     269.8580     229.0620       0.0417       3.3150       2.7050
   2301.3918       6.5064       0.1440      50.6123      21.3378    -999.2500    -999.2500     514.6499     229.6729     222.3230       0.0455       3.2840       2.7495
   2301.5444       6.6560       0.1180      51.6440      22.8130    -999.2500    -999.2500     413.6700     189.3680     215.5640       0.0484       3.2530       2.7940
   2301.6968       6.6450       0.0955      53.5706      21.8849    -999.2500    -999.2500     395.7035     180.5053     186.5461       0.0488       3.1286       2.7850
   2301.8491       6.6340       0.0730      55.5000      20.9540    -999.2500    -999.2500     377.7100     171.6150     157.4380       0.0485       3.0040       2.7760
   2302.0015       6.4157       0.0565      55.4261      18.6722    -999.2500    -999.2500     380.4143     172.8355     176.2971       0.0477       3.0140       2.7765
   2302.1541       6.1970       0.0400      55.3520      16.3830    -999.2500    -999.2500     383.1230     174.0580     195.1870       0.0464       3.0240       2.7770
   2302.3064       6.2015       0.0390      54.2689      16.4748    -999.2500    -999.2500     426.5809     193.6353     190.0655       0.0434       3.1639       2.7910
   2302.4587       6.2060       0.0380      53.1840      16.5670    -999.2500    -999.2500     470.1150     213.2470     184.9350       0.0405       3.3040       2.8050
   2302.6111       6.2709       0.0375      52.6675      18.0115    -999.2500    -999.2500     478.0316     216.4160     132.1736       0.0391       3.3175       2.8100
   2302.7637       6.3360       0.0370      52.1500      19.4610    -999.2500    -999.2500     485.9630     219.5910      79.3130       0.0379       3.3310       2.8150
   2302.9160       6.3335       0.0420      51.3128      21.9979    -999.2500    -999.2500     555.0807     241.5365      70.9069       0.0363       3.3465       2.8035
   2303.0684       6.3310       0.0470      50.4740      24.5440    -999.2500    -999.2500     624.3370     263.5260      62.4840       0.0352       3.3620       2.7920
   2303.2207       6.2261       0.0585      49.8482      25.2792    -999.2500    -999.2500     632.7520     272.9634      84.2813       0.0367       3.3720       2.7610
   2303.3730       6.1210       0.0700      49.2210      26.0160    -999.2500    -999.2500     641.1850     282.4210     106.1250       0.0384       3.3820       2.7300
   2303.5256       6.1969       0.0920      48.4114      24.1196    -999.2500    -999.2500     727.1935     312.3452      95.6953       0.0379       3.2941       2.7685
   2303.6780       6.2730       0.1140      47.6000      22.2190    -999.2500    -999.2500     813.3960     342.3370      85.2420       0.0366       3.2060       2.8070
   2303.8303       6.2495       0.1050      48.0749      23.2488    -999.2500    -999.2500     843.6724     352.3940      78.4955       0.0341       3.1266       2.8260
   2303.9827       6.2260       0.0960      48.5510      24.2810    -999.2500    -999.2500     874.0210     362.4750      71.7330       0.0315       3.0470       2.8450
   2304.1353       6.1756       0.0850      50.1125      21.9210    -999.2500    -999.2500     796.7274     328.5970      57.5433       0.0294       3.0485       2.8560
   2304.2876       6.1250       0.0740      51.6780      19.5550    -999.2500    -999.2500     719.2400     294.6340      43.3180       0.0279       3.0500       2.8670
   2304.4399       6.2304       0.0565      52.7875      22.1765    -999.2500    -999.2500     680.7911     274.0556     112.5758       0.0284       2.9881       2.8490
   2304.5923       6.3360       0.0390      53.9000      24.8050    -999.2500    -999.2500     642.2410     253.4230     182.0160       0.0298       2.9260       2.8310
   2304.7449       6.3340       0.0455      53.8535      24.7925    -999.2500    -999.2500     628.7925     249.2757     180.9809       0.0330       3.0194       2.8445
   2304.8972       6.3320       0.0520      53.8070      24.7800    -999.2500    -999.2500     615.3070     245.1170     179.9430       0.0361       3.1130       2.8580
   2305.0496       6.3125       0.0550      53.3038      24.6482    -999.2500    -999.2500     600.0270     230.6923     174.1049       0.0375       3.2089       2.8555
   2305.2019       6.2930       0.0580      52.8000      24.5160    -999.2500    -999.2500     584.7030     216.2260     168.2500       0.0386       3.3050       2.8530
   2305.3542       6.2455       0.0570      52.9499      24.0397    -999.2500    -999.2500     584.7455     214.8031     205.2353       0.0404       3.3525       2.8360
   2305.5068       6.1980       0.0560      53.1000      23.5620    -999.2500    -999.2500     584.7880     213.3760     242.3320       0.0425       3.4000       2.8190
   2305.6592       6.1031       0.0615      52.7348      23.5116    -999.2500    -999.2500     619.7402     223.9983     281.7292       0.0449       3.4060       2.8150
   2305.8115       6.0080       0.0670      52.3690      23.4610    -999.2500    -999.2500     654.7460     234.6540     321.2500       0.0465       3.4120       2.8110
   2305.9639       6.0225       0.0740      51.1550      23.9836    -999.2500    -999.2500     709.5375     249.1415     294.6860       0.0450       3.4560       2.8235
   2306.1165       6.0370       0.0810      49.9390      24.5080    -999.2500    -999.2500     764.4200     263.6530     268.0780       0.0429       3.5000       2.8360
   2306.2688       6.1434       0.0845      49.3700      25.1624    -999.2500    -999.2500     719.4181     247.7067     153.6565       0.0413       3.4620       2.8305
   2306.4211       6.2500       0.0880      48.8000      25.8190    -999.2500    -999.2500     674.3360     231.7320      39.0310       0.0410       3.4240       2.8250
   2306.5735       6.2930       0.0850      49.1187      26.3625    -999.2500    -999.2500     637.4887     214.0184      43.7730       0.0455       3.5099       2.7691
   2306.7261       6.3360       0.0820      49.4380      26.9080    -999.2500    -999.2500     600.5710     196.2710      48.5240       0.0506       3.5960       2.7130
   2306.8784       6.2551       0.0855      50.2432      32.1165    -999.2500    -999.2500     500.7201     158.9365      53.7482       0.0529       3.2793       2.7175
   2307.0308       6.1740       0.0890      51.0500      37.3440    -999.2500    -999.2500     400.6660     121.5260      58.9830       0.0548       2.9620       2.7220
   2307.1831       6.2504       0.1030      51.0355      37.2990    -999.2500    -999.2500     401.9970     122.0529     147.6367       0.0579       2.9650       2.7560
   2307.3354       6.3270       0.1170      51.0210      37.2540    -999.2500    -999.2500     403.3310     122.5810     236.4820       0.0610       2.9680       2.7900
