#------------------------------------------------------------------------------
#
#   Created by  : [OpenWorks] Log Export Utility (LEXP)
#   Created on  : 2016-05-23 11:55:51
#   Project     : CANT971
#   User        : R5K
#   Interpreter : PEP
#
#------------------------------------------------------------------------------
~VERSION INFORMATION
VERS. 2.0 : CWLS Log ASCII Standard - version 2.0
WRAP.  NO : One line per depth step
~WELL INFORMATION
#MNEMONIC   .UNIT                                           VALUE :DESCRIPTION
#------------------------------------------------------------------------------
STRT        .M                                           490.1183 :START DEPTH
STOP        .M                                          2794.5586 :STOP DEPTH
STEP        .M                                             0.1524 :STEP
NULL        .                                           -999.2500 :NULL VALUE
COMP        .                                   PEMEX EXPL & PROD :COMPANY
WELL        .                                                  41 :WELL
FLD         .                                           CANTARELL :FIELD
LOC         .                                             UNKNOWN :LOCATION
CNTY        .                                      CD. DEL CARMEN :COUNTY
STAT        .                                            CAMPECHE :STATE
CTRY        .                                              MEXICO :COUNTRY
SRVC        .                                             UNKNOWN :SERVICE COMPANY
DATE        .                                             UNKNOWN :LOG DATE
UWI         .                                          3060000463 :UNIQUE WELL ID
XCOORD      .                                       601713.000000 :SURFACE X
YCOORD      .                                      2142348.040000 :SURFACE Y
LAT         .                                           19.373822 :LATITUDE
LON         .                                          -92.031472 :LONGITUDE
ELEV        .M                                            24.0000 :SURFACE ELEV
ELEV_TYPE   .                                                  KB :ELEV TYPE
~CURVE INFORMATION
#MNEMONIC.UNIT        API CODE       : CURVE DESCRIPTION
#------------------------------------------------------------------------------
DEPTH    .M                          : Measured Depth
CALI     .inches      UNKNOWN        : CALI:Import:rC:NONE:v0 (auto-composite)
DRHO     .g/cm3       UNKNOWN        : DRHO:Import:rC:NONE:v0 (auto-composite)
DT       .us/ft       UNKNOWN        : DT:Import:rC:NONE:v0 (auto-composite)
GR       .API         UNKNOWN        : GR:Import:rC:NONE:v0 (auto-composite)
ILD      .ohm.m       UNKNOWN        : ILD:Import:rC:NONE:v0 (auto-composite)
LLD      .ohm.m       UNKNOWN        : LLD:Import:rC:NONE:v0 (auto-composite)
LLS      .ohm.m       UNKNOWN        : LLS:Import:rC:NONE:v0 (auto-composite)
NPHI     .v/v_decimal UNKNOWN        : NPHI:Import:rC:NONE:v0 (auto-composite)
PEF      .b/elec      UNKNOWN        : PEF:Import:rC:NONE:v0 (auto-composite)
RHOB     .g/cm3       UNKNOWN        : RHOB:Import:rC:NONE:v0 (auto-composite)
~A     DEPTH         CALI         DRHO           DT           GR          ILD          LLD          LLS         NPHI          PEF         RHOB
# ...
   2606.6494       8.4500       0.0340      55.3900      43.6210    -999.2500     290.6690     257.7760       0.0487       3.6810       2.7760
   2606.8020       8.4630       0.0290      53.9422      43.3502    -999.2500     290.9801     233.7492       0.0499       3.6060       2.7780
   2606.9543       8.4760       0.0240      52.4950      43.0800    -999.2500     291.2910     209.7330       0.0512       3.5310       2.7800
   2607.1067       8.5030       0.0135      51.9349      42.2337    -999.2500     299.8373     210.0285       0.0531       3.3700       2.7725
   2607.2590       8.5300       0.0030      51.3750      41.3890    -999.2500     308.3810     210.3240       0.0554       3.2090       2.7650
   2607.4114       8.5430       0.0100      51.5860      40.4076    -999.2500     327.4879     215.1700       0.0590       3.3160       2.7420
   2607.5640       8.5560       0.0170      51.7970      39.4280    -999.2500     346.5910     220.0150       0.0622       3.4230       2.7190
   2607.7163       8.5560       0.0315      51.6195      38.0463    -999.2500     357.7914     226.4162       0.0620       3.6385       2.6935
   2607.8687       8.5560       0.0460      51.4420      36.6670    -999.2500     368.9910     232.8170       0.0607       3.8540       2.6680
   2608.0210       8.5560       0.0535      51.1310      36.6670    -999.2500     366.7926     231.2525       0.0576       3.7730       2.6870
   2608.1736       8.5560       0.0610      50.8200      36.6670    -999.2500     364.5940     229.6880       0.0541       3.6920       2.7060
   2608.3259       8.5560       0.0580      50.6600      36.6070    -999.2500     356.9397     223.4871       0.0503       3.5400       2.7545
   2608.4783       8.5560       0.0550      50.5000      36.5470    -999.2500     349.2840     217.2850       0.0468       3.3880       2.8030
   2608.6306       8.5560       0.0505      50.3985      36.1132    -999.2500     335.7966     208.6438       0.0449       3.2715       2.7990
   2608.7832       8.5560       0.0460      50.2970      35.6800    -999.2500     322.3050     200.0000       0.0431       3.1550       2.7950
   2608.9355       8.5560       0.0445      50.0710      35.1487    -999.2500     325.7235     200.0155       0.0405       3.0489       2.7995
   2609.0879       8.5560       0.0430      49.8450      34.6180    -999.2500     329.1380     200.0310       0.0383       2.9430       2.8040
   2609.2402       8.5560       0.0385      49.5406      34.1768    -999.2500     337.8660     200.9937       0.0392       2.9905       2.8010
   2609.3926       8.5560       0.0340      49.2360      33.7360    -999.2500     346.5850     201.9570       0.0410       3.0380       2.7980
   2609.5452       8.5560       0.0365      48.9614      31.6846    -999.2500     352.6753     205.6622       0.0449       3.1120       2.7880
   2609.6975       8.5560       0.0390      48.6870      29.6350    -999.2500     358.7600     209.3700       0.0485       3.1860       2.7780
   2609.8499       8.5560       0.0470      49.1872      29.9706    -999.2500     354.9460     207.8381       0.0481       3.2120       2.7685
   2610.0022       8.5560       0.0550      49.6870      30.3060    -999.2500     351.1350     206.3050       0.0469       3.2380       2.7590
   2610.1548       8.5560       0.0630      49.6385      31.1273    -999.2500     351.1350     203.8581       0.0447       3.3325       2.7675
   2610.3071       8.5560       0.0710      49.5900      31.9480    -999.2500     351.1350     201.4090       0.0425       3.4270       2.7760
   2610.4595       8.5560       0.0695      49.5050      33.9456    -999.2500     349.6981     199.9508       0.0411       3.4135       2.7935
   2610.6118       8.5560       0.0680      49.4200      35.9390    -999.2500     348.2620     198.4910       0.0397       3.4000       2.8110
   2610.7644       8.5560       0.0640      49.2805      40.7358    -999.2500     338.2264     195.1373       0.0383       3.3340       2.8240
   2610.9167       8.5560       0.0600      49.1410      45.5230    -999.2500     328.1950     191.7850       0.0372       3.2680       2.8370
   2611.0691       8.5560       0.0545      49.5646      51.1823    -999.2500     331.9955     195.5275       0.0374       3.1625       2.8320
   2611.2214       8.5560       0.0490      49.9880      56.8310    -999.2500     335.7950     199.2690       0.0382       3.0570       2.8270
   2611.3738       8.5560       0.0450      51.0621      60.2100    -999.2500     357.1902     219.3911       0.0412       2.9270       2.8135
   2611.5264       8.5560       0.0410      52.1360      63.5830    -999.2500     378.5820     239.5100       0.0451       2.7970       2.8000
   2611.6787       8.5630       0.0390      54.7475      61.8030    -999.2500     368.6963     238.0760       0.0528       2.8195       2.7790
   2611.8311       8.5700       0.0370      57.3590      60.0260    -999.2500     358.8110     236.6420       0.0615       2.8420       2.7580
   2611.9834       8.5965       0.0320      56.7965      56.5199    -999.2500     291.5910     222.3321       0.0719       2.9480       2.7340
   2612.1360       8.6230       0.0270      56.2340      53.0190    -999.2500     224.3650     208.0210       0.0824       3.0540       2.7100
   2612.2883       8.6450       0.0180      56.4450      50.6273    -999.2500     226.0573     173.6212       0.0912       3.1910       2.6915
   2612.4407       8.6670       0.0090      56.6560      48.2390    -999.2500     227.7500     139.2140       0.0985       3.3280       2.6730
   2612.5930       8.6670       0.0095      57.2499      45.8125    -999.2500     257.4229     144.5791       0.0989       3.4625       2.6625
   2612.7456       8.6670       0.0100      57.8440      43.3890    -999.2500     287.1060     149.9460       0.0979       3.5970       2.6520
   2612.8979       8.6670       0.0125      57.6250      41.0552    -999.2500     364.5800     177.4976       0.0952       3.5475       2.6475
   2613.0503       8.6670       0.0150      57.4060      38.7240    -999.2500     441.9660     205.0620       0.0919       3.4980       2.6430
   2613.2026       8.6670       0.0215      57.7159      37.8095    -999.2500     494.1193     272.2216       0.0863       3.3584       2.6450
   2613.3550       8.6670       0.0280      58.0260      36.8960    -999.2500     546.2200     339.4210       0.0797       3.2190       2.6470
   2613.5076       8.6670       0.0370      58.7948      36.0276    -999.2500     522.2824     339.0601       0.0695       3.0784       2.6590
   2613.6599       8.6670       0.0460      59.5630      35.1600    -999.2500     498.3660     338.6990       0.0601       2.9380       2.6710
   2613.8123       8.6670       0.0565      59.2799      34.3280    -999.2500     457.1389     328.6353       0.0593       2.8850       2.6970
   2613.9646       8.6670       0.0670      58.9970      33.4980    -999.2500     415.9430     318.5630       0.0600       2.8320       2.7230
   2614.1172       8.6670       0.0765      58.4513      34.0927    -999.2500     384.5370     299.8741       0.0625       2.9145       2.7225
   2614.2695       8.6670       0.0860      57.9060      34.6860    -999.2500     353.1510     281.1970       0.0654       2.9970       2.7220
   2614.4219       8.6670       0.0915      58.7657      35.5124    -999.2500     327.4420     270.1787       0.0697       2.9735       2.7205
   2614.5742       8.6670       0.0970      59.6250      36.3370    -999.2500     301.7460     259.1660       0.0741       2.9500       2.7190
   2614.7268       8.6685       0.0935      59.0624      36.9326    -999.2500     306.4254     251.9571       0.0781       2.9040       2.7175
   2614.8792       8.6700       0.0900      58.5000      37.5270    -999.2500     311.1030     244.7510       0.0821       2.8580       2.7160
   2615.0315       8.6925       0.0815      58.9991      39.3927    -999.2500     337.5004     245.2921       0.0859       2.8920       2.7110
