#------------------------------------------------------------------------------
#
#   Created by  : [OpenWorks] Log Export Utility (LEXP)
#   Created on  : 2016-05-23 11:55:55
#   Project     : CANT971
#   User        : R5K
#   Interpreter : PEP
#
#------------------------------------------------------------------------------
~VERSION INFORMATION
VERS. 2.0 : CWLS Log ASCII Standard - version 2.0
WRAP.  NO : One line per depth step
~WELL INFORMATION
#MNEMONIC   .UNIT                                           VALUE :DESCRIPTION
#------------------------------------------------------------------------------
STRT        .M                                          1803.5016 :START DEPTH
STOP        .M                                          3154.9849 :STOP DEPTH
STEP        .M                                             0.1524 :STEP
NULL        .                                           -999.2500 :NULL VALUE
COMP        .                                             UNKNOWN :COMPANY
WELL        .                                             418D-ST :WELL
FLD         .                                             UNKNOWN :FIELD
LOC         .                                             UNKNOWN :LOCATION
CNTY        .                                             UNKNOWN :COUNTY
STAT        .                                             UNKNOWN :STATE
CTRY        .                                             UNKNOWN :COUNTRY
SRVC        .                                             UNKNOWN :SERVICE COMPANY
DATE        .                                             UNKNOWN :LOG DATE
UWI         .                                             418D-ST :UNIQUE WELL ID
XCOORD      .                                       597130.010000 :SURFACE X
YCOORD      .                                      2144879.410000 :SURFACE Y
LAT         .                                           19.396924 :LATITUDE
LON         .                                          -92.074978 :LONGITUDE
ELEV        .M                                             0.0000 :SURFACE ELEV
ELEV_TYPE   .                                                  NA :ELEV TYPE
~CURVE INFORMATION
#MNEMONIC.UNIT        API CODE       : CURVE DESCRIPTION
#------------------------------------------------------------------------------
DEPTH    .M                          : Measured Depth
CALI     .inches      UNKNOWN        : CALI:PETROWORKS:rC:NONE:v1 
CGR      .API         UNKNOWN        : CGR:PETROWORKS:rC:NONE:v1 
DRHO     .g/cm3       UNKNOWN        : DRHO:PETROWORKS:rC:NONE:v1 
DT       .us/ft       UNKNOWN        : DT:PETROWORKS:rC:NONE:v1 
GR       .API         UNKNOWN        : GR:PETROWORKS:rC:NONE:v3 
ILD      .ohm.m       UNKNOWN        : ILD:registros:rC:NONE:v0 (auto-composite)
ILM      .ohm.m       UNKNOWN        : ILM:registros:rC:NONE:v0 (auto-composite)
LLD      .ohm.m       UNKNOWN        : LLD:PETROWORKS:rC:NONE:v2 
LLS      .ohm.m       UNKNOWN        : LLS:PETROWORKS:rC:NONE:v2 
MSFL     .ohm.m       UNKNOWN        : MSFL:PETROWORKS:rC:NONE:v1 
NPHI     .v/v_decimal UNKNOWN        : NPHI:PETROWORKS:rC:NONE:v1 
PEF      .b/elec      UNKNOWN        : PEF:PETROWORKS:rC:NONE:v1 
POTA     .wtpercent   UNKNOWN        : POTA:PETROWORKS:rC:NONE:v1 
RHOB     .g/cm3       UNKNOWN        : RHOB:PETROWORKS:rC:NONE:v1 
THOR     .ppm         UNKNOWN        : THOR:PETROWORKS:rC:NONE:v1 
URAN     .ppm         UNKNOWN        : URAN:PETROWORKS:rC:NONE:v1 
~A     DEPTH         CALI          CGR         DRHO           DT           GR          ILD          ILM          LLD          LLS         MSFL         NPHI          PEF         POTA         RHOB         THOR         URAN
# ...
   2248.9668      14.5234      27.4362      -0.0027      67.4000      63.2025    -999.2500    -999.2500      33.6168      22.7146      77.8125       0.0658       4.6953       0.0123       2.5719       2.7625       4.9808
   2249.1191      14.5313      28.6014      -0.0079      65.4000      65.5975    -999.2500    -999.2500      45.4755      28.9921      53.8125       0.0641       4.9063       0.0127       2.5434       2.9274       5.1521
   2249.2715      14.5313      24.7018       0.0050      65.2000      60.5753    -999.2500    -999.2500      24.3417      18.2574      21.3594       0.0603       4.4414       0.0112       2.4747       2.4037       4.9957
   2249.4241      14.3750      25.0847       0.0187      73.6000      61.6116    -999.2500    -999.2500      12.4251      10.0323      20.8125       0.1289       4.3359       0.0114       2.3607       2.4348       5.0867
   2249.5764      14.3203      23.5961       0.0109      81.8000      59.4947    -999.2500    -999.2500       9.2361       7.2264      23.2969       0.1821       3.9727       0.0109       2.3381       2.2020       4.9992
   2249.7288      15.5547      19.7723       0.0181      87.1000      46.9828    -999.2500    -999.2500       6.5441       5.4247       8.1016       0.1889       4.7227       0.0100       2.4196       1.4687       3.7893
   2249.8811      16.9219      13.0047       0.0620      85.5000      36.4803    -999.2500    -999.2500      10.4814       8.0017     154.8750       0.1040       4.8672       0.0081       2.6303       0.3344       3.2692
   2250.0337      14.3281      13.1190       0.0288      80.4000      36.5697    -999.2500    -999.2500      14.2632      11.2190     154.0000       0.0520       5.4570       0.0082       2.6544       0.3222       3.2657
   2250.1860      14.2500      13.6042      -0.0045      68.5000      36.9612    -999.2500    -999.2500      20.5985      15.0165      83.1875       0.0387       5.3125       0.0086       2.6232       0.3050       3.2527
   2250.3384      14.2656      15.3709      -0.0050      58.5000      39.0771    -999.2500    -999.2500      35.6376      22.4297      66.8125       0.0427       5.1406       0.0095       2.6155       0.4169       3.3013
   2250.4907      14.3906       7.6829      -0.0055      61.7000      30.9107    -999.2500    -999.2500      55.5187      30.7617      51.5938       0.0491       4.7461       0.0038       2.6121       0.6171       3.2347
   2250.6431      14.3906       9.1520      -0.0055      61.7000      33.1198    -999.2500    -999.2500      63.0514      33.4659      36.9063       0.0543       4.6250       0.0045       2.6095       0.7245       3.3377
   2250.7957      14.3906       9.8924      -0.0017      59.7000      34.0021    -999.2500    -999.2500      65.8770      34.3598      38.0313       0.0538       4.3750       0.0051       2.6099       0.7151       3.3575
   2250.9480      14.3906       7.9398      -0.0064      65.8000      31.5001    -999.2500    -999.2500      62.7668      33.2371      47.5313       0.0521       4.3398       0.0041       2.5978       0.5469       3.2810
   2251.1003      14.4375       7.7405      -0.0090      64.5000      31.4591    -999.2500    -999.2500      63.8653      33.4697      48.8438       0.0487       4.3086       0.0040       2.5937       0.5521       3.3030
   2251.2527      14.4063       7.3979      -0.0074      63.3000      31.2384    -999.2500    -999.2500      56.4235      31.0047      48.8125       0.0541       4.4922       0.0037       2.5860       0.5581       3.3200
   2251.4053      14.3906       8.0560      -0.0076      64.7000      32.4019    -999.2500    -999.2500      51.9954      28.7070      45.0000       0.0576       4.6680       0.0039       2.5852       0.6702       3.3904
   2251.5576      14.4688       7.3334      -0.0117      64.1000      31.6653    -999.2500    -999.2500      51.2394      28.6086      75.0000       0.0587       4.9102       0.0035       2.5882       0.6572       3.3885
   2251.7100      14.5078       8.0972      -0.0074      64.3000      32.8509    -999.2500    -999.2500      50.2163      28.0387      59.0625       0.0560       4.9063       0.0037       2.6061       0.7988       3.4472
   2251.8623      14.5469       9.1322      -0.0062      64.4000      34.5315    -999.2500    -999.2500      49.3165      27.9072      33.9688       0.0552       4.8008       0.0039       2.6071       1.0089       3.5371
   2252.0149      14.5469       8.9843      -0.0074      64.6000      34.5272    -999.2500    -999.2500      51.3921      28.5006      31.6875       0.0595       4.7734       0.0035       2.6022       1.1113       3.5571
   2252.1672      14.4297       8.0928      -0.0039      64.8000      33.1312    -999.2500    -999.2500      52.5439      29.5456      29.9375       0.0632       4.9219       0.0032       2.6097       1.0073       3.4868
   2252.3196      14.3906       6.2307      -0.0005      64.7000      30.2252    -999.2500    -999.2500      55.7390      30.8453      31.8125       0.0594       5.0195       0.0024       2.6201       0.7996       3.3415
   2252.4719      14.3906       5.8662       0.0004      64.0000      29.1661    -999.2500    -999.2500      60.5913      32.7279      31.8594       0.0486       4.9922       0.0024       2.6244       0.6906       3.2447
   2252.6243      14.3906       7.4071       0.0006      62.4000      31.0351    -999.2500    -999.2500      66.5647      35.3056      39.0000       0.0428       5.0586       0.0030       2.6177       0.8864       3.2904
   2252.7769      14.3906       8.3612      -0.0000      61.7000      31.9209    -999.2500    -999.2500      77.1526      38.7090      48.0938       0.0390       5.0859       0.0034       2.6166       0.9742       3.2809
   2252.9292      14.3438       8.3490      -0.0027      62.9000      31.2755    -999.2500    -999.2500      81.3968      41.2991      64.4375       0.0384       5.2188       0.0034       2.6171       0.9776       3.1927
   2253.0815      14.2734       8.3614      -0.0001      61.9000      30.4883    -999.2500    -999.2500      87.5252      43.2694     246.2500       0.0322       4.8789       0.0033       2.6114       1.0344       3.0814
   2253.2339      14.2734       7.8371       0.0040      64.1000      28.8368    -999.2500    -999.2500     104.6675      46.5847     208.3750       0.0334       5.0078       0.0029       2.5898       1.0350       2.9244
   2253.3865      14.3047       9.1069       0.0093      63.8000      30.4350    -999.2500    -999.2500     102.2579      45.9384     166.0000       0.0404       4.7578       0.0034       2.5576       1.2065       2.9701
   2253.5388      14.3203       6.4434       0.0286      64.6000      25.6613    -999.2500    -999.2500     102.2848      45.0093     114.8125       0.0419       4.7422       0.0023       2.5390       0.8976       2.6763
   2253.6912      14.5234       8.8653       0.0704      66.1000      29.4893    -999.2500    -999.2500      99.9315      45.0415     122.0625       0.0494       4.3945       0.0032       2.5639       1.2402       2.8721
   2253.8435      14.5469       7.0554       0.0697      65.8000      26.7173    -999.2500    -999.2500      74.8774      38.2271     161.7500       0.0736       4.4531       0.0023       2.5460       1.0659       2.7381
   2253.9961      14.5469      15.8988       0.0565      67.9000      33.0550    -999.2500    -999.2500      61.4549      34.4361      13.5938       0.1142       4.4570       0.0059       2.5351       2.1342       2.3892
   2254.1484      14.6719      14.4594       0.0452      69.1000      29.6487    -999.2500    -999.2500      55.7232      33.4867       9.8984       0.1193       4.7148       0.0057       2.5418       1.7733       2.1153
   2254.3008      14.5469      14.8995       0.0172      67.2000      30.6601    -999.2500    -999.2500      53.2831      32.5289      12.3359       0.0934       4.7734       0.0058       2.5466       1.8752       2.1948
   2254.4531      14.5234      13.2594      -0.0017      67.7000      27.9389    -999.2500    -999.2500      58.1799      34.2338      77.1875       0.0572       5.1250       0.0055       2.5760       1.5241       2.0443
