#------------------------------------------------------------------------------
#
#   Created by  : [OpenWorks] Log Export Utility (LEXP)
#   Created on  : 2016-05-23 11:57:11
#   Project     : CANT971
#   User        : R5K
#   Interpreter : PEP
#
#------------------------------------------------------------------------------
~VERSION INFORMATION
VERS. 2.0 : CWLS Log ASCII Standard - version 2.0
WRAP.  NO : One line per depth step
~WELL INFORMATION
#MNEMONIC   .UNIT                                           VALUE :DESCRIPTION
#------------------------------------------------------------------------------
STRT        .M                                           319.2782 :START DEPTH
STOP        .M                                          2532.8882 :STOP DEPTH
STEP        .M                                             0.1524 :STEP
NULL        .                                           -999.2500 :NULL VALUE
COMP        .                                   PEMEX EXPL & PROD :COMPANY
WELL        .                                                 73A :WELL
FLD         .                                           CANTARELL :FIELD
LOC         .                                             UNKNOWN :LOCATION
CNTY        .                                      CD. DEL CARMEN :COUNTY
STAT        .                                            CAMPECHE :STATE
CTRY        .                                              MEXICO :COUNTRY
SRVC        .                                             UNKNOWN :SERVICE COMPANY
DATE        .                                             UNKNOWN :LOG DATE
UWI         .                                          3060000177 :UNIQUE WELL ID
XCOORD      .                                       599722.890000 :SURFACE X
YCOORD      .                                      2147218.550000 :SURFACE Y
LAT         .                                           19.417934 :LATITUDE
LON         .                                          -92.050165 :LONGITUDE
ELEV        .M                                            27.8000 :SURFACE ELEV
ELEV_TYPE   .                                                  KB :ELEV TYPE
~CURVE INFORMATION
#MNEMONIC.UNIT        API CODE       : CURVE DESCRIPTION
#------------------------------------------------------------------------------
DEPTH    .M                          : Measured Depth
CALI     .inches      UNKNOWN        : CALI:registros:rC:NONE:v0 (auto-composite)
DRHO     .g/cm3       UNKNOWN        : DRHO:registros:rC:NONE:v0 (auto-composite)
DT       .UNKNOWN     UNKNOWN        : DT:registros:rC:NONE:v0 (auto-composite)
GR       .API         UNKNOWN        : GR:registros:rC:NONE:v0 (auto-composite)
ILD      .ohm.m       UNKNOWN        : ILD:registros:rC:NONE:v0 (auto-composite)
LLD      .ohm.m       UNKNOWN        : LLD:registros:rC:NONE:v0 (auto-composite)
LLS      .ohm.m       UNKNOWN        : LLS:registros:rC:NONE:v0 (auto-composite)
MSFL     .ohm.m       UNKNOWN        : MSFL:registros:rC:NONE:v0 (auto-composite)
RHOB     .g/cm3       UNKNOWN        : RHOB:registros:rC:NONE:v0 (auto-composite)
~A     DEPTH         CALI         DRHO           DT           GR          ILD          LLD          LLS         MSFL         RHOB
# ...
    791.7182      20.6861       0.0400     137.6443      58.1565       0.9849    -999.2500    -999.2500    -999.2500       2.1900
    791.8706      20.7850       0.0470     138.3200      57.7980       1.0000    -999.2500    -999.2500    -999.2500       2.2000
    792.0230      20.8715       0.0410     138.1672      57.5259       0.9980    -999.2500    -999.2500    -999.2500       2.1900
    792.1754      20.9580       0.0350     138.0140      57.2530       0.9960    -999.2500    -999.2500    -999.2500       2.1800
    792.3278      21.0190       0.0355     137.5484      56.8916       0.9830    -999.2500    -999.2500    -999.2500       2.1850
    792.4802      21.0800       0.0360     137.0820      56.5290       0.9700    -999.2500    -999.2500    -999.2500       2.1900
    792.6326      21.0560       0.0275     136.6389      56.0442       0.9700    -999.2500    -999.2500    -999.2500       2.1800
    792.7850      21.0320       0.0190     136.1950      55.5580       0.9700    -999.2500    -999.2500    -999.2500       2.1700
    792.9374      20.9490       0.0195     135.9077      55.0387       0.9700    -999.2500    -999.2500    -999.2500       2.1720
    793.0898      20.8660       0.0200     135.6200      54.5180       0.9700    -999.2500    -999.2500    -999.2500       2.1740
    793.2422      20.7630       0.0250     135.7953      53.8549       0.9700    -999.2500    -999.2500    -999.2500       2.1820
    793.3946      20.6600       0.0300     135.9710      53.1900       0.9700    -999.2500    -999.2500    -999.2500       2.1900
    793.5470      20.5349       0.0245     136.3052      53.3862       0.9700    -999.2500    -999.2500    -999.2500       2.1800
    793.6994      20.4100       0.0190     136.6400      53.5830       0.9700    -999.2500    -999.2500    -999.2500       2.1700
    793.8518      20.4580       0.0190     136.1305      55.0344       0.9700    -999.2500    -999.2500    -999.2500       2.1720
    794.0042      20.5060       0.0190     135.6200      56.4900       0.9700    -999.2500    -999.2500    -999.2500       2.1740
    794.1566      20.5930       0.0195     135.6425      55.9658       0.9700    -999.2500    -999.2500    -999.2500       2.1785
    794.3090      20.6800       0.0200     135.6650      55.4400       0.9700    -999.2500    -999.2500    -999.2500       2.1830
    794.4614      20.7440       0.0230     135.7774      55.7895       0.9700    -999.2500    -999.2500    -999.2500       2.1865
    794.6138      20.8080       0.0260     135.8900      56.1400       0.9700    -999.2500    -999.2500    -999.2500       2.1900
    794.7662      21.2892       0.0220     135.8151      55.8499       0.9700    -999.2500    -999.2500    -999.2500       2.1850
    794.9186      21.7700       0.0180     135.7400      55.5590       0.9700    -999.2500    -999.2500    -999.2500       2.1800
    795.0710      21.7125       0.0260     135.5862      54.7506       0.9790    -999.2500    -999.2500    -999.2500       2.1820
    795.2234      21.6550       0.0340     135.4320      53.9400       0.9880    -999.2500    -999.2500    -999.2500       2.1840
    795.3758      21.3273       0.0285     134.7866      54.3050       1.0029    -999.2500    -999.2500    -999.2500       2.1865
    795.5282      21.0000       0.0230     134.1400      54.6710       1.0180    -999.2500    -999.2500    -999.2500       2.1890
    795.6806      21.0750       0.0280     134.2289      55.9537       1.0235    -999.2500    -999.2500    -999.2500       2.1930
    795.8330      21.1500       0.0330     134.3180      57.2400       1.0290    -999.2500    -999.2500    -999.2500       2.1970
    795.9854      21.0900       0.0315     134.7036      56.3788       1.0295    -999.2500    -999.2500    -999.2500       2.2025
    796.1378      21.0300       0.0300     135.0900      55.5150       1.0300    -999.2500    -999.2500    -999.2500       2.2080
    796.2902      21.2451       0.0275     135.0550      51.8133       1.0205    -999.2500    -999.2500    -999.2500       2.2090
    796.4426      21.4600       0.0250     135.0200      48.1000       1.0110    -999.2500    -999.2500    -999.2500       2.2100
    796.5950      21.3925       0.0190     135.0200      48.7636       0.9906    -999.2500    -999.2500    -999.2500       2.2100
    796.7474      21.3250       0.0130     135.0200      49.4290       0.9700    -999.2500    -999.2500    -999.2500       2.2100
    796.8998      21.1559       0.0185     134.9700      50.4522       0.9700    -999.2500    -999.2500    -999.2500       2.2120
    797.0522      20.9870       0.0240     134.9200      51.4780       0.9700    -999.2500    -999.2500    -999.2500       2.2140
    797.2046      20.6083       0.0215     134.9200      51.9648       0.9700    -999.2500    -999.2500    -999.2500       2.2220
    797.3570      20.2300       0.0190     134.9200      52.4530       0.9700    -999.2500    -999.2500    -999.2500       2.2300
    797.5094      20.3451       0.0190     134.9700      52.7631       0.9700    -999.2500    -999.2500    -999.2500       2.2280
    797.6618      20.4600       0.0190     135.0200      53.0740       0.9700    -999.2500    -999.2500    -999.2500       2.2260
    797.8142      20.9853       0.0160     134.9701      53.2492       0.9700    -999.2500    -999.2500    -999.2500       2.2180
    797.9666      21.5100       0.0130     134.9200      53.4250       0.9700    -999.2500    -999.2500    -999.2500       2.2100
    798.1190      21.4004       0.0165     134.9385      54.0066       0.9810    -999.2500    -999.2500    -999.2500       2.2150
    798.2714      21.2910       0.0200     134.9570      54.5900       0.9920    -999.2500    -999.2500    -999.2500       2.2200
    798.4238      20.7353       0.0185     135.0235      54.4866       1.0074    -999.2500    -999.2500    -999.2500       2.2150
    798.5762      20.1800       0.0170     135.0900      54.3830       1.0230    -999.2500    -999.2500    -999.2500       2.2100
    798.7286      20.2800       0.0175     135.0765      54.2142       1.0265    -999.2500    -999.2500    -999.2500       2.2120
    798.8810      20.3800       0.0180     135.0630      54.0450       1.0300    -999.2500    -999.2500    -999.2500       2.2140
    799.0334      20.0749       0.0220     135.0016      53.2935       1.0300    -999.2500    -999.2500    -999.2500       2.2220
    799.1858      19.7700       0.0260     134.9400      52.5400       1.0300    -999.2500    -999.2500    -999.2500       2.2300
    799.3382      19.9001       0.0365     134.9555      52.6359       1.0549    -999.2500    -999.2500    -999.2500       2.2405
    799.4906      20.0300       0.0470     134.9710      52.7320       1.0800    -999.2500    -999.2500    -999.2500       2.2510
    799.6430      19.8854       0.0460     134.9910      54.7591       1.0800    -999.2500    -999.2500    -999.2500       2.2570
    799.7954      19.7410       0.0450     135.0110      56.7920    -999.2500    -999.2500    -999.2500    -999.2500       2.2630
    799.9478      19.4363       0.0430     135.0155      55.3207    -999.2500    -999.2500    -999.2500    -999.2500       2.2580
    800.1002      19.1320       0.0410     135.0200      53.8450    -999.2500    -999.2500    -999.2500    -999.2500       2.2530
    800.2526      19.4786       0.0365     134.9825      53.8730    -999.2500    -999.2500    -999.2500    -999.2500       2.2375
    800.4050      19.8250       0.0320     134.9450      53.9010    -999.2500    -999.2500    -999.2500    -999.2500       2.2220
    800.5574      19.6384       0.0370     134.9825      54.0039    -999.2500    -999.2500    -999.2500    -999.2500       2.2245
    800.7098      19.4520       0.0420     135.0200      54.1070    -999.2500    -999.2500    -999.2500    -999.2500       2.2270
    800.8622      18.9713       0.0550     135.0075      54.6887    -999.2500    -999.2500    -999.2500    -999.2500       2.2325
    801.0146      18.4910       0.0680     134.9950      55.2720    -999.2500    -999.2500    -999.2500    -999.2500       2.2380
