#------------------------------------------------------------------------------
#
#   Created by  : [OpenWorks] Log Export Utility (LEXP)
#   Created on  : 2016-05-23 11:52:02
#   Project     : CANT971
#   User        : R5K
#   Interpreter : PEP
#
#------------------------------------------------------------------------------
~VERSION INFORMATION
VERS. 2.0 : CWLS Log ASCII Standard - version 2.0
WRAP.  NO : One line per depth step
~WELL INFORMATION
#MNEMONIC   .UNIT                                           VALUE :DESCRIPTION
#------------------------------------------------------------------------------
STRT        .M                                           300.3808 :START DEPTH
STOP        .M                                          2575.7129 :STOP DEPTH
STEP        .M                                             0.1524 :STEP
NULL        .                                           -999.2500 :NULL VALUE
COMP        .                                   PEMEX EXPL & PROD :COMPANY
WELL        .                                                  19 :WELL
FLD         .                                           CANTARELL :FIELD
LOC         .                                             UNKNOWN :LOCATION
CNTY        .                                      CD. DEL CARMEN :COUNTY
STAT        .                                            CAMPECHE :STATE
CTRY        .                                              MEXICO :COUNTRY
SRVC        .                                             UNKNOWN :SERVICE COMPANY
DATE        .                                             UNKNOWN :LOG DATE
UWI         .                                          3060000151 :UNIQUE WELL ID
XCOORD      .                                       603362.598000 :SURFACE X
YCOORD      .                                      2145096.350000 :SURFACE Y
LAT         .                                           19.398572 :LATITUDE
LON         .                                          -92.015617 :LONGITUDE
ELEV        .M                                            27.1400 :SURFACE ELEV
ELEV_TYPE   .                                                  KB :ELEV TYPE
~CURVE INFORMATION
#MNEMONIC.UNIT        API CODE       : CURVE DESCRIPTION
#------------------------------------------------------------------------------
DEPTH    .M                          : Measured Depth
CALI     .inches      UNKNOWN        : CALI:Import:rC:NONE:v0 (auto-composite)
DRHO     .g/cm3       UNKNOWN        : DRHO:Import:rC:NONE:v0 (auto-composite)
DT       .us/ft       UNKNOWN        : DT:Import:rC:NONE:v0 (auto-composite)
GR       .API         UNKNOWN        : GR:Import:rC:NONE:v0 (auto-composite)
ILD      .ohm.m       UNKNOWN        : ILD:Import:rC:NONE:v0 (auto-composite)
LLD      .ohm.m       UNKNOWN        : LLD:Import:rC:NONE:v0 (auto-composite)
LLS      .ohm.m       UNKNOWN        : LLS:Import:rC:NONE:v0 (auto-composite)
NPHI     .v/v_decimal UNKNOWN        : NPHI:Import:rC:NONE:v0 (auto-composite)
RHOB     .g/cm3       UNKNOWN        : RHOB:RHOB-Load:rC:NONE:v0 (auto-composite)
~A     DEPTH         CALI         DRHO           DT           GR          ILD          LLD          LLS         NPHI         RHOB
# ...
   2076.7551       5.8890       0.0335      67.3452      26.2973       0.0010      20.4429      15.8333       0.1498       2.4315
   2076.9077       5.8890       0.0230      60.5250      27.3230       0.0010      13.0800      19.9250       0.1413       2.4170
   2077.0601       5.8890       0.0040      67.6625      28.2550       0.0010      21.9402      26.4275       0.1301       2.4385
   2077.2124       5.8890      -0.0150      74.7690      29.1830       0.0010      30.7760      32.8810       0.1191       2.4600
   2077.3647       5.8890      -0.0215      84.0541      31.5976       0.0010      26.8288      24.6917       0.1115       2.4930
   2077.5171       5.8890      -0.0280      93.3000      34.0020       0.0010      22.8920      16.5630       0.1056       2.5260
   2077.6697       5.8890       0.0005      85.8628      35.4304       0.0010      16.0805      10.4372       0.1006       2.5165
   2077.8220       5.8890       0.0290      78.4560      36.8530       0.0010       9.2860       4.3560       0.0966       2.5070
   2077.9744       5.8890       0.0525      79.1574      35.7914       0.0010       6.3031       3.2395       0.0941       2.4965
   2078.1267       5.8890       0.0760      79.8560      34.7340       0.0010       3.3320       2.1310       0.0924       2.4860
   2078.2793       5.8890       0.0475      80.6225      33.1422       0.0010       5.9089       2.7261       0.0913       2.5185
   2078.4316       5.8890       0.0190      81.3860      31.5590       0.0010       8.4760       3.3170       0.0905       2.5510
   2078.5840       5.9888       0.0260      89.3373      30.9649       0.0010      16.5260       5.0580       0.0902       2.5660
   2078.7363       6.0880       0.0330      97.2590      30.3740       0.0010      24.5460       6.7870       0.0898       2.5810
   2078.8889       6.1421       0.0630      91.3316      31.8589       0.0010      31.4850       7.4869       0.0888       2.5605
   2079.0413       6.1960       0.0930      85.4350      33.3360       0.0010      38.3990       8.1820       0.0903       2.5400
   2079.1936       6.0727       0.0905      80.4699      36.6203       0.0010      30.0014       7.5464       0.0983       2.4865
   2079.3459       5.9500       0.0880      75.5300      39.8880       0.0010      21.6330       6.9150       0.1121       2.4330
   2079.4983       6.0237       0.1000      79.3123      43.9621       0.0010      15.6400       6.5488       0.1328       2.3594
   2079.6509       6.0970       0.1120      83.0760      48.0160       0.0010       9.6670       6.1850       0.1575       2.2860
   2079.8032       6.3621       0.1455      88.6810      46.3059       0.0010       8.4060       5.9071       0.1846       2.2220
   2079.9556       6.6260       0.1790      94.2590      44.6040       0.0010       7.1490       5.6310       0.2111       2.1580
   2080.1079       7.0846       0.1310      89.6818      41.6406       0.0010       6.4244       5.0256       0.2340       2.1105
   2080.2605       7.5410       0.0830      85.1260      38.6910       0.0010       5.7020       4.4240       0.2513       2.0630
   2080.4128       7.4814       0.0320      77.2009      36.6368       0.0010       6.3565       5.4276       0.2590       2.0930
   2080.5652       7.4220      -0.0190      69.3120      34.5920       0.0010       7.0090       6.4250       0.2541       2.1230
   2080.7175       7.1028      -0.0180      63.9005      32.8662       0.0010      16.8925      10.6511       0.2279       2.2275
   2080.8701       6.7850      -0.0170      58.5130      31.1480       0.0010      26.7480      14.8450       0.1907       2.3320
   2081.0225       6.5059      -0.0060      56.7848      30.6214       0.0010      42.3792      23.7569       0.1478       2.4440
   2081.1748       6.2280       0.0050      55.0640      30.0970       0.0010      57.9680      32.6020       0.1078       2.5560
   2081.3271       6.1138       0.0180      54.1691      29.6691       0.0010      61.7324      40.8032       0.0806       2.6150
   2081.4795       6.0000       0.0310      53.2780      29.2430       0.0010      65.4870      48.9440       0.0628       2.6740
   2081.6321       6.0225       0.0405      54.1513      28.7124       0.0010      62.9769      47.7492       0.0556       2.6715
   2081.7844       6.0450       0.0500      55.0210      28.1840       0.0010      60.4730      46.5630       0.0539       2.6690
   2081.9368       6.1442       0.0410      56.6176      27.9806       0.0010      52.9627      40.5205       0.0552       2.6660
   2082.0891       6.2430       0.0320      58.2080      27.7780       0.0010      45.4820      34.5210       0.0579       2.6630
   2082.2417       6.4932       0.0175      58.6894      27.7780       0.0010      36.5615      30.0333       0.0614       2.6610
   2082.3940       6.7420       0.0030      59.1690      27.7780       0.0010      27.6750      25.5770       0.0652       2.6590
   2082.5464       6.7164       0.0030      57.9863      28.4473       0.0010      31.2215      28.8156       0.0693       2.6520
   2082.6987       6.6910       0.0030      56.8080      29.1130       0.0010      34.7550      32.0320       0.0728       2.6450
   2082.8513       6.6699      -0.0000      55.7919      30.3071       0.0010      44.0921      41.1212       0.0750       2.6535
   2083.0037       6.6490      -0.0030      54.7810      31.4950       0.0010      53.3960      50.1490       0.0756       2.6620
   2083.1560       6.6109      -0.0025      55.1239      32.6770       0.0010      55.7536      53.8402       0.0735       2.6635
   2083.3083       6.5730      -0.0020      55.4650      33.8530       0.0010      58.1030      57.5070       0.0705       2.6650
   2083.4607       6.3946       0.0015      54.1608      35.3828       0.0010      53.7949      54.8815       0.0679       2.6575
   2083.6133       6.2170       0.0050      52.8630      36.9050       0.0010      49.5010      52.2730       0.0662       2.6500
   2083.7656       6.0807       0.0135      51.2882      38.0507       0.0010      54.5556      51.2522       0.0667       2.6395
   2083.9180       5.9450       0.0220      49.7210      39.1910       0.0010      59.5940      50.2380       0.0732       2.6290
   2084.0703       5.9169       0.0185      48.3147      39.5584       0.0010      78.4744      59.8109       0.0929       2.5715
   2084.2229       5.8890       0.0150      46.9150      39.9240       0.0010      97.2970      69.3240       0.1212       2.5140
   2084.3752       5.9000       0.0080      48.1282      39.4589       0.0010      68.2433      85.5457       0.1582       2.3959
   2084.5276       5.9110       0.0010      49.3360      38.9960       0.0010      39.2750     101.6680       0.1959       2.2780
   2084.6799       5.9270      -0.0035      54.2158      38.4483       0.0010      23.6100      74.1912       0.2265       2.3095
   2084.8325       5.9430      -0.0080      59.0740      37.9030       0.0010       7.9890      46.9230       0.2505       2.3410
   2084.9849       5.9235       0.0025      70.9990      38.1185       0.0010       5.5432      29.3404       0.2643       2.3970
   2085.1372       5.9040       0.0130      82.8730      38.3330       0.0010       3.1040      11.8890       0.2642       2.4530
   2085.2896       5.8965      -0.0130      75.4275      42.7667       0.0010       5.7604       7.1631       0.2390       2.4215
   2085.4419       5.8890      -0.0390      68.0130      47.1820       0.0010       8.4100       2.4720       0.2036       2.3900
   2085.5945       5.8890      -0.0290      74.4675      55.2292       0.0010      10.0925      16.4078       0.1669       2.3635
   2085.7468       5.8890      -0.0190      80.8960      63.2440       0.0010      11.7710      30.2430       0.1455       2.3370
   2085.8992       5.8890       0.0040      90.5929      66.0720       0.0010       8.4325      23.0123       0.1656       2.3595
   2086.0515       5.8890       0.0270     100.2520      68.8890       0.0010       5.1070      15.8330       0.2034       2.3820
