#------------------------------------------------------------------------------
#
#   Created by  : [OpenWorks] Log Export Utility (LEXP)
#   Created on  : 2016-05-23 11:50:15
#   Project     : CANT971
#   User        : R5K
#   Interpreter : PEP
#
#------------------------------------------------------------------------------
~VERSION INFORMATION
VERS. 2.0 : CWLS Log ASCII Standard - version 2.0
WRAP.  NO : One line per depth step
~WELL INFORMATION
#MNEMONIC   .UNIT                                           VALUE :DESCRIPTION
#------------------------------------------------------------------------------
STRT        .M                                          2144.1199 :START DEPTH
STOP        .M                                          3100.2776 :STOP DEPTH
STEP        .M                                             0.1524 :STEP
NULL        .                                           -999.2500 :NULL VALUE
COMP        .                                   PEMEX EXPL & PROD :COMPANY
WELL        .                                               1004D :WELL
FLD         .                                           CANTARELL :FIELD
LOC         .                                             UNKNOWN :LOCATION
CNTY        .                                      CD. DEL CARMEN :COUNTY
STAT        .                                            CAMPECHE :STATE
CTRY        .                                              MEXICO :COUNTRY
SRVC        .                                             UNKNOWN :SERVICE COMPANY
DATE        .                                             UNKNOWN :LOG DATE
UWI         .                                               1004D :UNIQUE WELL ID
XCOORD      .                                       594534.600000 :SURFACE X
YCOORD      .                                      2142053.350000 :SURFACE Y
LAT         .                                           19.371510 :LATITUDE
LON         .                                          -92.099834 :LONGITUDE
ELEV        .M                                            30.0000 :SURFACE ELEV
ELEV_TYPE   .                                                  KB :ELEV TYPE
~CURVE INFORMATION
#MNEMONIC.UNIT        API CODE       : CURVE DESCRIPTION
#------------------------------------------------------------------------------
DEPTH    .M                          : Measured Depth
CALI     .in          UNKNOWN        : CALI:litodensidad:rC:NONE:v0 (auto-composite)
DRHO     .g/cm3       UNKNOWN        : DRHO:litodensidad:rC:NONE:v0 (auto-composite)
DT       .us/ft       UNKNOWN        : DT:DT-Load:rC:NONE:v0 (auto-composite)
GR       .API         UNKNOWN        : GR:TMDL:rC:NONE:v0 (auto-composite)
GR-LWD   .API         UNKNOWN        : GR-LWD:PETROWORKS:rC:NONE:v1 
ILD-LWD  .ohm.m       UNKNOWN        : ILD-LWD:resistivos-LWD:rC:NONE:v0 (auto-composite)
ILM-LWD  .ohm.m       UNKNOWN        : ILM-LWD:resistivos-LWD:rC:NONE:v0 (auto-composite)
LLD-LWD  .ohm.m       UNKNOWN        : LLD-LWD:resistivos-LWD:rC:NONE:v0 (auto-composite)
LLS      .ohm.m       UNKNOWN        : LLS:resistivos:rC:NONE:v0 (auto-composite)
LLS-LWD  .ohm.m       UNKNOWN        : LLS-LWD:resistivos-LWD:rC:NONE:v0 (auto-composite)
MSFL     .ohm.m       UNKNOWN        : MSFL:resistivos:rC:NONE:v0 (auto-composite)
MSFL-LWD .ohm.m       UNKNOWN        : MSFL-LWD:resistivos-LWD:rC:NONE:v0 (auto-composite)
NPHI     .v/v_decimal UNKNOWN        : NPHI:PETROWORKS:rC:NONE:v2 
PEF      .b/elec      UNKNOWN        : PEF:litodensidad:rC:NONE:v0 (auto-composite)
RHOB     .g/cm3       UNKNOWN        : RHOB:litodensidad:rC:NONE:v0 (auto-composite)
~A     DEPTH         CALI         DRHO           DT           GR       GR-LWD      ILD-LWD      ILM-LWD      LLD-LWD          LLS      LLS-LWD         MSFL     MSFL-LWD         NPHI          PEF         RHOB
# ...
   2696.8748       8.5291       1.7045    -999.2500    -999.2500      34.6855    -999.2500    -999.2500     595.3102       0.0951     266.6421       0.0300      86.6033       0.2316      10.0000       4.4215
   2697.0271       8.5272       1.7547    -999.2500    -999.2500      34.6937    -999.2500    -999.2500    1480.3258       0.0992     948.1269       0.0300     564.8078       0.3710      10.0000       4.3382
   2697.1794       8.5365       1.7842    -999.2500    -999.2500      31.2868    -999.2500    -999.2500     178.4810       0.1002     122.4576       0.0300      98.9024       0.3665      10.0000       4.4096
   2697.3318       8.5291       1.6748    -999.2500    -999.2500      25.9394    -999.2500    -999.2500    2972.8625       0.0953    2113.7231       0.0301      89.9537       0.2180      10.0000       4.5069
   2697.4844       8.5272       1.5852    -999.2500    -999.2500      23.2490    -999.2500    -999.2500    1563.6151       0.0976     761.2029       0.0301      98.8389       0.1111      10.0000       4.6007
   2697.6367       8.5458       1.5112    -999.2500    -999.2500      21.2786    -999.2500    -999.2500    1053.1644       0.0960     941.2426       0.0301     108.6012       0.0734      10.0000       4.6288
   2697.7891       8.5310       1.4692    -999.2500    -999.2500      20.3138    -999.2500    -999.2500    1551.8679       0.0989    1163.8636       0.0301     119.3272       0.0670      10.0000       4.6288
   2697.9414       8.5272       1.4581    -999.2500    -999.2500      23.9481    -999.2500    -999.2500    2286.7261       0.0973    1439.1368       0.0301     131.1114       0.0625      10.0000       4.6288
   2698.0940       8.5272       1.4714    -999.2500    -999.2500      28.9342    -999.2500    -999.2500    3369.5659       0.1013    1779.5159       0.0300     144.0600       0.0701      10.0000       4.6288
   2698.2463       8.5272       1.4866      58.1506    -999.2500      34.1594    -999.2500    -999.2500    4965.1704       0.0987    2200.3979       0.0300     381.2379       0.0785      10.0000       4.6288
   2698.3987       8.5272       1.4940      58.1506    -999.2500      34.1594    -999.2500    -999.2500    7316.3511       0.0998    1303.3793       0.0301     247.5808       0.0786      10.0000       4.6288
   2698.5510       8.5365       1.4609      58.1506    -999.2500      34.1594    -999.2500    -999.2500    1820.3271       0.0994     707.3496       0.0301     259.2569       0.0681      10.0000       4.6288
   2698.7034       8.5291       1.4623      58.1506    -999.2500      34.1594    -999.2500    -999.2500    2181.2522       0.0993     709.3113       0.0301     264.8604       0.0562      10.0000       4.6288
   2698.8560       8.5272       1.4774      58.1506    -999.2500      32.7563    -999.2500    -999.2500    2424.9265       0.1003     707.1736       0.0300     335.8335       0.0523      10.0000       4.6288
   2699.0083       8.5272       1.5235      58.1506    -999.2500      31.7315    -999.2500    -999.2500    2206.9922       0.1015    1067.9559       0.0300     480.6143       0.0676      10.0000       4.6288
   2699.1606       8.5365       1.5600      58.1506    -999.2500      32.4386    -999.2500    -999.2500     645.3434       0.1002     524.9038       0.0300      16.4987       0.0839      10.0000       4.6288
   2699.3130       8.5291       1.5484      58.1506    -999.2500      34.5488    -999.2500    -999.2500     463.4398       0.1010      37.7942       0.0300       9.8669       0.0955      10.0000       4.6288
   2699.4656       8.5272       1.5249      58.1506    -999.2500      36.8175    -999.2500    -999.2500     116.0512       0.0981      26.3498       0.0300       7.7987       0.0841      10.0000       4.6288
   2699.6179       8.5272       1.5032      58.1506    -999.2500      39.4982    -999.2500    -999.2500    1061.2098       0.0989     142.8343       0.0300      29.4719       0.0719      10.0000       4.6288
   2699.7703       8.5272       1.5032      58.1506    -999.2500      41.5386    -999.2500    -999.2500    1832.6802       0.0986     891.8110       0.0300     158.2323       0.0613      10.0000       4.6288
   2699.9226       8.5272       1.5083      58.1506    -999.2500      40.1288    -999.2500    -999.2500    3116.6960       0.0958    2890.0781       0.0300     939.1064       0.0587      10.0000       4.6288
   2700.0750       8.5085       1.4987      58.1506    -999.2500      36.4910    -999.2500    -999.2500    4461.7593       0.0999    3151.5730       0.0300     366.1098       0.0602      10.0000       4.6288
   2700.2275       8.5234       1.4530      58.1506    -999.2500      34.0137    -999.2500    -999.2500    2817.0581       0.0982    1005.5330       0.0300      46.7950       0.0622      10.0000       4.6288
   2700.3799       8.5272       1.4281      58.1506    -999.2500      34.9056    -999.2500    -999.2500    5756.2324       0.0957    2771.6143       0.0300    1309.1537       0.0669      10.0000       4.6288
   2700.5322       8.5272       1.4363      58.1506    -999.2500      35.2804    -999.2500    -999.2500    7435.3389       0.0959    7166.3994       0.0300    4116.3696       0.0834      10.0000       4.6288
   2700.6846       8.5272       1.4568      58.1506    -999.2500      35.4230    -999.2500    -999.2500    2014.0077       0.1001    1804.7828       0.0300     756.4934       0.0839      10.0000       4.6288
   2700.8372       8.5272       1.4803      58.1506    -999.2500      35.7081    -999.2500    -999.2500   12260.5898       0.0963   11718.6689       0.0300     964.5096       0.0818      10.0000       4.6288
   2700.9895       8.5272       1.4847      58.1506    -999.2500      35.4281    -999.2500    -999.2500   12260.5898       0.1005    9261.7998       0.0300    1069.8888       0.0695      10.0000       4.6288
   2701.1418       8.5178       1.5271      58.1506    -999.2500      34.2790    -999.2500    -999.2500    6272.3779       0.0981    3280.5686       0.0300     632.2547       0.0749      10.0000       4.6288
   2701.2942       8.5253       1.5205      58.1506    -999.2500      32.8893    -999.2500    -999.2500    6508.3745       0.1016    4548.6851       0.0300     757.6337       0.0703      10.0000       4.6288
   2701.4468       8.5272       1.5243      58.1506    -999.2500      32.8666    -999.2500    -999.2500    8712.8311       0.0978    4353.1021       0.0302     463.4460       0.0613      10.0000       4.6288
   2701.5991       8.5272       1.5215      58.1506    -999.2500      35.4061    -999.2500    -999.2500   11073.2471       0.0992    2551.7349       0.0302     224.1573       0.0549      10.0000       4.6288
   2701.7515       8.5272       1.5689      58.1506    -999.2500      37.3215    -999.2500    -999.2500    7350.9038       0.1003    1862.1765       0.0303     205.8557       0.0589      10.0000       4.6288
   2701.9038       8.5272       1.6034      58.1506    -999.2500      38.6604    -999.2500    -999.2500    9481.3994       0.0988    2744.8828       0.0301     209.4192       0.0674      10.0000       4.6288
   2702.0562       8.5272       1.6261      58.1506    -999.2500      35.7131    -999.2500    -999.2500    7845.7827       0.1015    1899.6086       0.0300     307.8426       0.0695      10.0000       4.6288
   2702.2087       8.5272       1.6300      58.1506    -999.2500      33.3666    -999.2500    -999.2500   10291.7402       0.0999    3885.3943       0.0300     290.3624       0.0801      10.0000       4.6288
   2702.3611       8.5272       1.6219      58.1506    -999.2500      31.1315    -999.2500    -999.2500   12260.5898       0.1001    5291.7881       0.0300     580.7653       0.0989      10.0000       4.6288
   2702.5134       8.5085       1.5918      58.1506    -999.2500      35.3671    -999.2500    -999.2500    7389.4712       0.0993    4560.2769       0.0300     178.2379       0.0970      10.0000       4.6288
   2702.6658       8.5234       1.5462      58.1506    -999.2500      46.7420    -999.2500    -999.2500   12260.5898       0.0994   12121.1426       0.0300     250.2930       0.0819      10.0000       4.6288
