#------------------------------------------------------------------------------
#
#   Created by  : [OpenWorks] Log Export Utility (LEXP)
#   Created on  : 2016-05-12 17:01:19
#   Project     : CANT971
#   User        : R5K
#   Interpreter : PEP
#
#------------------------------------------------------------------------------
~VERSION INFORMATION
VERS. 2.0 : CWLS Log ASCII Standard - version 2.0
WRAP.  NO : One line per depth step
~WELL INFORMATION
#MNEMONIC   .UNIT                                           VALUE :DESCRIPTION
#------------------------------------------------------------------------------
STRT        .M                                           300.0760 :START DEPTH
STOP        .M                                          2081.9368 :STOP DEPTH
STEP        .M                                             0.1524 :STEP
NULL        .                                           -999.2500 :NULL VALUE
COMP        .                                   PEMEX EXPL & PROD :COMPANY
WELL        .                                                  37 :WELL
FLD         .                                           CANTARELL :FIELD
LOC         .                                             UNKNOWN :LOCATION
CNTY        .                                      CD. DEL CARMEN :COUNTY
STAT        .                                            CAMPECHE :STATE
CTRY        .                                              MEXICO :COUNTRY
SRVC        .                                             UNKNOWN :SERVICE COMPANY
DATE        .                                             UNKNOWN :LOG DATE
UWI         .                                          3060000160 :UNIQUE WELL ID
XCOORD      .                                       602154.560000 :SURFACE X
YCOORD      .                                      2147169.070000 :SURFACE Y
LAT         .                                           19.417364 :LATITUDE
LON         .                                          -92.027009 :LONGITUDE
ELEV        .M                                            28.1700 :SURFACE ELEV
ELEV_TYPE   .                                                  KB :ELEV TYPE
~CURVE INFORMATION
#MNEMONIC.UNIT        API CODE       : CURVE DESCRIPTION
#------------------------------------------------------------------------------
DEPTH    .M                          : Measured Depth
CALI     .inches      UNKNOWN        : CALI:Import:rC:NONE:v0 (auto-composite)
DRHO     .g/cm3       UNKNOWN        : DRHO:Import:rC:NONE:v0 (auto-composite)
DT       .us/ft       UNKNOWN        : DT:Import:rC:NONE:v0 (auto-composite)
GR       .API         UNKNOWN        : GR:Import:rC:NONE:v0 (auto-composite)
ILD      .ohm.m       UNKNOWN        : ILD:Import:rC:NONE:v0 (auto-composite)
NPHI     .v/v_decimal UNKNOWN        : NPHI:Import:rC:NONE:v0 (auto-composite)
RHOB     .g/cm3       UNKNOWN        : RHOB:Import:rC:NONE:v0 (auto-composite)
~A     DEPTH         CALI         DRHO           DT           GR          ILD         NPHI         RHOB
# ...
   2025.0916       6.2430      -0.0170      61.2051      22.3889      82.8775       9.7702       2.6310
   2025.2440       6.2430      -0.0230      60.5690      22.1890      27.1100       9.3610       2.6330
   2025.3964       6.2430      -0.0180      60.5955      22.0889     961.2325       9.4110       2.6330
   2025.5488       6.2430      -0.0130      60.6220      21.9890    1894.2830       9.4610       2.6330
   2025.7012       6.1909      -0.0050      60.9202      22.3892    1859.8524       9.3710       2.6620
   2025.8536       6.1390       0.0030      61.2180      22.7890    1825.4570       9.2810       2.6910
   2026.0060       6.1395       0.0055      62.2054      22.3887     930.1866       9.5322       2.7015
   2026.1584       6.1400       0.0080      63.1920      21.9890      35.7190       9.7830       2.7120
   2026.3108       6.1916       0.0005      63.8342      22.9897      44.8740      10.5234       2.6985
   2026.4631       6.2430      -0.0070      64.4760      23.9880      54.0220      11.2620       2.6850
   2026.6156       6.1909      -0.0295      65.2918      23.5876      63.2051      11.9938       2.6415
   2026.7679       6.1390      -0.0520      66.1070      23.1880      72.3750      12.7240       2.5980
   2026.9204       6.4238      -0.0455      68.3721      23.4883    1047.3094      14.4143       2.5770
   2027.0728       6.7080      -0.0390      70.6360      23.7880    2020.1770      16.1010       2.5560
   2027.2252       6.4753      -0.0420      70.6115      24.5883    1829.9637      15.5194       2.5670
   2027.3776       6.2430      -0.0450      70.5870      25.3870    1640.1300      14.9390       2.5780
   2027.5300       6.3461      -0.0225      69.3809      25.0372     841.5861      14.2689       2.5940
   2027.6824       6.4490       0.0000      68.1770      24.6880      44.5350      13.6000       2.6100
   2027.8348       6.3459      -0.0045      66.4810      25.7424     594.4760      13.0385       2.6275
   2027.9872       6.2430      -0.0090      64.7880      26.7950    1143.4580      12.4780       2.6450
   2028.1396       6.2430      -0.0085      63.1432      29.2415    1428.0168      11.4887       2.6380
   2028.2920       6.2430      -0.0080      61.5010      31.6840    1712.1150      10.5010       2.6310
   2028.4443       6.2430      -0.0160      62.0449      30.8839    1658.7281      10.1708       2.6265
   2028.5968       6.2430      -0.0240      62.5880      30.0850    1605.4210       9.8410       2.6220
   2028.7491       6.2430      -0.0180      62.3689      28.3293     933.5110      10.0116       2.6075
   2028.9016       6.2430      -0.0120      62.1500      26.5760     262.5200      10.1820       2.5930
   2029.0540       6.2430      -0.0125      62.4232      24.0800     292.5647      10.3816       2.6130
   2029.2064       6.2430      -0.0130      62.6960      21.5870     322.5720      10.5810       2.6330
   2029.3588       6.2430      -0.0095      64.1383      20.8861     949.7242      10.9312       2.6310
   2029.5112       6.2430      -0.0060      65.5790      20.1860    1576.1760      11.2810       2.6290
   2029.6636       6.2430      -0.0085      65.3194      18.6878    1090.8214      11.5311       2.6230
   2029.8160       6.2430      -0.0110      65.0600      17.1910     605.9480      11.7810       2.6170
   2029.9684       6.2685      -0.0105      62.6985      17.7915    1091.2721      11.4792       2.6265
   2030.1208       6.2940      -0.0100      60.3390      18.3910    1576.1760      11.1780       2.6360
   2030.2732       6.2164      -0.0160      58.6964      17.6907    1044.6642      10.2184       2.6270
   2030.4255       6.1390      -0.0220      57.0550      16.9920     513.5460       9.2610       2.6180
   2030.5780       6.1390      -0.0135      57.2045      18.0952     683.2111       9.4727       2.6405
   2030.7303       6.1390      -0.0050      57.3540      19.1960     852.6360       9.6840       2.6630
   2030.8828       6.1911      -0.0165      58.3442      20.5960    1214.8303      10.5044       2.6300
   2031.0352       6.2430      -0.0280      59.3340      21.9930    1576.2679      11.3230       2.5970
   2031.1876       6.1909      -0.0285      61.7944      23.6932    1590.8588      11.7229       2.5995
   2031.3400       6.1390      -0.0290      64.2540      25.3900    1605.4210      12.1220       2.6020
   2031.4924       6.1390      -0.0280      64.8953      26.8939    1197.8604      12.5634       2.5910
   2031.6448       6.1390      -0.0270      65.5360      28.3950     791.0490      13.0040       2.5800
   2031.7972       6.1910      -0.0235      63.7630      32.9479    1169.6152      13.5430       2.5575
   2031.9496       6.2430      -0.0200      61.9930      37.4930    1547.5330      14.0810       2.5350
   2032.1019       6.1910      -0.0160      60.8646      41.1384    1576.5000      13.3604       2.5805
   2032.2544       6.1390      -0.0120      59.7380      44.7780    1605.4210      12.6410       2.6260
   2032.4067       6.1910      -0.0160      59.8141      38.8211    1612.9285      12.5409       2.6330
   2032.5592       6.2430      -0.0200      59.8900      32.8730    1620.4250      12.4410       2.6400
   2032.7115       6.2430      -0.0125      61.1253      29.0765    1666.3007      12.5311       2.6195
   2032.8640       6.2430      -0.0050      62.3590      25.2850    1712.1150      12.6210       2.5990
   2033.0164       6.2430      -0.0085      63.8609      24.8863    1658.6647      12.7921       2.6090
   2033.1688       6.2430      -0.0120      65.3610      24.4880    1605.2791      12.9630       2.6190
   2033.3212       6.2430      -0.0160      66.9669      25.1879    1295.3337      13.8225       2.6170
   2033.4736       6.2430      -0.0200      68.5710      25.8870     985.7250      14.6810       2.6150
   2033.6260       6.1909      -0.0205      71.0822      25.5869     766.5947      15.0817       2.5900
   2033.7784       6.1390      -0.0210      73.5910      25.2870     547.6750      15.4820       2.5650
   2033.9308       6.1911      -0.0260      74.5759      26.4875    1047.7783      15.8918       2.5490
   2034.0831       6.2430      -0.0310      75.5600      27.6860    1547.4640      16.3010       2.5330
   2034.2356       6.2430      -0.0290      74.3536      26.4851    1239.5049      15.9496       2.5480
   2034.3879       6.2430      -0.0270      73.1480      25.2870     932.0110      15.5990       2.5630
   2034.5404       6.2430      -0.0285      71.1554      27.0940     757.8518      14.9193       2.5670
   2034.6927       6.2430      -0.0300      69.1640      28.8970     584.0730      14.2410       2.5710
   2034.8452       6.2685      -0.0260      66.0413      32.0928    1095.2732      13.7675       2.5885
   2034.9976       6.2940      -0.0220      62.9200      35.2820    1605.4210      13.2950       2.6060
   2035.1500       6.2685      -0.0190      61.2272      35.2805    1574.1758      12.0563       2.6115
   2035.3024       6.2430      -0.0160      59.5350      35.2790    1542.9910      10.8200       2.6170
   2035.4548       6.2430      -0.0250      58.7496      32.8798     902.1762      10.5287       2.6320
   2035.6072       6.2430      -0.0340      57.9650      30.4850     262.5200      10.2380       2.6470
   2035.7596       6.2430      -0.0175      57.0783      31.3853     272.6440       8.9484       2.6870
   2035.9120       6.2430      -0.0010      56.1930      32.2840     282.7510       7.6610       2.7270
   2036.0643       6.2430       0.0040      53.5414      31.4839     881.0138       7.6575       2.7315
   2036.2168       6.2430       0.0090      50.8940      30.6850    1478.3450       7.6540       2.7360
   2036.3691       6.1910       0.0035      51.5370      29.2345    1541.9285       6.0258       2.7425
   2036.5216       6.1390      -0.0020      52.1790      27.7860    1605.4210       4.4000       2.7490
   2036.6740       6.1910       0.0065      52.9675      28.3379    1590.7889       4.4205       2.7740
