#------------------------------------------------------------------------------
#
#   Created by  : [OpenWorks] Log Export Utility (LEXP)
#   Created on  : 2016-05-12 17:01:28
#   Project     : CANT971
#   User        : R5K
#   Interpreter : PEP
#
#------------------------------------------------------------------------------
~VERSION INFORMATION
VERS. 2.0 : CWLS Log ASCII Standard - version 2.0
WRAP.  NO : One line per depth step
~WELL INFORMATION
#MNEMONIC   .UNIT                                           VALUE :DESCRIPTION
#------------------------------------------------------------------------------
STRT        .M                                           350.5962 :START DEPTH
STOP        .M                                          2218.5630 :STOP DEPTH
STEP        .M                                             0.1524 :STEP
NULL        .                                           -999.2500 :NULL VALUE
COMP        .                                   PEMEX EXPL & PROD :COMPANY
WELL        .                                                  79 :WELL
FLD         .                                           CANTARELL :FIELD
LOC         .                                             UNKNOWN :LOCATION
CNTY        .                                      CD. DEL CARMEN :COUNTY
STAT        .                                            CAMPECHE :STATE
CTRY        .                                              MEXICO :COUNTRY
SRVC        .                                             UNKNOWN :SERVICE COMPANY
DATE        .                                             UNKNOWN :LOG DATE
UWI         .                                          3060000183 :UNIQUE WELL ID
XCOORD      .                                       602154.470000 :SURFACE X
YCOORD      .                                      2147172.410000 :SURFACE Y
LAT         .                                           19.417394 :LATITUDE
LON         .                                          -92.027010 :LONGITUDE
ELEV        .M                                            28.1700 :SURFACE ELEV
ELEV_TYPE   .                                                  KB :ELEV TYPE
~CURVE INFORMATION
#MNEMONIC.UNIT        API CODE       : CURVE DESCRIPTION
#------------------------------------------------------------------------------
DEPTH    .M                          : Measured Depth
CALI     .inches      UNKNOWN        : CALI:CALI-Load:rC:NONE:v0 (auto-composite)
DT       .us/ft       UNKNOWN        : DT:DT:rC:NONE:v0 (auto-composite)
GR       .UNKNOWN     UNKNOWN        : GR:GR-Load:rC:NONE:v0 (auto-composite)
ILD      .UNKNOWN     UNKNOWN        : ILD:ILD-Load:rC:NONE:v0 (auto-composite)
LLD      .UNKNOWN     UNKNOWN        : LLD:LLD-Load:rC:NONE:v0 (auto-composite)
LLS      .UNKNOWN     UNKNOWN        : LLS:LLS-Load:rC:NONE:v0 (auto-composite)
MSFL     .UNKNOWN     UNKNOWN        : MSFL:MSFL-Load:rC:NONE:v0 (auto-composite)
NPHI     .v/v_decimal UNKNOWN        : NPHI:NPHI:rC:NONE:v0 (auto-composite)
RG       .API         UNKNOWN        : RG:UNKNOWN:rC:NONE:v0 (auto-composite)
RHOB     .UNKNOWN     UNKNOWN        : RHOB:RHOB-Load:rC:NONE:v0 (auto-composite)
SP       .UNKNOWN     UNKNOWN        : SP:SP-Load:rC:NONE:v0 (auto-composite)
~A     DEPTH         CALI           DT           GR          ILD          LLD          LLS         MSFL         NPHI           RG         RHOB           SP
# ...
    588.3402      21.8990    -999.2500      46.8730       1.2150    -999.2500    -999.2500    -999.2500       0.3616    -999.2500       2.1890       4.6690
    588.4926      21.8990    -999.2500      47.1730       1.1990    -999.2500    -999.2500    -999.2500       0.3767    -999.2500       2.1730       4.6690
    588.6450      21.8990    -999.2500      47.2980       1.1950    -999.2500    -999.2500    -999.2500       0.3840    -999.2500       2.1668       4.6690
    588.7974      21.8990    -999.2500      47.2480       1.2030    -999.2500    -999.2500    -999.2500       0.3837    -999.2500       2.1703       4.6690
    588.9498      21.8990    -999.2500      47.5883       1.2182    -999.2500    -999.2500    -999.2500       0.3787    -999.2500       2.1730       4.6690
    589.1022      21.8990    -999.2500      48.3189       1.2407    -999.2500    -999.2500    -999.2500       0.3689    -999.2500       2.1750       4.6690
    589.2546      21.8990    -999.2500      49.3609       1.2652    -999.2500    -999.2500    -999.2500       0.3558    -999.2500       2.1825       4.6070
    589.4070      21.8990    -999.2500      50.7138       1.2917    -999.2500    -999.2500    -999.2500       0.3392    -999.2500       2.1955       4.4830
    589.5594      21.8990    -999.2500      51.6116       1.3187    -999.2500    -999.2500    -999.2500       0.3252    -999.2500       2.2043       4.4210
    589.7118      21.8990    -999.2500      52.0546       1.3462    -999.2500    -999.2500    -999.2500       0.3137    -999.2500       2.2088       4.4210
    589.8642      21.8990    -999.2500      51.9006       1.3792    -999.2500    -999.2500    -999.2500       0.3084    -999.2500       2.2143       4.4210
    590.0166      21.8990    -999.2500      51.1502       1.4177    -999.2500    -999.2500    -999.2500       0.3094    -999.2500       2.2208       4.4210
    590.1690      21.8990    -999.2500      50.2374       1.4510    -999.2500    -999.2500    -999.2500       0.3042    -999.2500       2.2288       4.4520
    590.3214      21.8990    -999.2500      49.1624       1.4790    -999.2500    -999.2500    -999.2500       0.2931    -999.2500       2.2383       4.5140
    590.4738      21.8990    -999.2500      47.9907       1.4895    -999.2500    -999.2500    -999.2500       0.2904    -999.2500       2.2478       4.4520
    590.6262      21.8990    -999.2500      46.7222       1.4825    -999.2500    -999.2500    -999.2500       0.2959    -999.2500       2.2573       4.2660
    590.7786      21.8990    -999.2500      45.7524       1.4830    -999.2500    -999.2500    -999.2500       0.3006    -999.2500       2.2585       4.1963
    590.9310      21.8990    -999.2500      45.0813       1.4910    -999.2500    -999.2500    -999.2500       0.3044    -999.2500       2.2515       4.2428
    591.0834      21.8990    -999.2500      44.5962       1.5067    -999.2500    -999.2500    -999.2500       0.3056    -999.2500       2.2543       4.3203
    591.2358      21.8990    -999.2500      44.2967       1.5302    -999.2500    -999.2500    -999.2500       0.3043    -999.2500       2.2668       4.4288
    591.3882      21.8990    -999.2500      44.0407       1.5380    -999.2500    -999.2500    -999.2500       0.3025    -999.2500       2.2710       4.5450
    591.5406      21.8990    -999.2500      43.8282       1.5300    -999.2500    -999.2500    -999.2500       0.3000    -999.2500       2.2670       4.6690
    591.6930      21.8990    -999.2500      44.0596       1.5168    -999.2500    -999.2500    -999.2500       0.2998    -999.2500       2.2630       4.7698
    591.8454      21.8990    -999.2500      44.7346       1.4983    -999.2500    -999.2500    -999.2500       0.3019    -999.2500       2.2590       4.8473
    591.9978      21.8990    -999.2500      44.9470       1.4803    -999.2500    -999.2500    -999.2500       0.3050    -999.2500       2.2560       4.8938
    592.1502      21.8990    -999.2500      44.6970       1.4628    -999.2500    -999.2500    -999.2500       0.3091    -999.2500       2.2540       4.9093
    592.3026      21.9053    -999.2500      44.7128       1.4438    -999.2500    -999.2500    -999.2500       0.3128    -999.2500       2.2502       4.8550
    592.4550      21.9177    -999.2500      44.9943       1.4233    -999.2500    -999.2500    -999.2500       0.3163    -999.2500       2.2447       4.7310
    592.6074      21.9177    -999.2500      45.1942       1.4143    -999.2500    -999.2500    -999.2500       0.3147    -999.2500       2.2503       4.6690
    592.7598      21.9053    -999.2500      45.3127       1.4167    -999.2500    -999.2500    -999.2500       0.3082    -999.2500       2.2668       4.6690
    592.9122      21.8990    -999.2500      45.2407       1.4257    -999.2500    -999.2500    -999.2500       0.3032    -999.2500       2.2725       4.5992
    593.0646      21.8990    -999.2500      44.9782       1.4412    -999.2500    -999.2500    -999.2500       0.2996    -999.2500       2.2675       4.4597
    593.2170      21.8990    -999.2500      44.3625       1.4682    -999.2500    -999.2500    -999.2500       0.3021    -999.2500       2.2535       4.2427
    593.3694      21.8990    -999.2500      43.3940       1.5067    -999.2500    -999.2500    -999.2500       0.3108    -999.2500       2.2305       3.9482
    593.5218      21.8990    -999.2500      42.5248       1.5480    -999.2500    -999.2500    -999.2500       0.3203    -999.2500       2.2198       3.8243
    593.6742      21.8990    -999.2500      41.7549       1.5920    -999.2500    -999.2500    -999.2500       0.3305    -999.2500       2.2213       3.8708
    593.8266      21.8990    -999.2500      41.7204       1.6297    -999.2500    -999.2500    -999.2500       0.3292    -999.2500       2.2348       3.9018
    593.9790      21.8990    -999.2500      42.4208       1.6612    -999.2500    -999.2500    -999.2500       0.3165    -999.2500       2.2603       3.9173
    594.1314      21.8990    -999.2500      42.5460       1.6832    -999.2500    -999.2500    -999.2500       0.3032    -999.2500       2.2790       3.8630
    594.2838      21.8990    -999.2500      42.0960       1.6957    -999.2500    -999.2500    -999.2500       0.2893    -999.2500       2.2910       3.7390
    594.4362      21.8990    -999.2500      42.2088       1.7090    -999.2500    -999.2500    -999.2500       0.2803    -999.2500       2.3058       3.6770
    594.5886      21.8990    -999.2500      42.8842       1.7230    -999.2500    -999.2500    -999.2500       0.2762    -999.2500       2.3233       3.6770
    594.7410      21.8990    -999.2500      43.5780       1.7440    -999.2500    -999.2500    -999.2500       0.2726    -999.2500       2.3312       3.5840
    594.8934      21.8990    -999.2500      44.2902       1.7720    -999.2500    -999.2500    -999.2500       0.2694    -999.2500       2.3297       3.3980
    595.0458      21.8990    -999.2500      44.8964       1.7922    -999.2500    -999.2500    -999.2500       0.2617    -999.2500       2.3303       3.1812
    595.1982      21.8990    -999.2500      45.3969       1.8047    -999.2500    -999.2500    -999.2500       0.2497    -999.2500       2.3328       2.9337
    595.3506      21.8990    -999.2500      45.7410       1.8028    -999.2500    -999.2500    -999.2500       0.2474    -999.2500       2.3265       2.8798
    595.5030      21.8990    -999.2500      45.9290       1.7863    -999.2500    -999.2500    -999.2500       0.2548    -999.2500       2.3115       3.0193
    595.6554      21.8990    -999.2500      45.8632       1.7780    -999.2500    -999.2500    -999.2500       0.2644    -999.2500       2.2905       3.1353
    595.8078      21.8990    -999.2500      45.5437       1.7780    -999.2500    -999.2500    -999.2500       0.2761    -999.2500       2.2635       3.2278
    595.9602      21.8990    -999.2500      44.8056       1.7645    -999.2500    -999.2500    -999.2500       0.2837    -999.2500       2.2573       3.3050
    596.1126      21.8990    -999.2500      43.6492       1.7375    -999.2500    -999.2500    -999.2500       0.2872    -999.2500       2.2718       3.3670
