#------------------------------------------------------------------------------
#
#   Created by  : [OpenWorks] Log Export Utility (LEXP)
#   Created on  : 2016-05-23 11:56:24
#   Project     : CANT971
#   User        : R5K
#   Interpreter : PEP
#
#------------------------------------------------------------------------------
~VERSION INFORMATION
VERS. 2.0 : CWLS Log ASCII Standard - version 2.0
WRAP.  NO : One line per depth step
~WELL INFORMATION
#MNEMONIC   .UNIT                                           VALUE :DESCRIPTION
#------------------------------------------------------------------------------
STRT        .M                                           741.4294 :START DEPTH
STOP        .M                                          2768.5020 :STOP DEPTH
STEP        .M                                             0.1524 :STEP
NULL        .                                           -999.2500 :NULL VALUE
COMP        .                                             UNKNOWN :COMPANY
WELL        .                                                 470 :WELL
FLD         .                                             UNKNOWN :FIELD
LOC         .                                             UNKNOWN :LOCATION
CNTY        .                                             UNKNOWN :COUNTY
STAT        .                                             UNKNOWN :STATE
CTRY        .                                             UNKNOWN :COUNTRY
SRVC        .                                             UNKNOWN :SERVICE COMPANY
DATE        .                                             UNKNOWN :LOG DATE
UWI         .                                                 470 :UNIQUE WELL ID
XCOORD      .                                       598706.890000 :SURFACE X
YCOORD      .                                      2143306.000000 :SURFACE Y
LAT         .                                           19.382628 :LATITUDE
LON         .                                          -92.060044 :LONGITUDE
ELEV        .M                                             0.0000 :SURFACE ELEV
ELEV_TYPE   .                                                  NA :ELEV TYPE
~CURVE INFORMATION
#MNEMONIC.UNIT        API CODE       : CURVE DESCRIPTION
#------------------------------------------------------------------------------
DEPTH    .M                          : Measured Depth
CALI     .inches      UNKNOWN        : CALI:litodensidad:rC:NONE:v0 (auto-composite)
CGR      .API         UNKNOWN        : CGR:PETROWORKS:rC:NONE:v1 
DRHO     .g/cm3       UNKNOWN        : DRHO:litodensidad:rC:NONE:v0 (auto-composite)
DT       .us/ft       UNKNOWN        : DT:PETROWORKS:rC:NONE:v1 
GR       .API         UNKNOWN        : GR:PETROWORKS:rC:NONE:v8 
ILD      .ohm.m       UNKNOWN        : ILD:PETROWORKS:rC:NONE:v1 
ILM      .ohm.m       UNKNOWN        : ILM:PETROWORKS:rC:NONE:v1 
LLD      .ohm.m       UNKNOWN        : LLD:resistivos:rC:NONE:v0 (auto-composite)
LLS      .ohm.m       UNKNOWN        : LLS:resistivos:rC:NONE:v0 (auto-composite)
MSFL     .ohm.m       UNKNOWN        : MSFL:resistivos:rC:NONE:v0 (auto-composite)
NPHI     .v/v_decimal UNKNOWN        : NPHI:PETROWORKS:rC:NONE:v1 
PEF      .UNKNOWN     UNKNOWN        : PEF:litodensidad:rC:NONE:v0 (auto-composite)
POTA     .wtpercent   UNKNOWN        : POTA:PETROWORKS:rC:NONE:v1 
RHOB     .g/cm3       UNKNOWN        : RHOB:litodensidad:rC:NONE:v0 (auto-composite)
THOR     .ppm         UNKNOWN        : THOR:PETROWORKS:rC:NONE:v1 
URAN     .ppm         UNKNOWN        : URAN:PETROWORKS:rC:NONE:v1 
~A     DEPTH         CALI          CGR         DRHO           DT           GR          ILD          ILM          LLD          LLS         MSFL         NPHI          PEF         POTA         RHOB         THOR         URAN
# ...
   2427.4307       8.5374      34.6687      -1.0172      62.2342      42.4225      10.7608      74.3575      60.5200      98.6000       0.1989       0.5607     105.5966       0.0124       1.7920       3.4486       1.7333
   2427.5830       8.5566      34.6275      -0.9972      63.7683      28.3023      13.4411      85.0986      60.5200      98.6000       0.1652       0.5394     122.0001       0.0121       1.8214       3.5289       1.8290
   2427.7354       8.5374      29.3323      -0.9980      64.2768      25.7729      17.2732      93.2942      60.5200      98.6000       0.1794       0.6062     248.6802       0.0123       1.8205       2.1202       1.5674
   2427.8879       8.5374      15.3874      -0.9746      72.6451      25.1319      22.3495     104.6999      60.5200      98.6000       0.1955       0.5415    -999.2500       0.0072       1.9104       0.7956       1.5464
   2428.0403       8.5470      13.1927      -0.9398      67.2674      21.5102      26.0548     111.3121      60.5200      98.6000       0.1985       0.3987      84.0033       0.0062       2.0495       0.6732       1.5063
   2428.1926       8.5854      12.3807      -0.8941      63.5066      15.2571      27.9019     121.1654      60.5200      98.6000       0.1729       0.2003     132.4014       0.0058       2.2314       0.6405       1.5268
   2428.3450       8.6334       8.4047      -0.8874      61.5806      15.4003      31.7044     144.6027      60.5200      98.6000       0.1921       0.0970      80.7468       0.0036       2.2857       0.5846       1.5692
   2428.4976       8.6046       3.9664      -0.8681      61.0193      14.7206      34.4568     144.6955      60.5200      98.6000       0.1944       0.0704     143.9069       0.0002       2.3397       0.9038       1.3519
   2428.6499       8.5278       4.4665      -0.8676      52.3627      16.8030      38.1429     154.3163      60.5200      98.6000       0.1840       0.0619      49.1301       0.0008       2.3175       0.7639       1.3092
   2428.8022       8.5374       4.4370      -0.8598      52.8772      18.8830      42.2896     147.3402      60.5200      98.6000       0.1868       0.0576     164.4841       0.0013       2.3032       0.5575       1.2313
   2428.9546       8.5374       5.9061      -0.8530      54.8209      26.7954      44.2633     132.3864      60.5200      98.6000       0.1977       0.0662     111.7827       0.0021       2.2678       0.6098       1.3048
   2429.1069       8.5374       7.1024      -0.8570      53.2901      25.3445      46.1592     139.6972      60.5200      98.6000       0.1769       0.0824    -999.2500       0.0025       2.2547       0.7261       1.4106
   2429.2595       8.5278      12.5377      -0.8512      53.6504      26.6266      46.5025     107.2542      60.5200      98.6000       0.1745       0.0984    -999.2500       0.0038       2.2800       1.5327       1.7071
   2429.4119       8.5278      11.4784      -0.8485      54.2740      24.2853      45.9649      86.5214      60.5200      98.6000       0.2234       0.0957    -999.2500       0.0036       2.3074       1.3410       1.6603
   2429.5642       8.5374      12.1115      -0.8519      52.4709      24.3932      46.0335      72.0772      60.5200      98.6000       0.2184       0.0777     170.3876       0.0035       2.3320       1.5322       1.7380
   2429.7166       8.5374      10.5109      -0.8734      53.5577      25.7241      51.9656      70.0894      37.9199      98.6000       0.2163       0.0618      99.7778       0.0034       2.3013       1.1714       1.5090
   2429.8691       8.5220      11.7995      -0.8822      53.6822      26.4887      46.2764      66.5059      40.7742      98.6000       0.1882       0.0596      67.5548       0.0043       2.2813       1.1435       1.5844
   2430.0215       8.5278      12.5125      -0.8916      53.1018      28.2479      44.5028      62.7650      60.5200      98.6000       0.1989       0.0652     166.4744       0.0049       2.2647       1.0562       1.6232
   2430.1738       8.5278      12.4811      -0.8917      53.6481      25.8933      40.8693      58.5866      60.5200      98.6000       0.3212       0.0712    -999.2500       0.0047       2.2731       1.1426       1.7023
   2430.3262       8.5278      13.5511      -0.8997      52.0104      23.6111      37.5890      54.2013      60.5200      98.6000       0.2270       0.0728    -999.2500       0.0046       2.2719       1.4274       1.8526
   2430.4788       8.5374      10.3097      -0.8913      51.9767      23.6235      37.0064      49.1864      60.5200      98.6000       0.2296       0.0709    -999.2500       0.0031       2.3041       1.2495       1.6786
   2430.6311       8.5278       9.6672      -0.8881      54.1680      23.0050      32.1024      40.4435      60.5200      98.6000       0.2784       0.0618    -999.2500       0.0030       2.3056       1.1451       1.6267
   2430.7834       8.5374      10.2657      -0.8797      54.7075      25.4375      29.7726      39.0532      60.5200      98.6000       0.2479       0.0686    -999.2500       0.0033       2.3309       1.1774       1.6215
   2430.9358       8.5278       9.6919      -0.8983      54.3454      25.1243      26.7780      37.6056      60.5200      98.6000       0.2885       0.0808    -999.2500       0.0032       2.2837       1.0816       1.5460
   2431.0881       8.5374      12.9234      -0.8988      54.8800      29.8665      23.9118      36.0761      60.5200      98.6000       0.3372       0.1076     428.0501       0.0046       2.2717       1.2971       1.6680
   2431.2407       8.5374      11.2139      -0.9058      53.7807      35.2503      22.6711      32.7377      60.5200      98.6000       0.1995       0.1154     140.7410       0.0040       2.2582       1.0961       1.5622
   2431.3931       8.5374      11.2544      -0.8958      55.3496      39.7921      21.3360      29.3866      60.5200      98.6000       0.2175       0.1097      66.8154       0.0040       2.2906       1.1131       2.5630
   2431.5454       8.5528      11.5319      -0.8900      56.0142      42.1636      18.6837      25.1809      60.5200      98.6000       0.2307       0.0890    -999.2500       0.0038       2.3208       1.2752       2.9950
   2431.6978       8.5374      13.7773      -0.8797      55.3929      41.5755      17.2887      21.8966      60.5200      98.6000       0.2430       0.0773    -999.2500       0.0050       2.3361       1.3518       3.3094
   2431.8503       8.5374      14.1675      -0.8936      56.5464      35.1312      15.1435      17.5469      45.0590      98.6000       0.2217       0.0811    -999.2500       0.0049       2.2950       1.4539       3.3968
   2432.0027       8.5374      13.0589      -0.8932      54.0778      30.0744      14.2435      14.0302      60.5200      98.6000       0.2171       0.0949    -999.2500       0.0044       2.2762       1.4255       3.3571
   2432.1550       8.5758      12.7346      -0.8936      54.6582      28.3326      14.6420       9.8193      60.5200      98.6000       0.2891       0.1054    -999.2500       0.0060       2.2724       0.6640       2.3245
   2432.3074       8.6238      10.8967      -0.8877      60.8486      25.2271      13.9363       8.6978      60.5200      98.6000       0.3283       0.1064     295.8139       0.0052       2.3005       0.5440       2.1720
   2432.4600       8.5950      10.0428      -0.8866      58.4465      23.3923      12.5427       9.8230      60.5200      98.6000       0.2490       0.1014      63.7687       0.0045       2.3131       0.6164       2.1478
   2432.6123       8.5451       7.8288      -0.8699      57.4158      24.4949      12.2116      10.3686      60.5200      98.6000       0.2230       0.0959      61.0990       0.0024       2.3345       0.9474       1.9187
   2432.7646       8.5374       7.7637      -0.8832      59.2334      31.7811      11.9240      10.2646      60.5200      98.6000       0.2831       0.0923      35.5653       0.0022       2.3051       1.0117       1.8438
   2432.9170       8.5374       9.2752      -0.9044      58.8171      39.5182      10.5897      10.6976      60.5200      98.6000       0.1781       0.0961     383.7132       0.0028       2.2820       1.1417       1.9020
