#------------------------------------------------------------------------------
#
#   Created by  : [OpenWorks] Log Export Utility (LEXP)
#   Created on  : 2016-05-11 12:45:43
#   Project     : CANT971
#   User        : R5K
#   Interpreter : PEP
#
#------------------------------------------------------------------------------
~VERSION INFORMATION
VERS. 2.0 : CWLS Log ASCII Standard - version 2.0
WRAP.  NO : One line per depth step
~WELL INFORMATION
#MNEMONIC   .UNIT                                           VALUE :DESCRIPTION
#------------------------------------------------------------------------------
STRT        .M                                            80.3144 :START DEPTH
STOP        .M                                          1350.4160 :STOP DEPTH
STEP        .M                                             0.1524 :STEP
NULL        .                                           -999.2500 :NULL VALUE
COMP        .                                   PEMEX EXPL & PROD :COMPANY
WELL        .                                         CANTARELL-3 :WELL
FLD         .                                           CANTARELL :FIELD
LOC         .                                             UNKNOWN :LOCATION
CNTY        .                                      CD. DEL CARMEN :COUNTY
STAT        .                                            CAMPECHE :STATE
CTRY        .                                              MEXICO :COUNTRY
SRVC        .                                             UNKNOWN :SERVICE COMPANY
DATE        .                                             UNKNOWN :LOG DATE
UWI         .                                          3060000139 :UNIQUE WELL ID
XCOORD      .                                       600825.370000 :SURFACE X
YCOORD      .                                      2145118.460000 :SURFACE Y
LAT         .                                           19.398901 :LATITUDE
LON         .                                          -92.039777 :LONGITUDE
ELEV        .M                                            27.7000 :SURFACE ELEV
ELEV_TYPE   .                                                  KB :ELEV TYPE
~CURVE INFORMATION
#MNEMONIC.UNIT        API CODE       : CURVE DESCRIPTION
#------------------------------------------------------------------------------
DEPTH    .M                          : Measured Depth
CALI     .inches      UNKNOWN        : CALI:Import:rC:NONE:v0 (auto-composite)
DRHO     .g/cm3       UNKNOWN        : DRHO:Import:rC:NONE:v0 (auto-composite)
DT       .us/ft       UNKNOWN        : DT:Import:rC:NONE:v0 (auto-composite)
GR       .API         UNKNOWN        : GR:Import:rC:NONE:v0 (auto-composite)
ILD      .ohm.m       UNKNOWN        : ILD:Import:rC:NONE:v0 (auto-composite)
NPHI     .v/v_decimal UNKNOWN        : NPHI:Import:rC:NONE:v0 (auto-composite)
RHOB     .g/cm3       UNKNOWN        : RHOB:Import:rC:NONE:v0 (auto-composite)
SP       .mV          UNKNOWN        : SP:Import:rC:NONE:v0 (auto-composite)
~A     DEPTH         CALI         DRHO           DT           GR          ILD         NPHI         RHOB           SP
# ...
    826.9220      14.3610       0.0010     198.3966      42.7430       1.2340       0.3528       2.1030     132.3190
    827.0744      14.3610       0.0015     195.7440      41.6908       1.3040       0.3494       2.1100     133.0287
    827.2268      14.3610       0.0020     193.8334      40.6390       1.3740       0.3427       2.1170     133.7390
    827.3792      14.4811       0.0040     191.9290      38.9704       1.5930       0.3264       2.1380     133.5816
    827.5316      14.6010       0.0060     190.3611      37.3030       1.8120       0.3109       2.1590     133.4240
    827.6840      14.5890       0.0060     188.7980      37.7656       1.8120       0.3082       2.1740     132.7059
    827.8364      14.5770       0.0060     191.2071      38.2280       1.8120       0.3100       2.1890     131.9870
    827.9888      14.4134      -0.0030     193.6090      40.1924       1.7910       0.3159       2.1790     132.0864
    828.1412      14.2500      -0.0120     203.4429      42.1560       1.7700       0.3246       2.1690     132.1860
    828.2936      14.2505      -0.0100     213.2490      44.5324       1.6950       0.3403       2.1254     132.6373
    828.4460      14.2510      -0.0080     222.4423      46.9080       1.6200       0.3565       2.0820     133.0890
    828.5984      14.4982       0.0035     231.6070      49.5792       1.5500       0.3675       2.0404     132.9556
    828.7508      14.7450       0.0150     229.9282      52.2500       1.4800       0.3753       1.9990     132.8220
    828.9032      14.5789       0.0140     228.2550      54.4850       1.4070       0.3764       2.0020     131.9318
    829.0556      14.4130       0.0130     218.5953      56.7190       1.3340       0.3749       2.0050     131.0410
    829.2080      14.4155       0.0080     208.9670      56.2323       1.2915       0.3704       2.0371     131.1155
    829.3604      14.4180       0.0030     209.4072      55.7460       1.2490       0.3680       2.0690     131.1900
    829.5128      14.4720       0.0035     209.8460      53.2422       1.2495       0.3762       2.0690     131.9121
    829.6652      14.5260       0.0040     211.5245      50.7400       1.2500       0.3853       2.0690     132.6350
    829.8176      14.9228       0.0105     213.1980      46.1809       1.2460       0.3871       2.0670     132.4891
    829.9700      15.3190       0.0170     215.0927      41.6240       1.2420       0.3868       2.0650     132.3430
    830.1224      15.2579       0.0155     216.9820      41.9411       1.2045       0.3853       2.0540     131.8097
    830.2748      15.1970       0.0140     220.1219      42.2580       1.1670       0.3824       2.0430     131.2760
    830.4272      14.9868       0.0045     223.2520      43.4346       1.1710       0.3758       2.0445     131.4235
    830.5796      14.7770      -0.0050     225.9040      44.6110       1.1750       0.3675       2.0460     131.5710
    830.7320      14.5983      -0.0045     228.5470      45.3967       1.2050       0.3571       2.0535     132.5157
    830.8844      14.4200      -0.0040     227.7156      46.1820       1.2350       0.3463       2.0610     133.4610
    831.0368      14.4500       0.0000     226.8870      47.1404       1.3165       0.3364       2.0705     133.4500
    831.1892      14.4800       0.0040     220.9150      48.0980       1.3980       0.3269       2.0800     133.4390
    831.3416      14.4415       0.0040     214.9620      47.5118       1.5110       0.3173       2.0915     133.3820
    831.4940      14.4030       0.0040     215.2565      46.9260       1.6240       0.3078       2.1030     133.3250
    831.6464      14.4631       0.0025     215.5500      40.7469       1.7225       0.2983       2.1200     133.1331
    831.7988      14.5230       0.0010     216.5725      34.5710       1.8210       0.2908       2.1370     132.9410
    831.9512      14.5135       0.0035     217.5920      34.7655       1.8010       0.2913       2.1706     132.2358
    832.1036      14.5040       0.0060     218.3432      34.9600       1.7810       0.2952       2.2040     131.5300
    832.2560      14.5090       0.0055     219.0920      36.9238       1.6990       0.3040       2.1985     131.6595
    832.4084      14.5140       0.0050     218.7128      38.8870       1.6170       0.3136       2.1930     131.7890
    832.5608      14.5450       0.0020     218.3350      38.8625       1.5405       0.3217       2.1720     132.7267
    832.7132      14.5760      -0.0010     215.8559      38.8380       1.4640       0.3293       2.1510     133.6650
    832.8656      14.6230      -0.0105     213.3850      38.6669       1.4135       0.3369       2.1330     133.6600
    833.0180      14.6700      -0.0200     206.6296      38.4960       1.3630       0.3454       2.1150     133.6550
    833.1704      14.6830      -0.0185     199.8960      38.5935       1.2400       0.3573       2.0930     133.5805
    833.3228      14.6960      -0.0170     201.7334      38.6910       1.1170       0.3677       2.0710     133.5060
    833.4752      14.7215      -0.0110     203.5650      39.1321       1.1205       0.3692       2.0941     133.3136
    833.6276      14.7470      -0.0050     210.2805      39.5730       1.1240       0.3676       2.1170     133.1210
    833.7800      14.8271      -0.0060     216.9760      40.2351       1.1345       0.3641       2.1155     132.2075
    833.9324      14.9070      -0.0070     222.9109      40.8970       1.1450       0.3611       2.1140     131.2930
    834.0848      14.8590      -0.0065     228.8290      41.7081       1.1465       0.3618       2.0499     131.4044
    834.2372      14.8110      -0.0060     228.1379      42.5190       1.1480       0.3661       1.9860     131.5160
    834.3896      14.8135      -0.0030     227.4490      44.4321       1.1705       0.3794       1.9870     132.3982
    834.5420      14.8160       0.0000     227.5842      46.3440       1.1930       0.3923       1.9880     133.2810
    834.6944      14.8290       0.0035     227.7190      46.1489       1.1880       0.3948       1.9980     133.2700
    834.8468      14.8420       0.0070     228.3215      45.9540       1.1830       0.3931       2.0080     133.2590
    834.9992      14.8645       0.0065     228.9220      44.6595       1.1595       0.3880       2.0611     133.0826
    835.1516      14.8870       0.0060     230.4499      43.3660       1.1360       0.3807       2.1140     132.9060
    835.3040      14.9596       0.0030     231.9730      40.7377       1.1105       0.3691       2.1120     133.0779
    835.4564      15.0320       0.0000     231.3736      38.1110       1.0850       0.3593       2.1100     133.2500
    835.6088      15.0100      -0.0050     230.7760      38.8467       1.0740       0.3595       2.0990     133.8707
    835.7612      14.9880      -0.0100     224.2295      39.5820       1.0630       0.3642       2.0880     134.4920
    835.9136      14.8639      -0.0095     217.7020      42.5586       1.0190       0.3735       2.0720     134.8903
    836.0660      14.7400      -0.0090     201.6510      45.5340       0.9750       0.3833       2.0560     135.2890
    836.2184      14.7525      -0.0065     185.6510      48.5479       0.9310       0.3897       2.0375     135.7114
    836.3708      14.7650      -0.0040     179.1789      51.5610       0.8870       0.3957       2.0190     136.1340
    836.5232      14.8080      -0.0020     172.7290      55.7216       0.8650       0.4038       1.9960     136.8078
    836.6756      14.8510       0.0000     168.2370      59.8800       0.8430       0.4105       1.9730     137.4820
    836.8280      14.8280       0.0010     163.7600      59.1992       0.8310       0.4108       1.9815     137.4375
    836.9804      14.8050       0.0020     163.8086      58.5190       0.8190       0.4082       1.9900     137.3930
    837.1328      14.6864       0.0025     163.8570      54.9588       0.8225       0.4031       2.0251     137.4555
    837.2852      14.5680       0.0030     164.2506      51.4010       0.8260       0.3981       2.0600     137.5180
