#------------------------------------------------------------------------------
#
#   Created by  : [OpenWorks] Log Export Utility (LEXP)
#   Created on  : 2016-05-23 11:57:21
#   Project     : CANT971
#   User        : R5K
#   Interpreter : PEP
#
#------------------------------------------------------------------------------
~VERSION INFORMATION
VERS. 2.0 : CWLS Log ASCII Standard - version 2.0
WRAP.  NO : One line per depth step
~WELL INFORMATION
#MNEMONIC   .UNIT                                           VALUE :DESCRIPTION
#------------------------------------------------------------------------------
STRT        .M                                           117.7290 :START DEPTH
STOP        .M                                          2309.5459 :STOP DEPTH
STEP        .M                                             0.1524 :STEP
NULL        .                                           -999.2500 :NULL VALUE
COMP        .                                   PEMEX EXPL & PROD :COMPANY
WELL        .                                                  7A :WELL
FLD         .                                           CANTARELL :FIELD
LOC         .                                             UNKNOWN :LOCATION
CNTY        .                                      CD. DEL CARMEN :COUNTY
STAT        .                                            CAMPECHE :STATE
CTRY        .                                              MEXICO :COUNTRY
SRVC        .                                             UNKNOWN :SERVICE COMPANY
DATE        .                                             UNKNOWN :LOG DATE
UWI         .                                          3060000143 :UNIQUE WELL ID
XCOORD      .                                       603360.310000 :SURFACE X
YCOORD      .                                      2145096.320000 :SURFACE Y
LAT         .                                           19.398572 :LATITUDE
LON         .                                          -92.015639 :LONGITUDE
ELEV        .M                                            27.1400 :SURFACE ELEV
ELEV_TYPE   .                                                  KB :ELEV TYPE
~CURVE INFORMATION
#MNEMONIC.UNIT        API CODE       : CURVE DESCRIPTION
#------------------------------------------------------------------------------
DEPTH    .M                          : Measured Depth
CALI     .in          UNKNOWN        : CALI:resistivos:rC:NONE:v0 (auto-composite)
DRHO     .g/cm3       UNKNOWN        : DRHO:PETROWORKS:rC:NONE:v2 
DT       .us/ft       UNKNOWN        : DT:DT:rC:NONE:v0 (auto-composite)
GR       .API         UNKNOWN        : GR:UNKNOWN:rC:NONE:v0 (auto-composite)
ILD      .ohmm        UNKNOWN        : ILD:resistivos:rC:NONE:v0 (auto-composite)
LLD      .ohm.m       UNKNOWN        : LLD:UNKNOWN:rC:NONE:v0 (auto-composite)
LLS      .ohm.m       UNKNOWN        : LLS:UNKNOWN:rC:NONE:v0 (auto-composite)
MSFL     .ohm.m       UNKNOWN        : MSFL:UNKNOWN:rC:NONE:v0 (auto-composite)
NPHI     .v/v_decimal     UNKNOWN        : NPHI:PETROWORKS:rC:NONE:v1 
RHOB     .g/cm3       UNKNOWN        : RHOB:UNKNOWN:rC:NONE:v0 (auto-composite)
SN       .ohm.m       UNKNOWN        : SN:UNKNOWN:rC:NONE:v0 (auto-composite)
~A     DEPTH         CALI         DRHO           DT           GR          ILD          LLD          LLS         MSFL         NPHI         RHOB           SN
# ...
   2201.9514       6.9294       0.0000      61.1447      31.5986    -999.2500     183.0897     108.1611     104.9517       0.1003       2.6862    -999.2500
   2202.1038       6.9024       0.0000      61.7644      32.5452    -999.2500     157.3998      90.6402     116.0414       0.1046       2.6767    -999.2500
   2202.2561       6.9154       0.0000      61.9788      33.0962    -999.2500     132.0561      81.2292     107.4128       0.1058       2.6745    -999.2500
   2202.4087       6.9679       0.0000      61.7913      33.2525    -999.2500     107.0579      79.9128      79.1032       0.1070       2.6795    -999.2500
   2202.5610       7.0279       0.0000      61.2713      34.0224    -999.2500      90.2168      74.4251      56.4472       0.1052       2.6827    -999.2500
   2202.7134       7.0954       0.0000      60.4227      35.4108    -999.2500      81.5980      64.7328      39.4900       0.1034       2.6842    -999.2500
   2202.8657       7.1310       0.0000      60.0000      35.4210    -999.2500      73.8850      57.2338      29.9418       0.1012       2.6910    -999.2500
   2203.0183       7.1350       0.0000      60.0000      34.0372    -999.2500      67.0881      51.9531      27.8876       0.0990       2.7030    -999.2500
   2203.1707       7.0860       0.0000      60.0840      33.1774    -999.2500      61.4715      47.0244      34.0265       0.1015       2.7150    -999.2500
   2203.3230       6.9845       0.0000      60.2510      32.8361    -999.2500      57.0224      42.4439      48.2708       0.1040       2.7270    -999.2500
   2203.4753       6.9227       0.0000      60.8468      31.8723    -999.2500      51.3402      37.2755      52.8384       0.1106       2.7240    -999.2500
   2203.6277       6.9002       0.0000      61.8653      30.2908    -999.2500      44.4337      31.5236      47.7996       0.1172       2.7060    -999.2500
   2203.7803       6.8890       0.0000      63.5545      28.5062    -999.2500      38.3128      27.9682      36.0269       0.1235       2.6905    -999.2500
   2203.9326       6.8890       0.0000      65.9073      26.5181    -999.2500      32.9796      26.6147      17.5029       0.1299       2.6775    -999.2500
   2204.0850       6.8890       0.0000      65.9564      25.2527    -999.2500      32.0101      26.9049       7.8762       0.1246       2.6653    -999.2500
   2204.2373       6.8890       0.0000      63.7318      24.7144    -999.2500      35.4306      28.8486       7.2005       0.1194       2.6538    -999.2500
   2204.3899       6.8805       0.0000      61.9221      24.4440    -999.2500      37.6427      31.3570      27.8077       0.1086       2.6490    -999.2500
   2204.5422       6.8634       0.0000      60.5231      24.4440    -999.2500      38.6348      34.4357      69.9005       0.0978       2.6510    -999.2500
   2204.6946       6.8382       0.0000      62.6612      24.9462    -999.2500      39.1440      37.0676      81.6835       0.0908       2.6590    -999.2500
   2204.8469       6.8047       0.0000      68.2917      25.9572    -999.2500      39.1640      39.2469      62.7622       0.0838       2.6730    -999.2500
   2204.9995       6.7883       0.0000      71.0829      26.4592    -999.2500      44.3474      43.8450      58.0970       0.0820       2.6938    -999.2500
   2205.1519       6.7888       0.0000      71.0609      26.4538    -999.2500      54.6794      50.8549      67.6473       0.0803       2.7213    -999.2500
   2205.3042       6.8141       0.0000      68.1122      25.3945    -999.2500      66.8103      58.3473      72.2724       0.0798       2.7530    -999.2500
   2205.4565       6.8641       0.0000      62.2722      23.2809    -999.2500      80.7413      66.3224      71.9690       0.0793       2.7890    -999.2500
   2205.6089       6.8890       0.0000      60.5735      22.2220    -999.2500      95.3294      75.9326      56.4861       0.0746       2.8070    -999.2500
   2205.7615       6.8890       0.0000      62.9798      22.2220    -999.2500     110.5774      87.1848      25.7619       0.0697       2.8070    -999.2500
   2205.9138       6.8890       0.0000      62.8159      22.2237    -999.2500     122.2439      92.8031      10.3636       0.0682       2.7933    -999.2500
   2206.0662       6.8890       0.0000      60.1116      22.2272    -999.2500     130.3019      92.7452      10.4071       0.0667       2.7659    -999.2500
   2206.2185       6.8890       0.0000      58.7894      22.4420    -999.2500     126.5896      84.2777      30.7735       0.0677       2.7530    -999.2500
   2206.3711       6.8890       0.0000      58.8379      22.8719    -999.2500     110.9004      67.2530      71.8192       0.0687       2.7550    -999.2500
   2206.5234       6.8450       0.0000      63.1135      23.1525    -999.2500     103.0018      58.6952      92.4870       0.0740       2.7560    -999.2500
   2206.6758       6.7576       0.0000      71.5691      23.2809    -999.2500     103.0579      58.7824      92.3476       0.0794       2.7560    -999.2500
   2206.8281       6.7148       0.0000      75.7338      23.6198    -999.2500     105.7594      63.2658      81.1404       0.0800       2.7535    -999.2500
   2206.9807       6.7163       0.0000      75.6678      24.1691    -999.2500     111.1026      72.1395      58.8800       0.0806       2.7485    -999.2500
   2207.1331       6.7881       0.0000      72.8736      24.4440    -999.2500     120.9655      85.3945      47.7589       0.0803       2.7378    -999.2500
   2207.2854       6.9295       0.0000      67.3800      24.4440    -999.2500     135.3577     103.0403      47.8009       0.0800       2.7213    -999.2500
   2207.4377       6.9997       0.0000      62.9356      24.4440    -999.2500     149.7860     111.8877      49.4698       0.0800       2.7132    -999.2500
   2207.5901       6.9992       0.0000      59.5261      24.4440    -999.2500     164.2508     111.8307      52.7854       0.0800       2.7137    -999.2500
   2207.7427       6.9736       0.0000      57.6538      24.4435    -999.2500     171.3838     109.6828      76.0332       0.0800       2.7220    -999.2500
   2207.8950       6.9231       0.0000      57.3032      24.4425    -999.2500     171.0709     105.4115     119.5232       0.0800       2.7380    -999.2500
   2208.0474       6.9237       0.0000      56.8576      24.4134    -999.2500     159.0967     103.3046     124.7607       0.0800       2.7528    -999.2500
   2208.1997       6.9746       0.0000      56.3183      24.3564    -999.2500     135.5393     103.3475      92.0023       0.0800       2.7663    -999.2500
   2208.3523       6.9995       0.0000      55.5740      23.9891    -999.2500     126.9435     104.5857      75.7013       0.0800       2.7748    -999.2500
   2208.5046       6.9985       0.0000      54.6267      23.3124    -999.2500     133.2603     107.0153      75.8036       0.0800       2.7782    -999.2500
   2208.6570       6.9221       0.0000      54.1633      22.5092    -999.2500     136.3426     108.2131      80.4043       0.0769       2.7802    -999.2500
   2208.8093       6.7711       0.0000      54.1778      21.5786    -999.2500     136.1691     108.1711      89.5328       0.0738       2.7807    -999.2500
   2208.9619       6.6965       0.0000      55.2010      21.1170    -999.2500     132.2323     107.1189      93.9860       0.0728       2.7842    -999.2500
   2209.1143       6.6975       0.0000      57.2238      21.1290    -999.2500     124.4942     105.0463      93.7166       0.0719       2.7907    -999.2500
   2209.2666       6.7174       0.0000      58.2272      21.3928    -999.2500     114.5857     100.0714      85.9295       0.0782       2.7970    -999.2500
   2209.4189       6.7558       0.0000      58.2237      21.9118    -999.2500     102.4773      92.1548      70.5227       0.0847       2.8030    -999.2500
   2209.5713       6.8036       0.0000      58.1173      22.1838    -999.2500      96.6386      88.2353      66.9436       0.0867       2.8135    -999.2500
   2209.7239       6.8607       0.0000      57.9087      22.2092    -999.2500      97.0555      88.3037      75.1656       0.0886       2.8285    -999.2500
