#------------------------------------------------------------------------------
#
#   Created by  : [OpenWorks] Log Export Utility (LEXP)
#   Created on  : 2016-05-23 11:57:25
#   Project     : CANT971
#   User        : R5K
#   Interpreter : PEP
#
#------------------------------------------------------------------------------
~VERSION INFORMATION
VERS. 2.0 : CWLS Log ASCII Standard - version 2.0
WRAP.  NO : One line per depth step
~WELL INFORMATION
#MNEMONIC   .UNIT                                           VALUE :DESCRIPTION
#------------------------------------------------------------------------------
STRT        .M                                           497.5860 :START DEPTH
STOP        .M                                          2904.1343 :STOP DEPTH
STEP        .M                                             0.1524 :STEP
NULL        .                                           -999.2500 :NULL VALUE
COMP        .                                   PEMEX EXPL & PROD :COMPANY
WELL        .                                                 82A :WELL
FLD         .                                           CANTARELL :FIELD
LOC         .                                             UNKNOWN :LOCATION
CNTY        .                                      CD. DEL CARMEN :COUNTY
STAT        .                                            CAMPECHE :STATE
CTRY        .                                              MEXICO :COUNTRY
SRVC        .                                             UNKNOWN :SERVICE COMPANY
DATE        .                                             UNKNOWN :LOG DATE
UWI         .                                          3060000184 :UNIQUE WELL ID
XCOORD      .                                       601716.340000 :SURFACE X
YCOORD      .                                      2142348.150000 :SURFACE Y
LAT         .                                           19.373822 :LATITUDE
LON         .                                          -92.031440 :LONGITUDE
ELEV        .M                                            24.0000 :SURFACE ELEV
ELEV_TYPE   .                                                  KB :ELEV TYPE
~CURVE INFORMATION
#MNEMONIC.UNIT        API CODE       : CURVE DESCRIPTION
#------------------------------------------------------------------------------
DEPTH    .M                          : Measured Depth
CAL      .inches      UNKNOWN        : CAL:UNKNOWN:rC:NONE:v0 (auto-composite)
DRHO     .g/cm3       UNKNOWN        : DRHO:UNKNOWN:rC:NONE:v0 (auto-composite)
DT       .us/ft       UNKNOWN        : DT:DT:rC:NONE:v0 (auto-composite)
GR       .api         UNKNOWN        : GR:GR-Load:rC:NONE:v0 (auto-composite)
ILD      .ohm.m       UNKNOWN        : ILD:PETROWORKS:rC:NONE:v1 
LLD      .ohmm        UNKNOWN        : LLD:UNKNOWN:rC:NONE:v0 (auto-composite)
LLS      .ohmm        UNKNOWN        : LLS:UNKNOWN:rC:NONE:v0 (auto-composite)
MSFL     .ohmm        UNKNOWN        : MSFL:PETROWORKS:rC:NONE:v1 
NPHI     .v/v_decimal UNKNOWN        : NPHI:NPHI:rC:NONE:v0 (auto-composite)
PEF      .b/elec      UNKNOWN        : PEF:UNKNOWN:rC:NONE:v0 (auto-composite)
RG       .API         UNKNOWN        : RG:UNKNOWN:rC:NONE:v0 (auto-composite)
RHOB     .g/cm3       UNKNOWN        : RHOB:UNKNOWN:rC:NONE:v0 (auto-composite)
~A     DEPTH          CAL         DRHO           DT           GR          ILD          LLD          LLS         MSFL         NPHI          PEF           RG         RHOB
# ...
   2253.2339       8.8479       0.0047    -999.2500      23.0181    -999.2500     264.5244   65268.3750    2000.6870       5.8458       3.1610      24.7642       2.7481
   2253.3865       8.8367       0.0043    -999.2500      23.8028    -999.2500     260.2340   65205.6758    2000.6870       6.1761       3.1368      23.1126       2.7461
   2253.5388       8.8347       0.0048    -999.2500      24.4605    -999.2500     251.0625   65064.5586    2000.6870       6.4447       3.1128      21.7597       2.7446
   2253.6912       8.8308       0.0050    -999.2500      25.0864    -999.2500     244.8299   65002.1836    2000.4731       6.7065       3.1498      21.1187       2.7418
   2253.8435       8.8258       0.0050    -999.2500      25.7061    -999.2500     240.3128   64985.7734    1995.5215       6.9445       3.2222      20.8933       2.7383
   2253.9961       8.8076       0.0034    -999.2500      25.5992    -999.2500     242.6308   64975.5742    1990.7627       7.0794       3.2396      20.8585       2.7269
   2254.1484       8.7817       0.0009    -999.2500      25.3526    -999.2500     248.9535   64969.0156    1992.4958       6.8593       3.2246      20.9354       2.7109
   2254.3008       8.7585      -0.0003    -999.2500      25.4376    -999.2500     255.5512   65024.2930    1994.3293       6.6132       3.1926      21.4678       2.7012
   2254.4531       8.7370      -0.0008    -999.2500      25.5861    -999.2500     262.3118   65116.1875    1997.5480       6.2775       3.1506      22.2700       2.6952
   2254.6057       8.7268       0.0015    -999.2500      24.6892    -999.2500     264.8765   65082.5117    2000.6870       5.8367       3.0776      22.7693       2.6899
   2254.7581       8.7233       0.0055    -999.2500      23.5913    -999.2500     264.9475   64974.2070    2000.6870       5.0369       2.9862      23.0887       2.6849
   2254.9104       8.7192       0.0070    -999.2500      22.2898    -999.2500     267.5287   64995.4102    2000.6870       4.3829       2.9479      23.0662       2.6977
   2255.0627       8.7147       0.0070    -999.2500      20.9493    -999.2500     271.6075   65093.8711    2000.6870       4.2244       2.9414      22.8398       2.7212
   2255.2151       8.7105       0.0061    -999.2500      21.4799    -999.2500     274.5947   65120.4883    2000.6021       4.0796       3.0040      22.1706       2.7434
   2255.3677       8.7065       0.0046    -999.2500      22.3665    -999.2500     276.9283   65104.0898    1998.7451       3.9816       3.1078      21.2362       2.7649
   2255.5200       8.6994       0.0040    -999.2500      23.2256    -999.2500     275.5975   65054.9688    1996.9370       3.8571       3.1152      21.2038       2.7761
   2255.6724       8.6904       0.0040    -999.2500      24.0794    -999.2500     272.0496   64986.0469    1996.9370       3.6437       3.0643      21.7171       2.7811
   2255.8247       8.6867       0.0040    -999.2500      26.1824    -999.2500     271.9895   64960.0078    1997.0239       3.4734       2.9872      22.6296       2.7842
   2255.9773       8.6862       0.0040    -999.2500      28.5233    -999.2500     274.0476   64960.0078    1998.8809       3.4489       2.8942      23.7846       2.7862
   2256.1296       8.6931       0.0056    -999.2500      28.8220    -999.2500     280.5676   65031.3164    1999.6382       3.4063       2.8475      24.4566       2.7882
   2256.2820       8.7046       0.0080    -999.2500      28.7341    -999.2500     289.8072   65146.0938    1977.4791       3.3028       2.8290      24.8341       2.7902
   2256.4343       8.7158       0.0105    -999.2500      29.6068    -999.2500     287.6484   65151.2539    1956.5293       3.2145       2.8733      25.8882       2.7938
   2256.5869       8.7268       0.0130    -999.2500      30.6627    -999.2500     278.4688   65088.8984    1968.9088       3.1775       2.9563      27.3591       2.7983
   2256.7393       8.7418       0.0115    -999.2500      30.5337    -999.2500     273.5607   65085.3594    1981.4100       3.1757       3.1106      28.4578       2.7997
   2256.8916       8.7593       0.0075    -999.2500      30.1801    -999.2500     271.2932   65118.1758    1991.1898       3.2918       3.3090      29.3264       2.7992
   2257.0439       8.7746       0.0060    -999.2500      29.7897    -999.2500     275.7548   65053.7812    2000.6508       3.4346       3.4269      30.2595       2.7913
   2257.1963       8.7886       0.0060    -999.2500      29.3924    -999.2500     284.3916   64929.0703    1999.9080       3.6667       3.4949      31.2326       2.7788
   2257.3489       8.7962       0.0063    -999.2500      28.8888    -999.2500     291.2832   64905.4609    1999.2238       3.8620       3.4256      31.8968       2.7786
   2257.5012       8.7996       0.0068    -999.2500      28.3651    -999.2500     297.0880   64944.8125    1999.9664       3.9356       3.2708      32.3687       2.7861
   2257.6536       8.8028       0.0061    -999.2500      27.6626    -999.2500     306.5532   64996.2695    2000.6870       3.9621       3.2159      31.9369       2.7924
   2257.8059       8.8058       0.0046    -999.2500      26.9263    -999.2500     318.3216   65055.3438    2000.6870       3.8336       3.2239      30.9363       2.7979
   2257.9585       8.8076       0.0034    -999.2500      25.5539    -999.2500     302.9199   65082.2344    2000.5872       3.7336       3.1976      29.1350       2.7957
   2258.1108       8.8086       0.0024    -999.2500      24.0620    -999.2500     270.3589   65088.7969    1998.6064       3.7276       3.1496      26.8280       2.7887
   2258.2632       8.8093       0.0017    -999.2500      26.1693    -999.2500     263.1553   65071.2734    1996.7880       3.7630       3.0922      25.6475       2.7839
   2258.4155       8.8098       0.0012    -999.2500      28.9563    -999.2500     272.0244   65038.4805    1998.7687       3.9341       3.0288      25.1811       2.7804
   2258.5681       8.8149      -0.0005    -999.2500      30.3162    -999.2500     277.8929   65029.6758    2000.6870       4.0922       3.0180      25.8487       2.7760
   2258.7205       8.8229      -0.0030    -999.2500      31.4081    -999.2500     281.8397   65036.2422    2000.6870       4.2083       3.0410      27.2426       2.7710
   2258.8728       8.8297      -0.0028    -999.2500      29.5957    -999.2500     282.7031   65040.8047    2000.6870       4.3531       3.0652      28.8230       2.7687
   2259.0251       8.8356      -0.0008    -999.2500      27.2407    -999.2500     281.5846   65044.0898    2000.6870       4.5911       3.0902      30.5233       2.7682
   2259.1775       8.8465       0.0018    -999.2500      26.6394    -999.2500     275.2134   65059.3398    2000.6870       4.7370       3.1559      30.6365       2.7677
   2259.3301       8.8605       0.0048    -999.2500      26.3678    -999.2500     265.4536   65082.3164    2000.6870       4.5844       3.2479      29.7259       2.7672
   2259.4824       8.8833       0.0060    -999.2500      26.0157    -999.2500     258.1691   65101.2969    2000.6870       4.3392       3.1761      28.8103       2.7634
   2259.6348       8.9117       0.0060    -999.2500      25.6486    -999.2500     252.4871   65117.6914    2000.6870       3.7955       2.9983      27.8914       2.7574
   2259.7871       8.9290       0.0045    -999.2500      23.6602    -999.2500     259.9938   65270.9844    2000.6870       3.4448       2.9056      27.6567       2.7595
   2259.9397       8.9390       0.0020    -999.2500      21.3703    -999.2500     276.1283   65513.8359    2000.6870       3.7134       2.8687      27.8696       2.7670
   2260.0920       8.9463      -0.0014    -999.2500      19.2414    -999.2500     271.5552   65673.4844    2000.6870       3.9675       2.8772      27.1650       2.7706
   2260.2444       8.9518      -0.0054    -999.2500      17.1424    -999.2500     253.3866   65778.5000    2000.6870       4.1751       2.9157      25.8581       2.7716
   2260.3967       8.9552      -0.0055    -999.2500      16.2720    -999.2500     222.2976   65545.2344    2000.6870       4.1783       2.9729      24.4623       2.7690
