#------------------------------------------------------------------------------
#
#   Created by  : [OpenWorks] Log Export Utility (LEXP)
#   Created on  : 2016-05-12 17:01:28
#   Project     : CANT971
#   User        : R5K
#   Interpreter : PEP
#
#------------------------------------------------------------------------------
~VERSION INFORMATION
VERS. 2.0 : CWLS Log ASCII Standard - version 2.0
WRAP.  NO : One line per depth step
~WELL INFORMATION
#MNEMONIC   .UNIT                                           VALUE :DESCRIPTION
#------------------------------------------------------------------------------
STRT        .M                                           350.5962 :START DEPTH
STOP        .M                                          2218.5630 :STOP DEPTH
STEP        .M                                             0.1524 :STEP
NULL        .                                           -999.2500 :NULL VALUE
COMP        .                                   PEMEX EXPL & PROD :COMPANY
WELL        .                                                  79 :WELL
FLD         .                                           CANTARELL :FIELD
LOC         .                                             UNKNOWN :LOCATION
CNTY        .                                      CD. DEL CARMEN :COUNTY
STAT        .                                            CAMPECHE :STATE
CTRY        .                                              MEXICO :COUNTRY
SRVC        .                                             UNKNOWN :SERVICE COMPANY
DATE        .                                             UNKNOWN :LOG DATE
UWI         .                                          3060000183 :UNIQUE WELL ID
XCOORD      .                                       602154.470000 :SURFACE X
YCOORD      .                                      2147172.410000 :SURFACE Y
LAT         .                                           19.417394 :LATITUDE
LON         .                                          -92.027010 :LONGITUDE
ELEV        .M                                            28.1700 :SURFACE ELEV
ELEV_TYPE   .                                                  KB :ELEV TYPE
~CURVE INFORMATION
#MNEMONIC.UNIT        API CODE       : CURVE DESCRIPTION
#------------------------------------------------------------------------------
DEPTH    .M                          : Measured Depth
CALI     .inches      UNKNOWN        : CALI:CALI-Load:rC:NONE:v0 (auto-composite)
DT       .us/ft       UNKNOWN        : DT:DT:rC:NONE:v0 (auto-composite)
GR       .UNKNOWN     UNKNOWN        : GR:GR-Load:rC:NONE:v0 (auto-composite)
ILD      .UNKNOWN     UNKNOWN        : ILD:ILD-Load:rC:NONE:v0 (auto-composite)
LLD      .UNKNOWN     UNKNOWN        : LLD:LLD-Load:rC:NONE:v0 (auto-composite)
LLS      .UNKNOWN     UNKNOWN        : LLS:LLS-Load:rC:NONE:v0 (auto-composite)
MSFL     .UNKNOWN     UNKNOWN        : MSFL:MSFL-Load:rC:NONE:v0 (auto-composite)
NPHI     .v/v_decimal UNKNOWN        : NPHI:NPHI:rC:NONE:v0 (auto-composite)
RG       .API         UNKNOWN        : RG:UNKNOWN:rC:NONE:v0 (auto-composite)
RHOB     .UNKNOWN     UNKNOWN        : RHOB:RHOB-Load:rC:NONE:v0 (auto-composite)
SP       .UNKNOWN     UNKNOWN        : SP:SP-Load:rC:NONE:v0 (auto-composite)
~A     DEPTH         CALI           DT           GR          ILD          LLD          LLS         MSFL         NPHI           RG         RHOB           SP
# ...
   1658.1882      13.4827    -999.2500      63.0094       1.0615    -999.2500    -999.2500    -999.2500       0.3564    -999.2500       2.2912      53.8993
   1658.3406      13.4362    -999.2500      63.1399       1.0545    -999.2500    -999.2500    -999.2500       0.3597    -999.2500       2.2757      53.9458
   1658.4930      13.3784    -999.2500      63.5427       1.0455    -999.2500    -999.2500    -999.2500       0.3584    -999.2500       2.2680      54.0469
   1658.6454      13.3094    -999.2500      64.2167       1.0345    -999.2500    -999.2500    -999.2500       0.3525    -999.2500       2.2680      54.2024
   1658.7979      13.3499    -999.2500      64.8506       1.0240    -999.2500    -999.2500    -999.2500       0.3529    -999.2500       2.2700      54.3732
   1658.9502      13.4994    -999.2500      65.4446       1.0140    -999.2500    -999.2500    -999.2500       0.3598    -999.2500       2.2740      54.5592
   1659.1025      13.7120    -999.2500      65.4029       1.0115    -999.2500    -999.2500    -999.2500       0.3612    -999.2500       2.2702      54.7224
   1659.2550      13.9875    -999.2500      64.7279       1.0165    -999.2500    -999.2500    -999.2500       0.3573    -999.2500       2.2587      54.8629
   1659.4073      14.2988    -999.2500      63.7902       1.0225    -999.2500    -999.2500    -999.2500       0.3565    -999.2500       2.2467      54.9485
   1659.5598      14.6458    -999.2500      62.5907       1.0295    -999.2500    -999.2500    -999.2500       0.3587    -999.2500       2.2342      54.9795
   1659.7122      15.0647    -999.2500      61.5390       1.0377    -999.2500    -999.2500    -999.2500       0.3630    -999.2500       2.2295      55.0887
   1659.8646      15.5551    -999.2500      60.6345       1.0472    -999.2500    -999.2500    -999.2500       0.3693    -999.2500       2.2325      55.2756
   1660.0170      15.4057    -999.2500      59.4674       1.0567    -999.2500    -999.2500    -999.2500       0.3737    -999.2500       2.2363      55.4311
   1660.1694      14.6182    -999.2500      58.0385       1.0662    -999.2500    -999.2500    -999.2500       0.3762    -999.2500       2.2408      55.5551
   1660.3218      14.3797    -999.2500      57.0431       1.0703    -999.2500    -999.2500    -999.2500       0.3791    -999.2500       2.2415      55.5860
   1660.4742      14.6887    -999.2500      56.4801       1.0688    -999.2500    -999.2500    -999.2500       0.3825    -999.2500       2.2385      55.5240
   1660.6266      14.9824    -999.2500      56.7437       1.0650    -999.2500    -999.2500    -999.2500       0.3869    -999.2500       2.2430      55.4930
   1660.7789      15.2609    -999.2500      57.8317       1.0590    -999.2500    -999.2500    -999.2500       0.3924    -999.2500       2.2550      55.4930
   1660.9314      15.2779    -999.2500      58.8433       1.0538    -999.2500    -999.2500    -999.2500       0.3927    -999.2500       2.2597      55.3994
   1661.0837      15.0339    -999.2500      59.7788       1.0493    -999.2500    -999.2500    -999.2500       0.3879    -999.2500       2.2572      55.2124
   1661.2362      14.7526    -999.2500      59.9364       1.0497    -999.2500    -999.2500    -999.2500       0.3842    -999.2500       2.2485      55.0412
   1661.3885      14.4341    -999.2500      59.3180       1.0552    -999.2500    -999.2500    -999.2500       0.3818    -999.2500       2.2335      54.8857
   1661.5410      14.3078    -999.2500      58.7185       1.0645    -999.2500    -999.2500    -999.2500       0.3808    -999.2500       2.2195      54.7692
   1661.6934      14.3733    -999.2500      58.1380       1.0775    -999.2500    -999.2500    -999.2500       0.3814    -999.2500       2.2065      54.6917
   1661.8458      14.5389    -999.2500      58.5686       1.0897    -999.2500    -999.2500    -999.2500       0.3857    -999.2500       2.1957      54.5987
   1661.9982      14.8045    -999.2500      60.0086       1.1012    -999.2500    -999.2500    -999.2500       0.3938    -999.2500       2.1872      54.4901
   1662.1506      15.1848    -999.2500      61.6458       1.1100    -999.2500    -999.2500    -999.2500       0.3930    -999.2500       2.1875      54.3578
   1662.3030      15.6793    -999.2500      63.4792       1.1160    -999.2500    -999.2500    -999.2500       0.3834    -999.2500       2.1965      54.2018
   1662.4554      16.0886    -999.2500      65.0819       1.1237    -999.2500    -999.2500    -999.2500       0.3752    -999.2500       2.2113      54.1240
   1662.6078      16.4131    -999.2500      66.4549       1.1332    -999.2500    -999.2500    -999.2500       0.3684    -999.2500       2.2318      54.1240
   1662.7601      16.3731    -999.2500      66.6142       1.1405    -999.2500    -999.2500    -999.2500       0.3635    -999.2500       2.2415      54.1240
   1662.9126      15.9701    -999.2500      65.5647       1.1455    -999.2500    -999.2500    -999.2500       0.3607    -999.2500       2.2405      54.1240
   1663.0649      15.6641    -999.2500      64.4627       1.1450    -999.2500    -999.2500    -999.2500       0.3564    -999.2500       2.2370      54.1240
   1663.2174      15.4546    -999.2500      63.3082       1.1390    -999.2500    -999.2500    -999.2500       0.3506    -999.2500       2.2310      54.1240
   1663.3698      15.1171    -999.2500      61.8387       1.1340    -999.2500    -999.2500    -999.2500       0.3554    -999.2500       2.2313      54.0541
   1663.5222      14.6521    -999.2500      60.0553       1.1300    -999.2500    -999.2500    -999.2500       0.3708    -999.2500       2.2378      53.9146
   1663.6746      14.0957    -999.2500      58.6352       1.1253    -999.2500    -999.2500    -999.2500       0.3777    -999.2500       2.2392      53.7904
   1663.8270      13.4482    -999.2500      57.5772       1.1198    -999.2500    -999.2500    -999.2500       0.3761    -999.2500       2.2357      53.6814
   1663.9794      13.1688    -999.2500      57.5242       1.1170    -999.2500    -999.2500    -999.2500       0.3732    -999.2500       2.2257      53.6971
   1664.1318      13.2563    -999.2500      58.4732       1.1170    -999.2500    -999.2500    -999.2500       0.3688    -999.2500       2.2092      53.8371
   1664.2842      13.1936    -999.2500      58.6093       1.1170    -999.2500    -999.2500    -999.2500       0.3713    -999.2500       2.2065      53.9536
   1664.4366      12.9811    -999.2500      57.9348       1.1170    -999.2500    -999.2500    -999.2500       0.3807    -999.2500       2.2175      54.0466
   1664.5890      12.9453    -999.2500      57.9634       1.1170    -999.2500    -999.2500    -999.2500       0.3872    -999.2500       2.2300      54.1008
   1664.7413      13.0858    -999.2500      58.6934       1.1170    -999.2500    -999.2500    -999.2500       0.3907    -999.2500       2.2440      54.1163
   1664.8938      13.4804    -999.2500      59.7428       1.1180    -999.2500    -999.2500    -999.2500       0.3923    -999.2500       2.2538      54.1007
   1665.0461      14.1283    -999.2500      61.1107       1.1200    -999.2500    -999.2500    -999.2500       0.3921    -999.2500       2.2593      54.0542
   1665.1986      14.7490    -999.2500      61.5590       1.1232    -999.2500    -999.2500    -999.2500       0.3904    -999.2500       2.2607      53.9299
   1665.3510      15.3425    -999.2500      61.0895       1.1277    -999.2500    -999.2500    -999.2500       0.3873    -999.2500       2.2582      53.7279
   1665.5034      15.9608    -999.2500      60.4777       1.1320    -999.2500    -999.2500    -999.2500       0.3931    -999.2500       2.2462      53.6503
   1665.6558      16.6038    -999.2500      59.7237       1.1360    -999.2500    -999.2500    -999.2500       0.4079    -999.2500       2.2247      53.6968
   1665.8082      16.5120    -999.2500      59.8220       1.1368    -999.2500    -999.2500    -999.2500       0.4125    -999.2500       2.2140      53.7590
   1665.9606      15.6867    -999.2500      60.7714       1.1343    -999.2500    -999.2500    -999.2500       0.4070    -999.2500       2.2140      53.8371
