#------------------------------------------------------------------------------
#
#   Created by  : [OpenWorks] Log Export Utility (LEXP)
#   Created on  : 2016-05-23 11:53:36
#   Project     : CANT971
#   User        : R5K
#   Interpreter : PEP
#
#------------------------------------------------------------------------------
~VERSION INFORMATION
VERS. 2.0 : CWLS Log ASCII Standard - version 2.0
WRAP.  NO : One line per depth step
~WELL INFORMATION
#MNEMONIC   .UNIT                                           VALUE :DESCRIPTION
#------------------------------------------------------------------------------
STRT        .M                                           940.3716 :START DEPTH
STOP        .M                                          3167.2405 :STOP DEPTH
STEP        .M                                             0.1524 :STEP
NULL        .                                           -999.2500 :NULL VALUE
COMP        .                                   PEMEX EXPL & PROD :COMPANY
WELL        .                                                  24 :WELL
FLD         .                                           CANTARELL :FIELD
LOC         .                                             UNKNOWN :LOCATION
CNTY        .                                      CD. DEL CARMEN :COUNTY
STAT        .                                            CAMPECHE :STATE
CTRY        .                                              MEXICO :COUNTRY
SRVC        .                                             UNKNOWN :SERVICE COMPANY
DATE        .                                             UNKNOWN :LOG DATE
UWI         .                                          3060000153 :UNIQUE WELL ID
XCOORD      .                                       598455.290000 :SURFACE X
YCOORD      .                                      2145024.750000 :SURFACE Y
LAT         .                                           19.398172 :LATITUDE
LON         .                                          -92.062351 :LONGITUDE
ELEV        .M                                            26.5400 :SURFACE ELEV
ELEV_TYPE   .                                                  KB :ELEV TYPE
~CURVE INFORMATION
#MNEMONIC.UNIT        API CODE       : CURVE DESCRIPTION
#------------------------------------------------------------------------------
DEPTH    .M                          : Measured Depth
CALI     .inches      UNKNOWN        : CALI:Import:rC:NONE:v0 (auto-composite)
DRHO     .g/cm3       UNKNOWN        : DRHO:Import:rC:NONE:v0 (auto-composite)
DT       .us/ft       UNKNOWN        : DT:Import:rC:NONE:v0 (auto-composite)
GR       .API         UNKNOWN        : GR:Import:rC:NONE:v0 (auto-composite)
ILD      .ohm.m       UNKNOWN        : ILD:Import:rC:NONE:v0 (auto-composite)
LLD      .ohm.m       UNKNOWN        : LLD:Import:rC:NONE:v0 (auto-composite)
LLS      .ohm.m       UNKNOWN        : LLS:Import:rC:NONE:v0 (auto-composite)
MSFL     .ohm.m       UNKNOWN        : MSFL:Import:rC:NONE:v0 (auto-composite)
NPHI     .v/v_decimal UNKNOWN        : NPHI:Import:rC:NONE:v0 (auto-composite)
RHOB     .g/cm3       UNKNOWN        : RHOB:Import:rC:NONE:v0 (auto-composite)
~A     DEPTH         CALI         DRHO           DT           GR          ILD          LLD          LLS         MSFL         NPHI         RHOB
# ...
   2988.6277    -999.2500    -999.2500    -999.2500      37.7901    -999.2500      30.7396      30.8888      31.8463       0.0772    -999.2500
   2988.7800    -999.2500    -999.2500    -999.2500      35.1567    -999.2500      30.7295      33.9018      33.0331       0.0717    -999.2500
   2988.9324    -999.2500    -999.2500    -999.2500      30.6647    -999.2500      33.8546      74.1587      67.0411       0.0658    -999.2500
   2989.0847    -999.2500    -999.2500    -999.2500      26.4783    -999.2500      37.1778     116.6370     102.4868       0.0618    -999.2500
   2989.2371    -999.2500    -999.2500    -999.2500      24.7800    -999.2500      42.1137     177.2069     149.6399       0.0635    -999.2500
   2989.3896    -999.2500    -999.2500    -999.2500      23.1464    -999.2500      47.2843     242.1182     200.0692       0.0664    -999.2500
   2989.5420    -999.2500    -999.2500    -999.2500      22.0439    -999.2500      54.3843     342.7023     277.4172       0.0689    -999.2500
   2989.6943    -999.2500    -999.2500    -999.2500      21.1691    -999.2500      59.8856     421.4293     337.5336       0.0713    -999.2500
   2989.8467    -999.2500    -999.2500    -999.2500      22.1829    -999.2500      52.1336     318.9467     254.7867       0.0734    -999.2500
   2989.9993    -999.2500    -999.2500    -999.2500      23.3380    -999.2500      44.7509     219.8056     175.0355       0.0766    -999.2500
   2990.1516    -999.2500    -999.2500    -999.2500      25.6002    -999.2500      40.2620     146.8471     118.7574       0.0833    -999.2500
   2990.3040    -999.2500    -999.2500    -999.2500      27.7559    -999.2500      36.2390      79.4686      66.6666       0.0928    -999.2500
   2990.4563    -999.2500    -999.2500    -999.2500      29.0559    -999.2500      35.9591      56.9114      48.2095       0.1089    -999.2500
   2990.6089    -999.2500    -999.2500    -999.2500      30.3293    -999.2500      35.7999      36.5826      31.9841       0.1254    -999.2500
   2990.7612    -999.2500    -999.2500    -999.2500      31.3878    -999.2500      36.6186      34.3126      33.8418       0.1379    -999.2500
   2990.9136    -999.2500    -999.2500    -999.2500      32.7989    -999.2500      37.4385      32.5362      35.5919       0.1418    -999.2500
   2991.0659    -999.2500    -999.2500    -999.2500      37.0926    -999.2500      38.2692      34.7952      36.4631       0.1208    -999.2500
   2991.2183    -999.2500    -999.2500    -999.2500      41.0898    -999.2500      39.1825      36.9901      37.3970       0.0973    -999.2500
   2991.3708    -999.2500    -999.2500    -999.2500      42.6419    -999.2500      40.7775      38.6555      38.8492       0.0824    -999.2500
   2991.5232    -999.2500    -999.2500    -999.2500      43.7191    -999.2500      42.3819      40.2565      40.2350       0.0713    -999.2500
   2991.6755    -999.2500    -999.2500    -999.2500      40.7764    -999.2500      44.0661      41.3119      41.0583       0.0674    -999.2500
   2991.8279    -999.2500    -999.2500    -999.2500      37.9743    -999.2500      45.6668      42.1027      41.4791       0.0665    -999.2500
   2991.9805    -999.2500    -999.2500    -999.2500      36.2950    -999.2500      46.5999      40.7783      38.6833       0.0706    -999.2500
   2992.1328    -999.2500    -999.2500    -999.2500      34.6967    -999.2500      47.2963      39.3820      35.9503       0.0761    -999.2500
   2992.2852    -999.2500    -999.2500    -999.2500      33.7511    -999.2500      46.0843      37.4064      33.7232       0.0828    -999.2500
   2992.4375    -999.2500    -999.2500    -999.2500      32.7358    -999.2500      44.8189      35.4137      31.5246       0.0899    -999.2500
   2992.5901    -999.2500    -999.2500    -999.2500      31.1532    -999.2500      43.1185      33.2829      29.5570       0.0972    -999.2500
   2992.7424    -999.2500    -999.2500    -999.2500      29.7793    -999.2500      41.9580      31.7355      28.2886       0.1043    -999.2500
   2992.8948    -999.2500    -999.2500    -999.2500      30.1467    -999.2500      45.3036      35.0581      32.8552       0.1096    -999.2500
   2993.0471    -999.2500    -999.2500    -999.2500      30.4891    -999.2500      48.5503      38.2343      37.0372       0.1109    -999.2500
   2993.1995    -999.2500    -999.2500    -999.2500      30.6220    -999.2500      50.9650      40.1782      37.9813       0.0998    -999.2500
   2993.3521    -999.2500    -999.2500    -999.2500      30.6334    -999.2500      53.0162      42.0828      38.6341       0.0868    -999.2500
   2993.5044    -999.2500    -999.2500    -999.2500      29.6788    -999.2500      52.1766      43.6752      36.9698       0.0755    -999.2500
   2993.6567    -999.2500    -999.2500    -999.2500      28.6800    -999.2500      51.7627      48.4624      36.0092       0.0685    -999.2500
   2993.8091    -999.2500    -999.2500    -999.2500      27.3267    -999.2500      54.7645      78.8833      40.6939       0.0743    -999.2500
   2993.9617    -999.2500    -999.2500    -999.2500      26.1582    -999.2500      60.6122     117.8636      46.7332       0.0835    -999.2500
   2994.1140    -999.2500    -999.2500    -999.2500      26.5105    -999.2500      89.8780     227.2759      63.9188       0.0955    -999.2500
   2994.2664    -999.2500    -999.2500    -999.2500      26.8684    -999.2500     122.0320     350.2783      82.8157       0.1038    -999.2500
   2994.4187    -999.2500    -999.2500    -999.2500      27.2720    -999.2500     178.1651     586.1180     115.9214       0.0977    -999.2500
   2994.5713    -999.2500    -999.2500    -999.2500      27.5105    -999.2500     232.6097     804.8591     147.3705       0.0889    -999.2500
   2994.7236    -999.2500    -999.2500    -999.2500      26.4529    -999.2500     273.8054     889.4330     165.8200       0.0799    -999.2500
   2994.8760    -999.2500    -999.2500    -999.2500      25.4757    -999.2500     298.7549     923.9731     176.7298       0.0748    -999.2500
   2995.0283    -999.2500    -999.2500    -999.2500      25.1341    -999.2500     195.1207     562.5082     127.9650       0.0830    -999.2500
   2995.1807    -999.2500    -999.2500    -999.2500      24.8535    -999.2500     101.0794     233.2999      86.3192       0.0934    -999.2500
   2995.3333    -999.2500    -999.2500    -999.2500      25.0679    -999.2500      84.8854     165.8560     102.4452       0.1027    -999.2500
   2995.4856    -999.2500    -999.2500    -999.2500      25.2694    -999.2500      69.7616     103.7370     125.3231       0.1048    -999.2500
   2995.6379    -999.2500    -999.2500    -999.2500      25.3648    -999.2500      63.4004      85.2150     203.4813       0.0829    -999.2500
   2995.7903    -999.2500    -999.2500    -999.2500      25.3772    -999.2500      57.3482      67.6007     265.3992       0.0606    -999.2500
   2995.9429    -999.2500    -999.2500    -999.2500      24.7030    -999.2500      53.8495      57.4852     193.1568       0.0515    -999.2500
   2996.0952    -999.2500    -999.2500    -999.2500      24.1122    -999.2500      50.4459      47.8147     124.6407       0.0479    -999.2500
   2996.2476    -999.2500    -999.2500    -999.2500      24.2275    -999.2500      47.8482      41.9174      87.7138       0.0557    -999.2500
   2996.3999    -999.2500    -999.2500    -999.2500      24.4066    -999.2500      45.3642      36.4449      53.6609       0.0657    -999.2500
   2996.5525    -999.2500    -999.2500    -999.2500      25.0963    -999.2500      43.7904      34.3733      42.6117       0.0765    -999.2500
   2996.7048    -999.2500    -999.2500    -999.2500      25.8790    -999.2500      42.5438      32.8897      33.2150       0.0857    -999.2500
   2996.8572    -999.2500    -999.2500    -999.2500      27.4129    -999.2500      43.9392      36.1538      37.1628       0.0887    -999.2500
   2997.0095    -999.2500    -999.2500    -999.2500      28.8937    -999.2500      45.4429      39.6736      41.5323       0.0877    -999.2500
