#------------------------------------------------------------------------------
#
#   Created by  : [OpenWorks] Log Export Utility (LEXP)
#   Created on  : 2016-05-23 11:55:37
#   Project     : CANT971
#   User        : R5K
#   Interpreter : PEP
#
#------------------------------------------------------------------------------
~VERSION INFORMATION
VERS. 2.0 : CWLS Log ASCII Standard - version 2.0
WRAP.  NO : One line per depth step
~WELL INFORMATION
#MNEMONIC   .UNIT                                           VALUE :DESCRIPTION
#------------------------------------------------------------------------------
STRT        .M                                           299.0628 :START DEPTH
STOP        .M                                          2570.8896 :STOP DEPTH
STEP        .M                                             0.1524 :STEP
NULL        .                                           -999.2500 :NULL VALUE
COMP        .                                   PEMEX EXPL & PROD :COMPANY
WELL        .                                                  31 :WELL
FLD         .                                           CANTARELL :FIELD
LOC         .                                             UNKNOWN :LOCATION
CNTY        .                                      CD. DEL CARMEN :COUNTY
STAT        .                                            CAMPECHE :STATE
CTRY        .                                              MEXICO :COUNTRY
SRVC        .                                             UNKNOWN :SERVICE COMPANY
DATE        .                                             UNKNOWN :LOG DATE
UWI         .                                          3060000157 :UNIQUE WELL ID
XCOORD      .                                       599727.810000 :SURFACE X
YCOORD      .                                      2147216.930000 :SURFACE Y
LAT         .                                           19.417919 :LATITUDE
LON         .                                          -92.050118 :LONGITUDE
ELEV        .M                                            27.8000 :SURFACE ELEV
ELEV_TYPE   .                                                  KB :ELEV TYPE
~CURVE INFORMATION
#MNEMONIC.UNIT        API CODE       : CURVE DESCRIPTION
#------------------------------------------------------------------------------
DEPTH    .M                          : Measured Depth
CALI     .inches      UNKNOWN        : CALI:Import:rC:NONE:v0 (auto-composite)
DRHO     .g/cm3       UNKNOWN        : DRHO:Import:rC:NONE:v0 (auto-composite)
DT       .us/ft       UNKNOWN        : DT:Import:rC:NONE:v0 (auto-composite)
GR       .API         UNKNOWN        : GR:Import:rC:NONE:v0 (auto-composite)
ILD      .ohm.m       UNKNOWN        : ILD:Import:rC:NONE:v0 (auto-composite)
LLD      .ohm.m       UNKNOWN        : LLD:Import:rC:NONE:v0 (auto-composite)
LLS      .ohm.m       UNKNOWN        : LLS:Import:rC:NONE:v0 (auto-composite)
MSFL     .ohm.m       UNKNOWN        : MSFL:Import:rC:NONE:v0 (auto-composite)
NPHI     .v/v_decimal UNKNOWN        : NPHI:Import:rC:NONE:v0 (auto-composite)
RHOB     .g/cm3       UNKNOWN        : RHOB:Import:rC:NONE:v0 (auto-composite)
~A     DEPTH         CALI         DRHO           DT           GR          ILD          LLD          LLS         MSFL         NPHI         RHOB
# ...
   2091.2869       7.2470       0.0908    -999.2500      42.4163    -999.2500      34.3514      39.2613       8.4292       0.1017       2.7638
   2091.4392       7.2799       0.0878    -999.2500      37.1606    -999.2500      52.0057      53.8716       6.7994       0.0926       2.7465
   2091.5916       7.3195       0.0888    -999.2500      31.7623    -999.2500      72.1027      70.2828       7.2434       0.0927       2.7259
   2091.7439       7.2338       0.0963    -999.2500      30.9370    -999.2500      75.2231      72.7943      15.6178       0.0957       2.6957
   2091.8965       7.1187       0.1053    -999.2500      31.1878    -999.2500      74.3485      72.0349      25.8582       0.1000       2.6632
   2092.0488       7.1035       0.1058    -999.2500      32.1124    -999.2500      63.0328      68.8232      26.9653       0.1061       2.6363
   2092.2012       7.1115       0.1043    -999.2500      33.1932    -999.2500      49.2972      65.0433      25.9556       0.1179       2.6107
   2092.3535       7.1472       0.0824    -999.2500      34.8176    -999.2500      47.1901      53.2025      16.9869       0.1448       2.5889
   2092.5061       7.1893       0.0559    -999.2500      36.5662    -999.2500      47.7367      39.5415       6.2018       0.1735       2.5679
   2092.6584       7.2968       0.0539    -999.2500      45.8233    -999.2500      50.9173      37.5141       4.5471       0.1838       2.5681
   2092.8108       7.4191       0.0574    -999.2500      56.7677    -999.2500      54.6897      38.0727       4.9441       0.1824       2.5731
   2092.9631       7.4348       0.0854    -999.2500      58.1309    -999.2500      64.5720      42.3344       7.8635       0.1756       2.5949
   2093.1157       7.4273       0.1190    -999.2500      57.3750    -999.2500      75.7911      47.4063      11.3409       0.1622       2.6204
   2093.2681       7.3930       0.1238    -999.2500      47.3314    -999.2500      93.2384      66.0158      74.6908       0.1338       2.6801
   2093.4204       7.3530       0.1223    -999.2500      35.2878    -999.2500     112.0269      87.5405     150.9340       0.1041       2.7472
   2093.5728       7.2840       0.1162    -999.2500      33.3233    -999.2500     141.7003     163.7319     157.5144       0.0935       2.7541
   2093.7251       7.2090       0.1092    -999.2500      33.4945    -999.2500     173.6802     251.5071     149.3333       0.0941       2.7480
   2093.8777       7.1148       0.1014    -999.2500      36.8652    -999.2500     177.7248     260.8845     109.6620       0.0987       2.7242
   2094.0300       7.0167       0.0934    -999.2500      40.9029    -999.2500     175.9458     253.9183      63.4259       0.1061       2.6967
   2094.1824       7.0000       0.0738    -999.2500      40.3072    -999.2500     168.9609     230.9944      55.9975       0.1187       2.6260
   2094.3347       7.0000       0.0517    -999.2500      38.7614    -999.2500     160.9085     204.8353      56.5271       0.1311       2.5464
   2094.4873       7.0000       0.0492    -999.2500      38.5116    -999.2500     150.5351     169.1671      60.0715       0.1355       2.5363
   2094.6396       7.0000       0.0507    -999.2500      38.5231    -999.2500     139.6989     131.6032      64.2238       0.1346       2.5403
   2094.7920       7.0021       0.0644    -999.2500      38.5748    -999.2500     131.8331     125.6416      75.6511       0.1295       2.5769
   2094.9443       7.0046       0.0804    -999.2500      38.6344    -999.2500     124.5496     125.8744      88.5209       0.1239       2.6200
   2095.0969       7.0168       0.0826    -999.2500      39.3298    -999.2500     120.7384     125.2921     114.3259       0.1220       2.6207
   2095.2493       7.0308       0.0821    -999.2500      40.1478    -999.2500     117.5963     124.5527     142.6230       0.1226       2.6132
   2095.4016       7.0658       0.0837    -999.2500      54.9986    -999.2500     114.9949     121.1355     145.5417       0.1249       2.6166
   2095.5540       7.1049       0.0857    -999.2500      72.5066    -999.2500     112.4960     117.2113     143.6550       0.1299       2.6221
   2095.7063       7.1068       0.0860    -999.2500      74.6908    -999.2500     106.7704     106.7679     120.2828       0.1414       2.6091
   2095.8589       7.1018       0.0860    -999.2500      74.0240    -999.2500     100.4445      95.1263      92.9133       0.1535       2.5926
   2096.0112       7.0582       0.0839    -999.2500      75.5437    -999.2500      99.9024      94.3845      94.3320       0.1577       2.5908
   2096.1636       7.0076       0.0814    -999.2500      77.4629    -999.2500     100.4174      95.6104     101.0124       0.1577       2.5918
   2096.3159       7.0000       0.0712    -999.2500      76.6893    -999.2500     102.9098     100.8027      82.7987       0.1563       2.5967
   2096.4685       7.0000       0.0597    -999.2500      75.4323    -999.2500     105.7526     106.6981      60.1165       0.1496       2.6022
   2096.6208       7.0000       0.0682    -999.2500      65.3984    -999.2500     117.3089     118.3359      57.0904       0.1267       2.6115
   2096.7732       7.0000       0.0802    -999.2500      53.8369    -999.2500     130.3817     130.9732      57.4854       0.1014       2.6215
   2096.9255       7.0004       0.0811    -999.2500      52.8401    -999.2500     131.4108     132.2223      40.1041       0.0929       2.6542
   2097.0781       7.0009       0.0801    -999.2500      53.6480    -999.2500     130.3826     131.5260      19.6862       0.0936       2.6907
   2097.2305       7.0079       0.0779    -999.2500      64.1901    -999.2500     124.8816     127.8420      16.9149       0.0980       2.6917
   2097.3828       7.0159       0.0754    -999.2500      76.3638    -999.2500     118.6308     123.6573      17.1016       0.1055       2.6867
   2097.5352       7.1008       0.0716    -999.2500      77.9605    -999.2500      92.3675     114.6611      25.0922       0.1189       2.6219
   2097.6875       7.1984       0.0676    -999.2500      77.8178    -999.2500      62.8132     104.8842      34.3660       0.1374       2.5474
   2097.8401       7.2060       0.0515    -999.2500      76.0733    -999.2500      59.1011      82.8652      33.2228       0.1646       2.5387
   2097.9924       7.1989       0.0335    -999.2500      74.0705    -999.2500      59.5010      58.8981      30.3995       0.1898       2.5407
   2098.1448       7.1690       0.0314    -999.2500      74.6609    -999.2500      62.4845      58.8897      45.2759       0.1963       2.5509
   2098.2971       7.1354       0.0319    -999.2500      75.6613    -999.2500      65.8710      62.6186      62.9513       0.1922       2.5625
   2098.4497       7.0741       0.0350    -999.2500      75.1731    -999.2500      77.1214     186.3808      65.2399       0.1805       2.5818
   2098.6021       7.0085       0.0385    -999.2500      74.4572    -999.2500      89.5739     328.4926      65.1763       0.1648       2.6023
   2098.7544       7.0000       0.0442    -999.2500      65.1548    -999.2500     114.6386     346.5138      61.6075       0.1451       2.6185
   2098.9067       7.0000       0.0502    -999.2500      54.5665    -999.2500     141.5921     345.9501      57.5137       0.1249       2.6340
   2099.0593       7.0000       0.0567    -999.2500      53.4595    -999.2500     211.7869     338.7093      62.5600       0.1084       2.6548
   2099.2117       7.0000       0.0632    -999.2500      53.7434    -999.2500     288.3245     330.4891      68.9469       0.0939       2.6763
   2099.3640       7.0000       0.0697    -999.2500      50.5976    -999.2500     296.5574     304.7223      68.7497       0.0802       2.6790
   2099.5164       7.0000       0.0762    -999.2500      46.9594    -999.2500     294.9808     276.4723      67.6068       0.0691       2.6790
   2099.6687       7.0000       0.0888    -999.2500      47.1830    -999.2500     279.4762     228.7217      55.0242       0.0656       2.6790
