#------------------------------------------------------------------------------
#
#   Created by  : [OpenWorks] Log Export Utility (LEXP)
#   Created on  : 2016-05-23 11:56:14
#   Project     : CANT971
#   User        : R5K
#   Interpreter : PEP
#
#------------------------------------------------------------------------------
~VERSION INFORMATION
VERS. 2.0 : CWLS Log ASCII Standard - version 2.0
WRAP.  NO : One line per depth step
~WELL INFORMATION
#MNEMONIC   .UNIT                                           VALUE :DESCRIPTION
#------------------------------------------------------------------------------
STRT        .M                                          1862.0000 :START DEPTH
STOP        .M                                          3052.8535 :STOP DEPTH
STEP        .M                                             0.1524 :STEP
NULL        .                                           -999.2500 :NULL VALUE
COMP        .                                   PEMEX EXPL & PROD :COMPANY
WELL        .                                                446D :WELL
FLD         .                                           CANTARELL :FIELD
LOC         .                                             UNKNOWN :LOCATION
CNTY        .                                      CD. DEL CARMEN :COUNTY
STAT        .                                            CAMPECHE :STATE
CTRY        .                                              MEXICO :COUNTRY
SRVC        .                                             UNKNOWN :SERVICE COMPANY
DATE        .                                             UNKNOWN :LOG DATE
UWI         .                                            W-C-446D :UNIQUE WELL ID
XCOORD      .                                       598705.170000 :SURFACE X
YCOORD      .                                      2143305.170000 :SURFACE Y
LAT         .                                           19.382621 :LATITUDE
LON         .                                          -92.060061 :LONGITUDE
ELEV        .M                                            28.0000 :SURFACE ELEV
ELEV_TYPE   .                                                  KB :ELEV TYPE
~CURVE INFORMATION
#MNEMONIC.UNIT        API CODE       : CURVE DESCRIPTION
#------------------------------------------------------------------------------
DEPTH    .M                          : Measured Depth
CALI     .inches      UNKNOWN        : CALI:litodensidad:rC:NONE:v0 (auto-composite)
CGR      .API         UNKNOWN        : CGR:CGR-Load:rC:NONE:v0 (auto-composite)
DRHO     .g/cm3       UNKNOWN        : DRHO:litodensidad:rC:NONE:v0 (auto-composite)
DT       .us/ft       UNKNOWN        : DT:DT-Load:rC:NONE:v0 (auto-composite)
GR       .UNKNOWN     UNKNOWN        : GR:PETROWORKS:rC:NONE:v1 
LLD      .ohm.m       UNKNOWN        : LLD:PETROWORKS:rC:NONE:v1 
LLS      .UNKNOWN     UNKNOWN        : LLS:PETROWORKS:rC:NONE:v1 
MSFL     .UNKNOWN     UNKNOWN        : MSFL:PETROWORKS:rC:NONE:v1 
NPHI     .v/v_decimal UNKNOWN        : NPHI:PETROWORKS:rC:NONE:v2 
PEF      .UNKNOWN     UNKNOWN        : PEF:litodensidad:rC:NONE:v0 (auto-composite)
POTA     .UNKNOWN     UNKNOWN        : POTA:radioactividad:rC:NONE:v0 (auto-composite)
RHOB     .g/cm3       UNKNOWN        : RHOB:litodensidad:rC:NONE:v0 (auto-composite)
THOR     .ppm         UNKNOWN        : THOR:radioactividad:rC:NONE:v0 (auto-composite)
URAN     .ppm         UNKNOWN        : URAN:radioactividad:rC:NONE:v0 (auto-composite)
~A     DEPTH         CALI          CGR         DRHO           DT           GR          LLD          LLS         MSFL         NPHI          PEF         POTA         RHOB         THOR         URAN
# ...
   2802.9175       7.0474      14.2577       0.0080      62.7120      37.4154     317.0550     171.3638     112.5861       0.0533       3.3147       0.0055       2.7388       0.8687       2.4589
   2803.0701       7.0062      12.7525       0.0043      57.9630      35.6806     307.0691     167.2564     142.8151       0.0513       3.4000       0.0050       2.7513       0.7538       2.3905
   2803.2224       6.9955      20.3681       0.0007      55.6713      41.6831     278.1618     156.6408     100.8360       0.0496       3.2500       0.0074       2.7437       1.4004       2.3290
   2803.3748       6.9546      22.0236       0.0016      54.1276      43.7827     253.3247     144.2962      80.9866       0.0536       3.2628       0.0080       2.7341       1.5534       2.3020
   2803.5271       6.9806      22.9597       0.0071      57.9724      44.2230     236.5106     134.0629      96.2497       0.0563       3.2340       0.0083       2.7192       1.6290       2.2960
   2803.6797       6.9803      21.1294       0.0100      60.1429      41.5600     205.6197     118.0615      98.8714       0.0598       3.4203       0.0082       2.7118       1.2585       2.1625
   2803.8320       6.8605      21.2554       0.0122      61.3765      41.2560     166.9884      99.5393      39.6364       0.0606       3.2947       0.0084       2.7055       1.2010       2.1899
   2803.9844       6.8610      17.0506       0.0140      62.8647      36.8688     150.4826      92.5291      27.1805       0.0619       3.1584       0.0070       2.7051       0.8800       2.0976
   2804.1367       6.9692      15.6016       0.0131      64.6269      35.2443     162.9456      99.6950      43.6164       0.0644       3.1918       0.0063       2.6898       0.8503       2.0713
   2804.2893       7.0991      15.5058       0.0062      67.6157      34.9161     181.6045     114.3565      49.3493       0.0711       3.2972       0.0063       2.6597       0.8059       2.0544
   2804.4417       7.0275      15.1223       0.0035      64.2794      34.2669     210.0117     131.2268      61.8467       0.0752       3.3878       0.0061       2.6456       0.7934       2.0570
   2804.5940       6.8761      13.1798       0.0046      58.4270      31.5980     224.5560     140.3211      85.7058       0.0723       3.3027       0.0056       2.6582       0.5841       1.9491
   2804.7463       6.9679      15.5413       0.0074      55.0403      34.0439     191.3679     126.5472     118.5135       0.0608       3.3882       0.0068       2.6979       0.6172       2.0060
   2804.8987       7.0561      15.6093       0.0069      53.1151      34.3985     120.4140      91.4197     100.9527       0.0525       3.4728       0.0071       2.7186       0.5072       1.9894
   2805.0513       7.0225      16.9768       0.0066      55.0996      38.8734      94.1035      66.2008     115.3366       0.0504       3.4592       0.0067       2.7303       0.9808       2.3497
   2805.2036       6.9764      18.5475       0.0062      58.3875      41.8713      88.0519      60.8407      64.8687       0.0497       3.3063       0.0070       2.7397       1.1696       2.4797
   2805.3560       7.0047      16.7057       0.0090      56.4400      39.3590      88.4027      61.8423      46.8246       0.0482       3.3547       0.0065       2.7435       0.9952       2.3737
   2805.5083       7.1216      16.1434       0.0177      61.1753      37.9896     103.4170      69.9679      68.9023       0.0455       3.4243       0.0063       2.7215       0.9377       2.3011
   2805.6609       7.1630      17.2402       0.0219      60.4024      38.9795     127.4254      83.6726      28.1955       0.0517       3.3444       0.0063       2.6865       1.1679       2.3497
   2805.8132       7.0104      14.4572       0.0244      60.2274      35.5684     141.7407      95.6203      15.7327       0.0648       3.1053       0.0049       2.6707       1.1516       2.2027
   2805.9656       7.0417      14.3157       0.0377      54.2281      34.6898     146.2426     102.8071      22.9736       0.0692       2.9821       0.0050       2.7022       1.0818       2.1463
   2806.1179       7.0739      15.5866       0.0408      42.9706      36.7949     137.8408     104.5273      87.4249       0.0631       2.9267       0.0055       2.7260       1.1559       2.2041
   2806.2705       7.0751      22.5756       0.0274      41.4470      42.8873     137.9473     103.6260      34.2092       0.0558       2.9324       0.0087       2.7260       1.3534       2.1868
   2806.4229       7.0688      21.2778       0.0144      47.7828      40.8159     130.5292      97.5642      17.9796       0.0579       2.0553       0.0082       2.6329       1.2753       2.0608
   2806.5752       7.0925      19.0745      -0.0112      50.3417      37.1848     105.5676      81.2078      18.3170       0.0604       1.7533       0.0076       2.0307       1.0547       1.9137
   2806.7275       7.0780      19.2437       0.0119      49.0733      37.0815      86.5571      64.9902      55.6204       0.0701       1.6454       0.0078       1.7456       1.0099       1.8975
   2806.8799       7.0638      19.2155       0.0730      50.3273      36.9561      79.0459      57.6469      12.2697       0.1070       1.6065       0.0078       1.6405       0.9872       1.8777
   2807.0325       7.0646      18.7269       0.1508      52.8920      36.2574      81.5344      57.8191       0.5012       0.1619       1.6566       0.0076       1.7499       0.9728       1.8533
   2807.1848       6.9707      18.2534       0.1876      54.5314      35.6329      96.7956      67.3615       0.7933       0.2084       1.8058       0.0077       1.9031       0.8542       1.8394
   2807.3372       6.9051      15.0218       0.1782      55.4286      32.0247     132.7538      92.6087       1.9249       0.1958       2.2488       0.0064       2.1242       0.6549       1.7772
   2807.4895       6.8559      13.0598       0.2030      44.3087      29.2635     219.9365     141.3616       5.0409       0.1381       3.1177       0.0059       2.4655       0.4652       1.7150
   2807.6421       6.8298      11.7896       0.2161      40.6449      27.4284     276.6940     183.1412      51.1511       0.0749       3.0359       0.0055       2.7232       0.2923       1.6583
   2807.7944       6.6781      10.2194       0.1356      44.7231      25.4651     269.9917     185.5851      47.0440       0.0476       2.8647       0.0052       2.7249       0.1193       1.6135
   2807.9468       6.6865      12.3068       0.1003      51.9459      31.2110     244.9720     170.6769     154.4600       0.0470       2.8174       0.0045       2.7373       0.8280       2.1103
   2808.0991       6.7240      11.1512       0.0831      53.0152      31.0680     225.5138     158.0456     160.5279       0.0497       3.0497       0.0039       2.7873       0.8457       2.1096
   2808.2517       6.6661      10.9620       0.0411      53.7638      30.3037     209.6029     146.7426     191.1507       0.0450       3.2602       0.0039       2.7868       0.8181       2.0182
   2808.4041       6.6734      12.6719       0.0071      52.9236      31.9691     201.5109     135.6942     175.2499       0.0408       3.2571       0.0042       2.7672       1.0194       2.0485
   2808.5564       6.7254      12.9486       0.0036      53.6404      31.8991     173.2817     118.0044     184.2459       0.0376       3.4151       0.0043       2.7528       1.0673       2.0112
   2808.7087       6.6585      12.4239       0.0307      57.6591      30.7854     132.8522      94.3102     109.2219       0.0373       3.3077       0.0040       2.7242       1.0426       1.9476
   2808.8611       6.5872      11.1544       0.0596      56.7802      28.8722     118.7264      80.9781      29.7463       0.0447       3.1470       0.0037       2.7003       0.8975       1.8605
   2809.0137       6.5591      10.9991       0.0637      54.5476      28.5997     118.2596      80.5566      19.2254       0.0574       2.9469       0.0040       2.6682       0.7368       1.8408
   2809.1660       6.6314      13.0456       0.0838      55.8136      31.1528     130.6775      91.2300     102.6313       0.0649       3.0838       0.0051       2.7094       0.7675       1.9562
