#------------------------------------------------------------------------------
#
#   Created by  : [OpenWorks] Log Export Utility (LEXP)
#   Created on  : 2016-05-23 11:53:49
#   Project     : CANT971
#   User        : R5K
#   Interpreter : PEP
#
#------------------------------------------------------------------------------
~VERSION INFORMATION
VERS. 2.0 : CWLS Log ASCII Standard - version 2.0
WRAP.  NO : One line per depth step
~WELL INFORMATION
#MNEMONIC   .UNIT                                           VALUE :DESCRIPTION
#------------------------------------------------------------------------------
STRT        .M                                           293.9797 :START DEPTH
STOP        .M                                          2713.7869 :STOP DEPTH
STEP        .M                                             0.1524 :STEP
NULL        .                                           -999.2500 :NULL VALUE
COMP        .                                   PEMEX EXPL & PROD :COMPANY
WELL        .                                                  28 :WELL
FLD         .                                           CANTARELL :FIELD
LOC         .                                             UNKNOWN :LOCATION
CNTY        .                                      CD. DEL CARMEN :COUNTY
STAT        .                                            CAMPECHE :STATE
CTRY        .                                              MEXICO :COUNTRY
SRVC        .                                             UNKNOWN :SERVICE COMPANY
DATE        .                                             UNKNOWN :LOG DATE
UWI         .                                          3060000156 :UNIQUE WELL ID
XCOORD      .                                       598450.720000 :SURFACE X
YCOORD      .                                      2145024.710000 :SURFACE Y
LAT         .                                           19.398172 :LATITUDE
LON         .                                          -92.062394 :LONGITUDE
ELEV        .M                                            26.5400 :SURFACE ELEV
ELEV_TYPE   .                                                  KB :ELEV TYPE
~CURVE INFORMATION
#MNEMONIC.UNIT        API CODE       : CURVE DESCRIPTION
#------------------------------------------------------------------------------
DEPTH    .M                          : Measured Depth
CALI     .inches      UNKNOWN        : CALI:Import:rC:NONE:v0 (auto-composite)
DRHO     .g/cm3       UNKNOWN        : DRHO:Import:rC:NONE:v0 (auto-composite)
DT       .us/ft       UNKNOWN        : DT:Import:rC:NONE:v0 (auto-composite)
GR       .API         UNKNOWN        : GR:Import:rC:NONE:v0 (auto-composite)
ILD      .ohm.m       UNKNOWN        : ILD:Import:rC:NONE:v0 (auto-composite)
LLD      .ohm.m       UNKNOWN        : LLD:Import:rC:NONE:v0 (auto-composite)
LLS      .ohm.m       UNKNOWN        : LLS:Import:rC:NONE:v0 (auto-composite)
MSFL     .ohm.m       UNKNOWN        : MSFL:Import:rC:NONE:v0 (auto-composite)
NPHI     .v/v_decimal UNKNOWN        : NPHI:Import:rC:NONE:v0 (auto-composite)
PEF      .b/elec      UNKNOWN        : PEF:Import:rC:NONE:v0 (auto-composite)
RHOB     .g/cm3       UNKNOWN        : RHOB:Import:rC:NONE:v0 (auto-composite)
~A     DEPTH         CALI         DRHO           DT           GR          ILD          LLD          LLS         MSFL         NPHI          PEF         RHOB
# ...
   2037.4357       8.7655       0.0185      54.9860      35.7340    -999.2500     320.3340     300.8543     526.9635       0.0682       4.1991       2.7440
   2037.5881       8.7730       0.0170      55.0000      35.6949    -999.2500     316.8210     301.0540     671.2500       0.0721       4.2280       2.7430
   2037.7405       8.7695       0.0155      54.0229      35.6560    -999.2500     290.9714     281.3790     537.9974       0.0778       4.2666       2.7335
   2037.8928       8.7660       0.0140      53.0500      36.0065    -999.2500     265.3150     261.8510     405.7410       0.0866       4.3050       2.7240
   2038.0453       8.7660       0.0130      53.4665      36.3550    -999.2500     194.5910     193.2378     272.5339       0.0996       4.7451       2.7089
   2038.1976       8.7660       0.0120      53.8810      37.3915    -999.2500     124.3870     125.1290     140.3060       0.1066       5.1820       2.6940
   2038.3501       8.7695       0.0110      54.6467      38.4220    -999.2500     101.5475     100.6069      87.3446       0.0975       4.7720       2.7055
   2038.5024       8.7730       0.0100      55.4080      36.2990    -999.2500      78.8730      76.2620      34.7660       0.0849       4.3650       2.7170
   2038.6549       8.7735       0.0100      55.6121      34.1880    -999.2500      90.5921      86.7794     264.6368       0.0812       4.6049       2.7145
   2038.8073       8.7740       0.0100      55.8150      34.6498    -999.2500     102.2280      97.2220     492.8750       0.0829       4.8430       2.7120
   2038.9597       8.7755       0.0100      56.1584      35.1090    -999.2500     129.1961     123.2488     429.8426       0.0865       5.2039       2.6969
   2039.1121       8.7770       0.0100      56.5000      33.8717    -999.2500     155.9760     149.0940     367.2500       0.0898       5.5620       2.6820
   2039.2645       8.7770       0.0125      56.6504      32.6410    -999.2500     212.2784     199.2744     421.8747       0.0909       5.2070       2.6971
   2039.4169       8.7770       0.0150      56.8000      33.3524    -999.2500     268.1950     249.1110     476.1250       0.0912       4.8550       2.7120
   2039.5693       8.7720       0.0180      57.1008      34.0600    -999.2500     267.6331     245.1727     346.4543       0.0922       4.8098       2.7185
   2039.7217       8.7670       0.0210      57.4000      36.3097    -999.2500     267.0750     241.2610     217.6560       0.0923       4.7650       2.7250
   2039.8740       8.7585       0.0265      56.8060      38.5460    -999.2500     244.3114     220.2542     246.6894       0.0900       4.5200       2.7255
   2040.0265       8.7500       0.0320      56.2150      38.8365    -999.2500     221.6980     199.3860     275.5310       0.0872       4.2770       2.7260
   2040.1788       8.7550       0.0370      55.6897      39.1250    -999.2500     202.1622     182.5214     153.0247       0.0858       4.3096       2.7330
   2040.3313       8.7600       0.0420      55.1670      38.0801    -999.2500     182.7530     165.7660      31.3120       0.0849       4.3420       2.7400
   2040.4836       8.7675       0.0305      54.7826      37.0420    -999.2500     159.0773     142.4790     150.7228       0.0838       4.4349       2.7184
   2040.6361       8.7750       0.0190      54.4000      35.3827    -999.2500     135.5520     119.3400     269.3750       0.0834       4.5270       2.6970
   2040.7885       8.7945       0.0125      54.6621      33.7340    -999.2500     135.8891     119.6028     205.3631       0.0851       4.5250       2.6799
   2040.9409       8.8140       0.0060      54.9230      34.0951    -999.2500     136.2240     119.8640     141.7500       0.0876       4.5230       2.6630
   2041.0933       8.8876       0.0060      57.0663      34.4540    -999.2500     150.1661     129.5715     267.0073       0.0902       4.5275       2.6655
   2041.2457       8.9610       0.0060      59.2000      38.0505    -999.2500     164.0120     139.2120     391.5000       0.0926       4.5320       2.6680
   2041.3981       8.9575       0.0060      59.1594      41.6250    -999.2500     161.5311     137.2431     387.9801       0.0948       4.5837       2.6866
   2041.5504       8.9540       0.0060      59.1190      41.5879    -999.2500     159.0690     135.2890     384.4840       0.0964       4.6350       2.7050
   2041.7029       8.8458       0.0100      57.9109      41.5510    -999.2500     111.6746      96.6351     304.4817       0.0969       5.0239       2.7080
   2041.8552       8.7380       0.0140      56.7080      40.4628    -999.2500      64.6330      58.2690     225.0750       0.0959       5.4100       2.7110
   2042.0077       8.7305       0.0190      55.9772      39.3810    -999.2500      54.9174      49.2997     193.8924       0.0933       5.6238       2.7190
   2042.1600       8.7230       0.0240      55.2500      39.2055    -999.2500      45.2730      40.3960     162.9380       0.0899       5.8360       2.7270
   2042.3125       8.7230       0.0210      55.2284      39.0310    -999.2500      50.5013      44.3723     136.9615       0.0866       5.4802       2.7210
   2042.4648       8.7230       0.0180      55.2070      37.4621    -999.2500      55.6920      48.3200     111.1720       0.0844       5.1270       2.7150
   2042.6173       8.7345       0.0120      54.6269      35.9020    -999.2500      77.9181      67.6574     183.4355       0.0842       4.9770       2.6859
   2042.7697       8.7460       0.0060      54.0500      34.7057    -999.2500      99.9870      86.8580     255.1880       0.0826       4.8280       2.6570
   2042.9221       8.7440       0.0060      54.4350      33.5160    -999.2500     134.0383     114.1503     251.2298       0.0765       4.9615       2.6625
   2043.0745       8.7420       0.0060      54.8180      33.8369    -999.2500     167.8530     141.2530     247.2990       0.0704       5.0940       2.6680
   2043.2269       8.7415       0.0085      56.0317      34.1560    -999.2500     172.9900     142.2935     202.1987       0.0692       5.0408       2.7077
   2043.3793       8.7410       0.0110      57.2390      34.2748    -999.2500     178.0920     143.3270     157.4060       0.0701       4.9880       2.7470
   2043.5316       8.7375       0.0100      58.2220      34.3930    -999.2500     185.5424     146.3697     207.0568       0.0703       4.7591       2.7465
   2043.6841       8.7340       0.0090      59.2000      35.0449    -999.2500     192.9430     149.3920     256.3750       0.0699       4.5320       2.7460
   2043.8364       8.7340       0.0090      59.1850      35.6930    -999.2500     212.8484     161.0749     248.0341       0.0690       4.3126       2.7460
   2043.9889       8.7340       0.0090      59.1700      37.3138    -999.2500     232.6230     172.6810     239.7480       0.0677       4.0950       2.7460
   2044.1412       8.7340       0.0095      58.9344      38.9240    -999.2500     245.2572     181.9589     161.2068       0.0661       3.9313       2.7460
   2044.2937       8.7340       0.0100      58.7000      39.0639    -999.2500     257.8100     191.1770      83.1720       0.0650       3.7690       2.7460
   2044.4460       8.7340       0.0120      57.9958      39.2030    -999.2500     261.9421     194.6635     104.2150       0.0653       4.0446       2.7505
   2044.5985       8.7340       0.0140      57.2950      37.1711    -999.2500     266.0480     198.1280     125.1250       0.0666       4.3180       2.7550
   2044.7509       8.7305       0.0135      56.5919      35.1520    -999.2500     272.1288     202.4875     107.0535       0.0687       4.4651       2.7394
   2044.9033       8.7270       0.0130      55.8920      34.2999    -999.2500     278.1720     206.8200      89.0940       0.0709       4.6110       2.7240
   2045.0557       8.7345       0.0135      55.4450      33.4530    -999.2500     273.9395     204.0088     143.5875       0.0728       4.4770       2.7145
   2045.2081       8.7420       0.0140      55.0000      35.5534    -999.2500     269.7360     201.2170     197.7500       0.0741       4.3440       2.7050
