#------------------------------------------------------------------------------
#
#   Created by  : [OpenWorks] Log Export Utility (LEXP)
#   Created on  : 2016-05-23 11:50:40
#   Project     : CANT971
#   User        : R5K
#   Interpreter : PEP
#
#------------------------------------------------------------------------------
~VERSION INFORMATION
VERS. 2.0 : CWLS Log ASCII Standard - version 2.0
WRAP.  NO : One line per depth step
~WELL INFORMATION
#MNEMONIC   .UNIT                                           VALUE :DESCRIPTION
#------------------------------------------------------------------------------
STRT        .M                                           697.2303 :START DEPTH
STOP        .M                                          3650.8948 :STOP DEPTH
STEP        .M                                             0.1524 :STEP
NULL        .                                           -999.2500 :NULL VALUE
COMP        .                                   PEMEX EXPL & PROD :COMPANY
WELL        .                                                1026 :WELL
FLD         .                                           CANTARELL :FIELD
LOC         .                                             UNKNOWN :LOCATION
CNTY        .                                      CD. DEL CARMEN :COUNTY
STAT        .                                            CAMPECHE :STATE
CTRY        .                                              MEXICO :COUNTRY
SRVC        .                                             UNKNOWN :SERVICE COMPANY
DATE        .                                             UNKNOWN :LOG DATE
UWI         .                                          3060000491 :UNIQUE WELL ID
XCOORD      .                                       596159.330000 :SURFACE X
YCOORD      .                                      2150607.710000 :SURFACE Y
LAT         .                                           19.448735 :LATITUDE
LON         .                                          -92.083932 :LONGITUDE
ELEV        .M                                            30.0000 :SURFACE ELEV
ELEV_TYPE   .                                                  KB :ELEV TYPE
~CURVE INFORMATION
#MNEMONIC.UNIT        API CODE       : CURVE DESCRIPTION
#------------------------------------------------------------------------------
DEPTH    .M                          : Measured Depth
CALI     .inches      UNKNOWN        : CALI:registros:rC:NONE:v0 (auto-composite)
DRHO     .g/cm3       UNKNOWN        : DRHO:registros:rC:NONE:v0 (auto-composite)
DT       .us/ft       UNKNOWN        : DT:registros:rC:NONE:v0 (auto-composite)
GR       .API         UNKNOWN        : GR:registros:rC:NONE:v0 (auto-composite)
ILD      .ohm.m       UNKNOWN        : ILD:registros:rC:NONE:v0 (auto-composite)
ILM      .ohm.m       UNKNOWN        : ILM:registros:rC:NONE:v0 (auto-composite)
LLD      .ohm.m       UNKNOWN        : LLD:registros:rC:NONE:v0 (auto-composite)
LLS      .ohm.m       UNKNOWN        : LLS:registros:rC:NONE:v0 (auto-composite)
MSFL     .ohm.m       UNKNOWN        : MSFL:registros:rC:NONE:v0 (auto-composite)
NPHI     .v/v_decimal UNKNOWN        : NPHI:registros:rC:NONE:v0 (auto-composite)
PEF      .b/elec      UNKNOWN        : PEF:registros:rC:NONE:v0 (auto-composite)
RHOB     .g/cm3       UNKNOWN        : RHOB:registros:rC:NONE:v0 (auto-composite)
~A     DEPTH         CALI         DRHO           DT           GR          ILD          ILM          LLD          LLS         MSFL         NPHI          PEF         RHOB
# ...
   3506.2671       9.9090       0.0050      91.6924      28.5579    -999.2500    -999.2500      19.1581      33.9513      29.9500       0.0967       3.4054       2.6530
   3506.4194       9.9270       0.0040     101.4170      37.3750    -999.2500    -999.2500      21.3640      37.7230      37.4940       0.0703       3.4970       2.6610
   3506.5718       9.9355       0.0085     103.0806      33.1784    -999.2500    -999.2500      36.6374      64.0557      46.9872       0.0479       3.5679       2.6940
   3506.7244       9.9440       0.0130     104.7500      28.9740    -999.2500    -999.2500      51.9390      90.4370      56.4980       0.0272       3.6390       2.7270
   3506.8767      10.0424       0.0170     100.9413      23.5469    -999.2500    -999.2500      54.5589      95.7423      58.3876       0.0203       3.4487       2.7435
   3507.0291      10.1410       0.0210      97.1250      18.1090    -999.2500    -999.2500      57.1840     101.0580      60.2810       0.0154       3.2580       2.7600
   3507.1814      10.0431       0.0365      97.9991      18.4529    -999.2500    -999.2500      55.3020      97.3219      34.2418       0.0176       3.2680       2.7650
   3507.3340       9.9450       0.0520      98.8750      18.7970    -999.2500    -999.2500      53.4160      93.5780       8.1480       0.0203       3.2780       2.7700
   3507.4863       9.9450       0.0500      91.7379      18.3686    -999.2500    -999.2500      56.7188      99.4355      27.5369       0.0215       3.4009       2.7620
   3507.6387       9.9450       0.0480      84.5850      17.9400    -999.2500    -999.2500      60.0290     105.3060      46.9690       0.0226       3.5240       2.7540
   3507.7910       9.9450       0.0525      80.5298      17.2518    -999.2500    -999.2500      64.4444     113.7224      35.1059       0.0235       3.5754       2.7850
   3507.9436       9.9450       0.0570      76.4650      16.5630    -999.2500    -999.2500      68.8630     122.1450      23.2340       0.0246       3.6270       2.8160
   3508.0959       9.9450       0.0485      64.6846      17.0573    -999.2500    -999.2500      56.7478     100.7383      25.9598       0.0270       3.5246       2.7985
   3508.2483       9.9450       0.0400      52.8750      17.5520    -999.2500    -999.2500      44.6220      79.3130      28.6880       0.0295       3.4220       2.7810
   3508.4006       9.9450       0.0475      67.2004      19.8753    -999.2500    -999.2500      37.9308      67.4144      26.7335       0.0301       3.4250       2.7885
   3508.5530       9.9450       0.0550      81.5630      22.2010    -999.2500    -999.2500      31.2330      55.5040      24.7770       0.0302       3.4280       2.7960
   3508.7056       9.9415       0.0610      72.7311      23.2954    -999.2500    -999.2500      33.5622      59.1035      22.2599       0.0270       3.3761       2.7930
   3508.8579       9.9380       0.0670      63.8750      24.3910    -999.2500    -999.2500      35.8940      62.7070      19.7400       0.0235       3.3240       2.7900
   3509.0103       9.8715       0.0545      68.0186      23.3102    -999.2500    -999.2500      45.5530      79.6959      19.2963       0.0193       3.2781       2.7835
   3509.1626       9.8050       0.0420      72.1740      22.2280    -999.2500    -999.2500      55.2240      96.7060      18.8520       0.0154       3.2320       2.7770
   3509.3152       9.8050       0.0390      76.9863      20.2314    -999.2500    -999.2500      66.2399     116.1971      17.8562       0.0145       3.4177       2.8020
   3509.4675       9.8050       0.0360      81.8130      18.2320    -999.2500    -999.2500      77.2710     135.7150      16.8590       0.0142       3.6040       2.8270
   3509.6199       9.8050       0.0405      79.3478      16.9075    -999.2500    -999.2500      73.6033     129.5966      17.6789       0.0158       3.4756       2.8265
   3509.7722       9.8050       0.0450      76.8750      15.5810    -999.2500    -999.2500      69.9300     123.4690      18.5000       0.0174       3.3470       2.8260
   3509.9248       9.8050       0.0460      78.3092      14.5883    -999.2500    -999.2500      61.7516     108.9563      17.3994       0.0168       3.2546       2.8185
   3510.0771       9.8050       0.0470      79.7480      13.5940    -999.2500    -999.2500      53.5600      94.4200      16.2970       0.0161       3.1620       2.8110
   3510.2295       9.8050       0.0390      89.0149      14.4193    -999.2500    -999.2500      51.3999      90.3206      16.7576       0.0163       3.2145       2.8045
   3510.3818       9.8050       0.0310      98.3130      15.2460    -999.2500    -999.2500      49.2360      86.2140      17.2190       0.0168       3.2670       2.7980
   3510.5342       9.8270       0.0265      86.9263      16.2081    -999.2500    -999.2500      47.0575      82.4261      16.8219       0.0190       3.4139       2.7960
   3510.6868       9.8490       0.0220      75.5000      17.1720    -999.2500    -999.2500      44.8750      78.6310      16.4240       0.0213       3.5610       2.7940
   3510.8391       9.8945       0.0255      80.9321      16.8283    -999.2500    -999.2500      41.9964      73.7898      15.9095       0.0236       3.4966       2.7835
   3510.9915       9.9400       0.0290      86.3750      16.4840    -999.2500    -999.2500      39.1120      68.9390      15.3940       0.0260       3.4320       2.7730
   3511.1438       9.9500       0.0260      80.8404      17.1178    -999.2500    -999.2500      37.7869      66.3672      15.2951       0.0307       3.5364       2.7465
   3511.2964       9.9600       0.0230      75.2940      17.7520    -999.2500    -999.2500      36.4590      63.7900      15.1960       0.0346       3.6410       2.7200
   3511.4487      10.0194       0.0230      71.6511      18.2328    -999.2500    -999.2500      36.9260      64.4897      14.0473       0.0304       3.6000       2.7185
   3511.6011      10.0790       0.0230      68.0000      18.7140    -999.2500    -999.2500      37.3940      65.1910      12.8960       0.0253       3.5590       2.7170
   3511.7534      10.1454       0.0290      73.0874      20.7037    -999.2500    -999.2500      40.0500      69.4998       9.1644       0.0222       3.4631       2.7555
   3511.9060      10.2120       0.0350      78.1870      22.6950    -999.2500    -999.2500      42.7080      73.8120       5.4300       0.0201       3.3670       2.7940
   3512.0583      10.2155       0.0565      66.6080      24.9885    -999.2500    -999.2500      41.4396      71.6355       7.6635       0.0245       3.4040       2.7910
   3512.2107      10.2190       0.0780      55.0000      27.2840    -999.2500    -999.2500      40.1700      69.4570       9.8990       0.0308       3.4410       2.7880
   3512.3630      10.0967       0.0855      55.5623      29.8202    -999.2500    -999.2500      35.0991      60.4731      13.6431       0.0458       3.5728       2.7500
   3512.5154       9.9740       0.0930      56.1260      32.3590    -999.2500    -999.2500      30.0230      51.4800      17.3910       0.0598       3.7050       2.7120
   3512.6680       9.9595       0.0910      61.7118      32.7588    -999.2500    -999.2500      28.0371      48.0770      16.8568       0.0563       3.6700       2.7425
   3512.8203       9.9450       0.0890      67.3130      33.1590    -999.2500    -999.2500      26.0490      44.6700      16.3220       0.0509       3.6350       2.7730
   3512.9727       9.9450       0.0521      61.0560      33.5947    -999.2500    -999.2500      24.9782      42.9166      15.1852       0.0481       3.4807       2.7530
   3513.1250       9.9450       0.0150      54.7810      34.0310    -999.2500    -999.2500      23.9060      41.1610      14.0470       0.0460       3.3260       2.7330
   3513.2776       9.8750       0.0165      54.0791      31.9390    -999.2500    -999.2500      22.9961      39.6441      14.2733       0.0467       3.2990       2.7295
   3513.4299       9.8050       0.0180      53.3750      29.8440    -999.2500    -999.2500      22.0850      38.1250      14.5000       0.0484       3.2720       2.7260
