#------------------------------------------------------------------------------
#
#   Created by  : [OpenWorks] Log Export Utility (LEXP)
#   Created on  : 2016-05-23 11:53:49
#   Project     : CANT971
#   User        : R5K
#   Interpreter : PEP
#
#------------------------------------------------------------------------------
~VERSION INFORMATION
VERS. 2.0 : CWLS Log ASCII Standard - version 2.0
WRAP.  NO : One line per depth step
~WELL INFORMATION
#MNEMONIC   .UNIT                                           VALUE :DESCRIPTION
#------------------------------------------------------------------------------
STRT        .M                                           293.9797 :START DEPTH
STOP        .M                                          2713.7869 :STOP DEPTH
STEP        .M                                             0.1524 :STEP
NULL        .                                           -999.2500 :NULL VALUE
COMP        .                                   PEMEX EXPL & PROD :COMPANY
WELL        .                                                  28 :WELL
FLD         .                                           CANTARELL :FIELD
LOC         .                                             UNKNOWN :LOCATION
CNTY        .                                      CD. DEL CARMEN :COUNTY
STAT        .                                            CAMPECHE :STATE
CTRY        .                                              MEXICO :COUNTRY
SRVC        .                                             UNKNOWN :SERVICE COMPANY
DATE        .                                             UNKNOWN :LOG DATE
UWI         .                                          3060000156 :UNIQUE WELL ID
XCOORD      .                                       598450.720000 :SURFACE X
YCOORD      .                                      2145024.710000 :SURFACE Y
LAT         .                                           19.398172 :LATITUDE
LON         .                                          -92.062394 :LONGITUDE
ELEV        .M                                            26.5400 :SURFACE ELEV
ELEV_TYPE   .                                                  KB :ELEV TYPE
~CURVE INFORMATION
#MNEMONIC.UNIT        API CODE       : CURVE DESCRIPTION
#------------------------------------------------------------------------------
DEPTH    .M                          : Measured Depth
CALI     .inches      UNKNOWN        : CALI:Import:rC:NONE:v0 (auto-composite)
DRHO     .g/cm3       UNKNOWN        : DRHO:Import:rC:NONE:v0 (auto-composite)
DT       .us/ft       UNKNOWN        : DT:Import:rC:NONE:v0 (auto-composite)
GR       .API         UNKNOWN        : GR:Import:rC:NONE:v0 (auto-composite)
ILD      .ohm.m       UNKNOWN        : ILD:Import:rC:NONE:v0 (auto-composite)
LLD      .ohm.m       UNKNOWN        : LLD:Import:rC:NONE:v0 (auto-composite)
LLS      .ohm.m       UNKNOWN        : LLS:Import:rC:NONE:v0 (auto-composite)
MSFL     .ohm.m       UNKNOWN        : MSFL:Import:rC:NONE:v0 (auto-composite)
NPHI     .v/v_decimal UNKNOWN        : NPHI:Import:rC:NONE:v0 (auto-composite)
PEF      .b/elec      UNKNOWN        : PEF:Import:rC:NONE:v0 (auto-composite)
RHOB     .g/cm3       UNKNOWN        : RHOB:Import:rC:NONE:v0 (auto-composite)
~A     DEPTH         CALI         DRHO           DT           GR          ILD          LLD          LLS         MSFL         NPHI          PEF         RHOB
# ...
   2512.9236       6.0445       0.0060       0.0000      40.5560    -999.2500    6128.6846    3439.7295     722.5306       0.0500       3.1159       2.7965
   2513.0762       6.0540       0.0100       0.0000      41.4017    -999.2500    6453.9932    3705.0681    1178.5190       0.0535       2.9130       2.8110
   2513.2285       6.0400       0.0075       0.0000      42.2420    -999.2500    6177.9517    3531.8701    1502.2491       0.0580       3.1046       2.8140
   2513.3809       6.0260       0.0050       0.0000      42.8248    -999.2500    5903.6201    3359.7451    1823.9740       0.0635       3.2950       2.8170
   2513.5332       6.0426       0.0020       0.0000      43.4040    -999.2500    6560.0635    3608.9360    1748.6167       0.0700       3.4861       2.7864
   2513.6858       6.0590      -0.0010       0.0000      37.1440    -999.2500    7212.5190    3856.6130    1673.7170       0.0829       3.6760       2.7560
   2513.8381       6.0635      -0.0035       0.0000      30.9220    -999.2500    9639.5605    4776.2891    1539.8446       0.1080       3.4839       2.7410
   2513.9905       6.0680      -0.0060       0.0000      29.0434    -999.2500   12052.1738    5690.4980    1406.7679       0.1332       3.2930       2.7260
   2514.1428       6.0314      -0.0015       0.0000      27.1760    -999.2500   25470.6797   10043.6602    1666.3153       0.1465       3.2534       2.7049
   2514.2952       5.9950       0.0030       0.0000      25.9389    -999.2500   38811.0273   14371.4658    1924.3510       0.1475       3.2140       2.6840
   2514.4478       6.0451       0.0020       0.0000      24.7090    -999.2500   38881.4766   17842.2109    1852.5491       0.1350       3.1192       2.6529
   2514.6001       6.0950       0.0010       0.0000      27.9181    -999.2500   38951.5234   21293.1914    1781.1560       0.1198       3.0250       2.6220
   2514.7524       6.1176      -0.0005       0.0000      31.1090    -999.2500   39025.9805   19033.8066    1052.0106       0.1125       3.1640       2.5869
   2514.9048       6.1400      -0.0020       0.0000      31.6239    -999.2500   39100.0195   16787.0176     326.9300       0.1118       3.3020       2.5520
   2515.0574       6.0678       0.0000       0.0000      32.1360    -999.2500   35696.3984   15080.1338     417.6479       0.1170       3.0903       2.5410
   2515.2097       5.9960       0.0020       0.0000      30.5778    -999.2500   32316.7461   13385.2715     507.7270       0.1234       2.8800       2.5300
   2515.3621       6.0336       0.0080       0.0000      29.0280    -999.2500   31410.9219   13161.5049     632.1625       0.1265       2.9949       2.5270
   2515.5144       6.0710       0.0140       0.0000      31.8129    -999.2500   30511.3594   12939.2852     755.7380       0.1276       3.1090       2.5240
   2515.6670       6.0499       0.0095       0.0000      34.5830    -999.2500   34885.8945   15237.0430    1233.0186       0.1280       2.9846       2.5125
   2515.8193       6.0290       0.0050       0.0000      34.1375    -999.2500   39230.7109   17519.1934    1707.0570       0.1268       2.8610       2.5010
   2515.9717       6.0310       0.0025       0.0000      33.6950    -999.2500   38964.3008   19675.5020    1518.2656       0.1230       3.0235       2.5386
   2516.1240       6.0330       0.0000       0.0000      37.6933    -999.2500   38699.6641   21817.4453    1330.7321       0.1173       3.1850       2.5760
   2516.2764       6.0405       0.0030       0.0000      41.6650    -999.2500   38827.3477   19661.2734    1036.3871       0.1100       3.3616       2.5845
   2516.4290       6.0480       0.0060       0.0000      40.6055    -999.2500   38954.1953   17519.2109     743.9680       0.1052       3.5370       2.5930
   2516.5813       6.0124       0.0246       0.0000      39.5530    -999.2500   39006.0703   18902.6621    1207.8730       0.1070       3.1934       2.6321
   2516.7336       5.9770       0.0430       0.0000      38.5683    -999.2500   39057.6094   20277.2422    1668.8030       0.1113       2.8520       2.6710
   2516.8860       5.9565       0.0345       0.0000      37.5900    -999.2500   38945.8906   19778.7773    1400.7043       0.1140       2.7627       2.7001
   2517.0386       5.9360       0.0260       0.0000      38.2250    -999.2500   38834.8711   19283.4492    1134.2930       0.1170       2.6740       2.7290
   2517.1909       5.9555       0.0175       0.0000      38.8560    -999.2500   37741.7930   15385.8525     867.8383       0.1220       2.8741       2.7350
   2517.3433       5.9750       0.0090       0.0000      38.2296    -999.2500   36655.4492   11512.2803     603.0260       0.1235       3.0730       2.7410
   2517.4956       5.9895       0.0070       0.0000      37.6070    -999.2500   28337.4648    9430.2949     341.9922       0.1155       3.4988       2.7315
   2517.6482       6.0040       0.0050       0.0000      37.0834    -999.2500   20069.7520    7360.8921      82.5360       0.1041       3.9220       2.7220
   2517.8005       6.0501       0.0070       0.0000      36.5630    -999.2500   18661.5215    7940.6870     108.0424       0.0950       3.7680       2.7411
   2517.9529       6.0960       0.0090       0.0000      33.9588    -999.2500   17261.6211    8517.0527     133.3980       0.0893       3.6150       2.7600
   2518.1052       6.0800       0.0065       0.0000      31.3700    -999.2500   28113.2285   12270.8252     929.5976       0.0885       3.3477       2.7374
   2518.2576       6.0640       0.0040       0.0000      33.2640    -999.2500   38901.9609   16002.8477    1721.1840       0.0893       3.0820       2.7150
   2518.4102       6.1257       0.0085       0.0000      35.1470    -999.2500   38930.9688   17869.4414    1040.7031       0.0885       3.1191       2.7020
   2518.5625       6.1870       0.0130       0.0000      33.5610    -999.2500   38959.8086   19725.4629     364.0770       0.0880       3.1560       2.6890
   2518.7148       6.1043       0.0120       0.0000      31.9840    -999.2500   38989.4688   17609.8867    1040.3507       0.0895       3.1419       2.6865
   2518.8672       6.0220       0.0110       0.0000      29.8767    -999.2500   39018.9648   15506.0400    1712.8750       0.0904       3.1280       2.6840
   2519.0198       5.9959       0.0030       0.0000      27.7810    -999.2500   38854.7539   14188.5264    1330.9696       0.0880       3.1571       2.6790
   2519.1721       5.9700      -0.0050       0.0000      30.2743    -999.2500   38691.6953   12880.2500     951.7420       0.0844       3.1860       2.6740
   2519.3245       5.9981      -0.0020       0.0000      32.7540    -999.2500   38959.8828   13533.3506     749.6597       0.0815       3.1554       2.6695
   2519.4768       6.0260       0.0010       0.0000      35.7068    -999.2500   39226.2227   14181.9561     548.9680       0.0800       3.1250       2.6650
   2519.6294       5.9608       0.0050       0.0000      38.6440    -999.2500   39016.1562   15762.2832    1160.0847       0.0805       3.0668       2.6494
   2519.7817       5.8960       0.0090       0.0000      37.0657    -999.2500   38807.5078   17331.9238    1767.0690       0.0821       3.0090       2.6340
   2519.9341       5.9471       0.0055       0.0000      35.4980    -999.2500   37114.2891   14181.7949    1208.3407       0.0840       3.0928       2.6260
   2520.0864       5.9980       0.0020       0.0000      34.8990    -999.2500   35432.2969   11052.5576     653.3180       0.0859       3.1760       2.6180
   2520.2388       5.9664      -0.0005       0.0000      34.3040    -999.2500   30563.1543   10560.7852     979.4294       0.0875       3.2482       2.6346
   2520.3914       5.9350      -0.0030       0.0000      35.1437    -999.2500   25725.7246   10072.2158    1303.4170       0.0892       3.3200       2.6510
   2520.5437       5.9049      -0.0060       0.0000      35.9780    -999.2500   26453.9395   10626.3652     865.0034       0.0915       3.2217       2.6560
   2520.6960       5.8750      -0.0090       0.0000      34.7235    -999.2500   27177.5078   11176.9775     429.3880       0.0922       3.1240       2.6610
