#------------------------------------------------------------------------------
#
#   Created by  : [OpenWorks] Log Export Utility (LEXP)
#   Created on  : 2016-05-23 11:55:37
#   Project     : CANT971
#   User        : R5K
#   Interpreter : PEP
#
#------------------------------------------------------------------------------
~VERSION INFORMATION
VERS. 2.0 : CWLS Log ASCII Standard - version 2.0
WRAP.  NO : One line per depth step
~WELL INFORMATION
#MNEMONIC   .UNIT                                           VALUE :DESCRIPTION
#------------------------------------------------------------------------------
STRT        .M                                           299.0628 :START DEPTH
STOP        .M                                          2570.8896 :STOP DEPTH
STEP        .M                                             0.1524 :STEP
NULL        .                                           -999.2500 :NULL VALUE
COMP        .                                   PEMEX EXPL & PROD :COMPANY
WELL        .                                                  31 :WELL
FLD         .                                           CANTARELL :FIELD
LOC         .                                             UNKNOWN :LOCATION
CNTY        .                                      CD. DEL CARMEN :COUNTY
STAT        .                                            CAMPECHE :STATE
CTRY        .                                              MEXICO :COUNTRY
SRVC        .                                             UNKNOWN :SERVICE COMPANY
DATE        .                                             UNKNOWN :LOG DATE
UWI         .                                          3060000157 :UNIQUE WELL ID
XCOORD      .                                       599727.810000 :SURFACE X
YCOORD      .                                      2147216.930000 :SURFACE Y
LAT         .                                           19.417919 :LATITUDE
LON         .                                          -92.050118 :LONGITUDE
ELEV        .M                                            27.8000 :SURFACE ELEV
ELEV_TYPE   .                                                  KB :ELEV TYPE
~CURVE INFORMATION
#MNEMONIC.UNIT        API CODE       : CURVE DESCRIPTION
#------------------------------------------------------------------------------
DEPTH    .M                          : Measured Depth
CALI     .inches      UNKNOWN        : CALI:Import:rC:NONE:v0 (auto-composite)
DRHO     .g/cm3       UNKNOWN        : DRHO:Import:rC:NONE:v0 (auto-composite)
DT       .us/ft       UNKNOWN        : DT:Import:rC:NONE:v0 (auto-composite)
GR       .API         UNKNOWN        : GR:Import:rC:NONE:v0 (auto-composite)
ILD      .ohm.m       UNKNOWN        : ILD:Import:rC:NONE:v0 (auto-composite)
LLD      .ohm.m       UNKNOWN        : LLD:Import:rC:NONE:v0 (auto-composite)
LLS      .ohm.m       UNKNOWN        : LLS:Import:rC:NONE:v0 (auto-composite)
MSFL     .ohm.m       UNKNOWN        : MSFL:Import:rC:NONE:v0 (auto-composite)
NPHI     .v/v_decimal UNKNOWN        : NPHI:Import:rC:NONE:v0 (auto-composite)
RHOB     .g/cm3       UNKNOWN        : RHOB:Import:rC:NONE:v0 (auto-composite)
~A     DEPTH         CALI         DRHO           DT           GR          ILD          LLD          LLS         MSFL         NPHI         RHOB
# ...
   1545.0852    -999.2500    -999.2500      91.3470      67.2604    -999.2500       3.6774       3.4596    -999.2500       0.2253       2.4384
   1545.2375    -999.2500    -999.2500      95.7190      67.2450    -999.2500       3.7890       3.3880    -999.2500       0.2368       2.4090
   1545.3900    -999.2500    -999.2500      95.7190      67.2450    -999.2500       3.7890       3.3880    -999.2500       0.2541       2.4090
   1545.5424    -999.2500    -999.2500      95.6936      67.1365    -999.2500       3.7694       3.3625    -999.2500       0.2631       2.4123
   1545.6948    -999.2500    -999.2500      95.4377      66.0543    -999.2500       3.5737       3.1162    -999.2500       0.2518       2.4453
   1545.8472    -999.2500    -999.2500      95.1199      64.6626    -999.2500       3.3993       2.8976    -999.2500       0.2427       2.4750
   1545.9996    -999.2500    -999.2500      94.2614      60.5858    -999.2500       3.4118       2.9126    -999.2500       0.2539       2.4750
   1546.1520    -999.2500    -999.2500      93.2464      56.9606    -999.2500       3.4328       2.9364    -999.2500       0.2682       2.4748
   1546.3044    -999.2500    -999.2500      90.8956      57.1559    -999.2500       3.5265       3.0320    -999.2500       0.2719       2.4733
   1546.4568    -999.2500    -999.2500      87.9633      57.4507    -999.2500       3.7223       3.2198    -999.2500       0.2700       2.4701
   1546.6093    -999.2500    -999.2500      80.1901      58.5680    -999.2500       4.7621       4.1439    -999.2500       0.2651       2.4526
   1546.7616    -999.2500    -999.2500      73.2970      59.8414    -999.2500       5.6807       4.9571    -999.2500       0.2518       2.4377
   1546.9141    -999.2500    -999.2500      73.4962      62.3634    -999.2500       5.6236       4.9056    -999.2500       0.2252       2.4437
   1547.0664    -999.2500    -999.2500      73.7884      64.9297    -999.2500       5.5429       4.8321    -999.2500       0.2019       2.4489
   1547.2188    -999.2500    -999.2500      74.8121      67.8428    -999.2500       5.2754       4.5933    -999.2500       0.1965       2.4484
   1547.3712    -999.2500    -999.2500      76.4023      70.6309    -999.2500       4.9393       4.2992    -999.2500       0.2059       2.4462
   1547.5236    -999.2500    -999.2500      82.3492      72.4731    -999.2500       4.0793       3.5954    -999.2500       0.2290       2.4307
   1547.6760    -999.2500    -999.2500      87.4713      74.2085    -999.2500       3.3216       2.9779    -999.2500       0.2498       2.4192
   1547.8284    -999.2500    -999.2500      86.4416      75.1536    -999.2500       3.3266       2.9849    -999.2500       0.2547       2.4377
   1547.9808    -999.2500    -999.2500      85.5405      76.3472    -999.2500       3.3345       2.9959    -999.2500       0.2491       2.4540
   1548.1332    -999.2500    -999.2500      85.5781      79.3399    -999.2500       3.3635       3.0349    -999.2500       0.2365       2.4540
   1548.2856    -999.2500    -999.2500      85.7513      81.9115    -999.2500       3.4275       3.1143    -999.2500       0.2251       2.4538
   1548.4380    -999.2500    -999.2500      86.8931      81.5221    -999.2500       3.7383       3.4712    -999.2500       0.2219       2.4518
   1548.5905    -999.2500    -999.2500      87.8849      81.3062    -999.2500       4.0100       3.7820    -999.2500       0.2219       2.4500
   1548.7428    -999.2500    -999.2500      87.8369      82.2853    -999.2500       4.0100       3.7820    -999.2500       0.2220       2.4500
   1548.8953    -999.2500    -999.2500      87.8222      83.0115    -999.2500       3.9890       3.7628    -999.2500       0.2235       2.4490
   1549.0476    -999.2500    -999.2500      88.0339      82.0319    -999.2500       3.8252       3.6176    -999.2500       0.2274       2.4410
   1549.2000    -999.2500    -999.2500      88.7232      81.2202    -999.2500       3.6135       3.4331    -999.2500       0.2328       2.4333
   1549.3524    -999.2500    -999.2500      92.5877      81.5085    -999.2500       3.0849       2.9955    -999.2500       0.2397       2.4283
   1549.5048    -999.2500    -999.2500      95.6658      81.7580    -999.2500       2.6270       2.6180    -999.2500       0.2501       2.4202
   1549.6572    -999.2500    -999.2500      93.6544      81.7580    -999.2500       2.6270       2.6180    -999.2500       0.2648       2.3916
   1549.8096    -999.2500    -999.2500      92.1910      81.3876    -999.2500       2.6489       2.6399    -999.2500       0.2718       2.3709
   1549.9620    -999.2500    -999.2500      94.2032      78.6839    -999.2500       2.8086       2.7961    -999.2500       0.2622       2.3994
   1550.1144    -999.2500    -999.2500      96.0584      75.9635    -999.2500       2.9955       2.9805    -999.2500       0.2549       2.4207
   1550.2668    -999.2500    -999.2500      96.9439      73.1412    -999.2500       3.3504       3.3349    -999.2500       0.2643       2.3972
   1550.4192    -999.2500    -999.2500      97.7040      70.7210    -999.2500       3.6550       3.6380    -999.2500       0.2761       2.3770
   1550.5717    -999.2500    -999.2500      97.7040      70.7210    -999.2500       3.6550       3.6380    -999.2500       0.2792       2.3770
   1550.7240    -999.2500    -999.2500      97.5803      69.3375    -999.2500       3.9796       3.9847    -999.2500       0.2760       2.3808
   1550.8765    -999.2500    -999.2500      96.7215      59.7840    -999.2500       6.2213       6.3269    -999.2500       0.2671       2.4074
   1551.0288    -999.2500    -999.2500      95.4268      51.0088    -999.2500       8.9796       9.1939    -999.2500       0.2516       2.4466
   1551.1812    -999.2500    -999.2500      91.6063      46.7158    -999.2500      14.7329      15.0261    -999.2500       0.2282       2.5592
   1551.3336    -999.2500    -999.2500      87.3523      42.6879    -999.2500      21.7200      22.0699    -999.2500       0.1997       2.6538
   1551.4860    -999.2500    -999.2500      80.6320      40.1589    -999.2500      35.7265      35.7955    -999.2500       0.1687       2.6458
   1551.6384    -999.2500    -999.2500      74.0867      37.7735    -999.2500      49.6763      49.4506    -999.2500       0.1401       2.6391
   1551.7908    -999.2500    -999.2500      68.5194      36.1845    -999.2500      63.3118      62.7241    -999.2500       0.1176       2.6396
   1551.9432    -999.2500    -999.2500      63.3747      34.1339    -999.2500      76.2094      75.4169    -999.2500       0.0942       2.6408
   1552.0956    -999.2500    -999.2500      60.5339      29.5821    -999.2500      85.0837      85.0190    -999.2500       0.0663       2.6458
   1552.2480    -999.2500    -999.2500      57.6664      25.7867    -999.2500      94.5025      95.3557    -999.2500       0.0448       2.6592
   1552.4004    -999.2500    -999.2500      54.6559      26.0185       1.6710     106.8374     109.5118    -999.2500       0.0386       2.7178
   1552.5529    -999.2500    -999.2500      52.1401      26.4130       1.6710     121.7649     126.1859    -999.2500       0.0392       2.7665
   1552.7052    -999.2500    -999.2500      52.2282      27.6529    -999.2500     150.2573     155.7275    -999.2500       0.0407       2.7635
   1552.8577    -999.2500    -999.2500      52.5915      28.6900    -999.2500     174.1110     180.3650    -999.2500       0.0451       2.7517
   1553.0100    -999.2500    -999.2500      54.3696      28.6900    -999.2500     174.1110     180.3650    -999.2500       0.0532       2.6946
   1553.1624    -999.2500    -999.2500      55.5604      29.9886    -999.2500     249.0716     237.0030    -999.2500       0.0570       2.6564
   1553.3148    -999.2500    -999.2500      53.7823      37.8138    -999.2500     702.9880     571.8483    -999.2500       0.0512       2.7135
   1553.4672    -999.2500    -999.2500      52.3782      43.8368    -999.2500    1079.9093     848.6413    -999.2500       0.0461       2.7521
