#------------------------------------------------------------------------------
#
#   Created by  : [OpenWorks] Log Export Utility (LEXP)
#   Created on  : 2016-05-23 11:50:52
#   Project     : CANT971
#   User        : R5K
#   Interpreter : PEP
#
#------------------------------------------------------------------------------
~VERSION INFORMATION
VERS. 2.0 : CWLS Log ASCII Standard - version 2.0
WRAP.  NO : One line per depth step
~WELL INFORMATION
#MNEMONIC   .UNIT                                           VALUE :DESCRIPTION
#------------------------------------------------------------------------------
STRT        .M                                           540.4100 :START DEPTH
STOP        .M                                          3242.0049 :STOP DEPTH
STEP        .M                                             0.1524 :STEP
NULL        .                                           -999.2500 :NULL VALUE
COMP        .                                   PEMEX EXPL & PROD :COMPANY
WELL        .                                                1041 :WELL
FLD         .                                           CANTARELL :FIELD
LOC         .                                             UNKNOWN :LOCATION
CNTY        .                                      CD. DEL CARMEN :COUNTY
STAT        .                                            CAMPECHE :STATE
CTRY        .                                              MEXICO :COUNTRY
SRVC        .                                             UNKNOWN :SERVICE COMPANY
DATE        .                                             UNKNOWN :LOG DATE
UWI         .                                          3060000494 :UNIQUE WELL ID
XCOORD      .                                       596162.660000 :SURFACE X
YCOORD      .                                      2150607.940000 :SURFACE Y
LAT         .                                           19.448736 :LATITUDE
LON         .                                          -92.083900 :LONGITUDE
ELEV        .M                                            30.0000 :SURFACE ELEV
ELEV_TYPE   .                                                  KB :ELEV TYPE
~CURVE INFORMATION
#MNEMONIC.UNIT        API CODE       : CURVE DESCRIPTION
#------------------------------------------------------------------------------
DEPTH    .M                          : Measured Depth
CALI     .inches      UNKNOWN        : CALI:litodensidad:rC:NONE:v0 (auto-composite)
DRHO     .g/cm3      UNKNOWN        : DRHO:DRHO-Load:rC:NONE:v0 (auto-composite)
DT       .us/ft       UNKNOWN        : DT:DT:rC:NONE:v0 (auto-composite)
GR       .API         UNKNOWN        : GR:GR-Load:rC:NONE:v0 (auto-composite)
ILD      .ohmm        UNKNOWN        : ILD:ILD-Load:rC:NONE:v0 (auto-composite)
ILM      .ohmm        UNKNOWN        : ILM:ILM-Load:rC:NONE:v0 (auto-composite)
LLD      .ohmm        UNKNOWN        : LLD:LLD-Load:rC:NONE:v0 (auto-composite)
LLS      .ohmm        UNKNOWN        : LLS:LLS-Load:rC:NONE:v0 (auto-composite)
MSFL     .ohmm        UNKNOWN        : MSFL:MSFL-Load:rC:NONE:v0 (auto-composite)
NPHI     .v/v_decimal UNKNOWN        : NPHI:NPHI-Load:rC:NONE:v0 (auto-composite)
PEF      .b/elec      UNKNOWN        : PEF:PEF-Load:rC:NONE:v0 (auto-composite)
RHOB     .g/cm3       UNKNOWN        : RHOB:RHOB-Load:rC:NONE:v0 (auto-composite)
~A     DEPTH         CALI         DRHO           DT           GR          ILD          ILM          LLD          LLS         MSFL         NPHI          PEF         RHOB
# ...
   2698.3940    -999.2500       0.0480      48.0960      43.5120    -999.2500    -999.2500     676.5430     463.3160     377.3220       0.0606       3.2720       2.6720
   2698.5464    -999.2500       0.0380      50.7050      46.3350    -999.2500    -999.2500     693.4620     473.4690     508.8900       0.0591       3.2430       2.7000
   2698.6987    -999.2500       0.0280      53.3140      49.1580    -999.2500    -999.2500     710.8050     483.8450     508.8900       0.0576       3.2150       2.7280
   2698.8511    -999.2500       0.0210      54.3460      50.8650    -999.2500    -999.2500     760.7030     517.9880     495.7720       0.0546       3.2000       2.7370
   2699.0037    -999.2500       0.0140      55.3790      52.5740    -999.2500    -999.2500     814.1920     554.6020     482.9720       0.0517       3.1840       2.7460
   2699.1560    -999.2500       0.0220      54.2570      49.4920    -999.2500    -999.2500     904.5850     621.2680     389.8420       0.0375       3.2920       2.7550
   2699.3083    -999.2500       0.0300      53.1350      46.4090    -999.2500    -999.2500     904.5850     621.2680     389.8420       0.0375       3.4000       2.7550
   2699.4607    -999.2500       0.0410      51.1480      44.4830    -999.2500    -999.2500     851.2420     592.9670     475.9100       0.0440       3.4520       2.7180
   2699.6133    -999.2500       0.0510      49.1580      42.5530    -999.2500    -999.2500     800.9670     565.9120     581.1670       0.0504       3.5040       2.6820
   2699.7656    -999.2500       0.0550      51.6580      40.8830    -999.2500    -999.2500     692.9920     500.0140     417.4970       0.0779       3.4780       2.6450
   2699.9180    -999.2500       0.0550      54.1580      40.8830    -999.2500    -999.2500     599.5730     441.7890     299.9210       0.0779       3.4520       2.6450
   2700.0703    -999.2500       0.0330      58.6490      43.1880    -999.2500    -999.2500     523.0120     391.9810     122.4330       0.0762       3.3980       2.6770
   2700.2227    -999.2500       0.0330      58.6490      43.1880    -999.2500    -999.2500     523.0120     391.9810     122.4330       0.0762       3.3980       2.6770
   2700.3752    -999.2500       0.0230      57.8000      43.4130    -999.2500    -999.2500     553.8420     413.8260     166.9370       0.0685       3.3270       2.6910
   2700.5276    -999.2500       0.0130      56.9530      43.6370    -999.2500    -999.2500     586.4350     436.8500     227.5050       0.0608       3.2560       2.7050
   2700.6799    -999.2500       0.0060      55.6540      41.9330    -999.2500    -999.2500     668.0950     494.6900     278.6470       0.0528       3.1140       2.7140
   2700.8323    -999.2500       0.0060      54.3550      41.9330    -999.2500    -999.2500     761.1260     560.1870     341.2850       0.0449       3.1140       2.7230
   2700.9849    -999.2500       0.0070      53.8740      42.1600    -999.2500    -999.2500     829.3940     603.1790     369.4640       0.0403       3.1260       2.7330
   2701.1372    -999.2500       0.0070      53.3920      42.3860    -999.2500    -999.2500     903.6610     649.3940     399.9190       0.0358       3.1370       2.7440
   2701.2896    -999.2500       0.0110      53.5450      43.0630    -999.2500    -999.2500     845.4800     591.8310     489.1970       0.0384       3.1910       2.7460
   2701.4419    -999.2500       0.0110      53.6970      43.7410    -999.2500    -999.2500     791.0450     539.3700     489.1970       0.0411       3.2450       2.7460
   2701.5945    -999.2500       0.0100      55.6730      44.8960    -999.2500    -999.2500     729.6030     483.8280     370.8970       0.0480       3.2800       2.7300
   2701.7468    -999.2500       0.0090      57.6450      46.0490    -999.2500    -999.2500     673.0210     434.0810     281.3300       0.0549       3.3150       2.7140
   2701.8992    -999.2500       0.0130      55.8560      46.0150    -999.2500    -999.2500     707.6360     450.3900     282.1800       0.0584       3.3740       2.7070
   2702.0515    -999.2500       0.0130      54.0670      45.9820    -999.2500    -999.2500     744.0310     467.3110     283.0320       0.0584       3.4340       2.7070
   2702.2039    -999.2500       0.0110      53.8270      44.8090    -999.2500    -999.2500     789.7790     494.2510     376.0010       0.0526       3.5400       2.7090
   2702.3564    -999.2500       0.0100      53.5860      43.6350    -999.2500    -999.2500     838.4190     522.7900     499.7350       0.0468       3.6470       2.7120
   2702.5088    -999.2500       0.0060      53.2540      41.2020    -999.2500    -999.2500     801.6650     507.8570     634.8250       0.0470       3.5780       2.6910
   2702.6611    -999.2500       0.0020      53.2540      41.2020    -999.2500    -999.2500     766.5210     493.3510     634.8250       0.0472       3.5100       2.6700
   2702.8135    -999.2500       0.0000      53.5270      41.8100    -999.2500    -999.2500     688.9260     451.0620     623.7350       0.0507       3.4750       2.6600
   2702.9661    -999.2500      -0.0020      53.8010      42.4200    -999.2500    -999.2500     619.0800     412.3390     612.8220       0.0543       3.4410       2.6490
   2703.1184    -999.2500       0.0010      54.7990      44.7800    -999.2500    -999.2500     548.5830     367.0390     500.8560       0.0574       3.3780       2.6540
   2703.2708    -999.2500       0.0030      55.7970      44.7800    -999.2500    -999.2500     486.1140     326.7160     409.3460       0.0606       3.3160       2.6590
   2703.4231    -999.2500       0.0060      56.5300      44.2850    -999.2500    -999.2500     458.0620     306.8410     254.5550       0.0619       3.1710       2.6620
   2703.5757    -999.2500       0.0090      57.2650      43.7890    -999.2500    -999.2500     431.5870     288.1460     158.1770       0.0632       3.0260       2.6640
   2703.7280    -999.2500       0.0120      58.1020      40.7410    -999.2500    -999.2500     494.2720     327.4360     249.4030       0.0596       3.0600       2.6830
   2703.8804    -999.2500       0.0120      58.1020      40.7410    -999.2500    -999.2500     566.0620     372.0830     393.2420       0.0560       3.0940       2.7020
   2704.0327    -999.2500       0.0120      56.5420      42.3250    -999.2500    -999.2500     861.6350     533.7870    1080.8920       0.0413       3.2810       2.7600
   2704.1851    -999.2500       0.0120      56.5420      42.3250    -999.2500    -999.2500     861.6350     533.7870    1080.8920       0.0413       3.2810       2.7600
   2704.3376    -999.2500       0.0100      56.6380      44.2930    -999.2500    -999.2500     856.8040     511.5150     749.4260       0.0442       3.3130       2.7500
   2704.4900    -999.2500       0.0070      56.7330      46.2590    -999.2500    -999.2500     852.0090     490.2070     519.9110       0.0470       3.3450       2.7390
   2704.6423    -999.2500       0.0060      50.0960      46.2510    -999.2500    -999.2500     806.5340     455.3990     431.5500       0.0435       3.3320       2.7370
   2704.7947    -999.2500       0.0040      43.4590      46.2430    -999.2500    -999.2500     763.4860     423.0630     358.2060       0.0435       3.3190       2.7340
   2704.9473    -999.2500       0.0030      41.4490      45.8000    -999.2500    -999.2500     737.8410     407.2310     346.8100       0.0445       3.2660       2.7340
   2705.0996    -999.2500       0.0010      39.4410      45.3580    -999.2500    -999.2500     713.0970     392.0140     335.7940       0.0454       3.2140       2.7330
   2705.2520    -999.2500       0.0020      43.9480      45.9410    -999.2500    -999.2500     705.3380     386.7510     360.1920       0.0473       3.2260       2.7330
   2705.4043    -999.2500       0.0030      48.4550      45.9410    -999.2500    -999.2500     697.6630     381.5580     386.3630       0.0492       3.2380       2.7330
   2705.5569    -999.2500       0.0070      49.7960      45.3910    -999.2500    -999.2500     683.1190     373.3330     407.5210       0.0508       3.2680       2.7260
