#------------------------------------------------------------------------------
#
#   Created by  : [OpenWorks] Log Export Utility (LEXP)
#   Created on  : 2016-05-23 11:57:04
#   Project     : CANT971
#   User        : R5K
#   Interpreter : PEP
#
#------------------------------------------------------------------------------
~VERSION INFORMATION
VERS. 2.0 : CWLS Log ASCII Standard - version 2.0
WRAP.  NO : One line per depth step
~WELL INFORMATION
#MNEMONIC   .UNIT                                           VALUE :DESCRIPTION
#------------------------------------------------------------------------------
STRT        .M                                           125.9451 :START DEPTH
STOP        .M                                          3005.5432 :STOP DEPTH
STEP        .M                                             0.1524 :STEP
NULL        .                                           -999.2500 :NULL VALUE
COMP        .                                   PEMEX EXPL & PROD :COMPANY
WELL        .                                                 66A :WELL
FLD         .                                           CANTARELL :FIELD
LOC         .                                             UNKNOWN :LOCATION
CNTY        .                                      CD. DEL CARMEN :COUNTY
STAT        .                                            CAMPECHE :STATE
CTRY        .                                              MEXICO :COUNTRY
SRVC        .                                             UNKNOWN :SERVICE COMPANY
DATE        .                                             UNKNOWN :LOG DATE
UWI         .                                          3060000173 :UNIQUE WELL ID
XCOORD      .                                       599692.990000 :SURFACE X
YCOORD      .                                      2143036.380000 :SURFACE Y
LAT         .                                           19.380143 :LATITUDE
LON         .                                          -92.050669 :LONGITUDE
ELEV        .M                                            26.7400 :SURFACE ELEV
ELEV_TYPE   .                                                  KB :ELEV TYPE
~CURVE INFORMATION
#MNEMONIC.UNIT        API CODE       : CURVE DESCRIPTION
#------------------------------------------------------------------------------
DEPTH    .M                          : Measured Depth
CALI     .UNKNOWN     UNKNOWN        : CALI:UNKNOWN:rC:NONE:v0 (auto-composite)
DT       .us/ft       UNKNOWN        : DT:DT:rC:NONE:v0 (auto-composite)
GR       .API         UNKNOWN        : GR:UNKNOWN:rC:NONE:v0 (auto-composite)
GR-ENT   .API         UNKNOWN        : GR-ENT:porosidad-entubado:rC:NONE:v0 (auto-composite)
GR-LWD   .UNKNOWN     UNKNOWN        : GR-LWD:GR-LWD:rC:NONE:v0 (auto-composite)
ILD      .UNKNOWN     UNKNOWN        : ILD:UNKNOWN:rC:NONE:v0 (auto-composite)
LLD      .UNKNOWN     UNKNOWN        : LLD:UNKNOWN:rC:NONE:v0 (auto-composite)
LLD-LWD  .UNKNOWN     UNKNOWN        : LLD-LWD:LLD-LWD:rC:NONE:v0 (auto-composite)
LLS      .UNKNOWN     UNKNOWN        : LLS:UNKNOWN:rC:NONE:v0 (auto-composite)
LLS-LWD  .UNKNOWN     UNKNOWN        : LLS-LWD:LLS-LWD:rC:NONE:v0 (auto-composite)
MSFL     .UNKNOWN     UNKNOWN        : MSFL:UNKNOWN:rC:NONE:v0 (auto-composite)
MSFL-LWD .UNKNOWN     UNKNOWN        : MSFL-LWD:MSFL-LWD:rC:NONE:v0 (auto-composite)
NPHI     .v/v_decimal UNKNOWN        : NPHI:PETROWORKS:rC:NONE:v1 
NPHI-ENT .UNKNOWN     UNKNOWN        : NPHI-ENT:porosidad-entubado:rC:NONE:v0 (auto-composite)
RHOB     .g/cm3       UNKNOWN        : RHOB:UNKNOWN:rC:NONE:v0 (auto-composite)
~A     DEPTH         CALI           DT           GR       GR-ENT       GR-LWD          ILD          LLD      LLD-LWD          LLS      LLS-LWD         MSFL     MSFL-LWD         NPHI     NPHI-ENT         RHOB
# ...
   2764.9036    -999.2500      48.4390      28.3965    -999.2500      35.7586    -999.2500     209.7397      42.9600     191.5877      46.6700    -999.2500      43.5200       0.0435    -999.2500    -999.2500
   2765.0559    -999.2500      48.6899      29.4216    -999.2500      27.6586    -999.2500     189.4159      45.3381     176.7101      50.8542    -999.2500      48.1136       0.0418    -999.2500    -999.2500
   2765.2083    -999.2500      49.0220      31.2943    -999.2500      24.3792    -999.2500     171.0514      48.9083     162.5514      57.0722    -999.2500      54.8469       0.0409    -999.2500    -999.2500
   2765.3606    -999.2500      49.4691      34.3610    -999.2500      24.9652    -999.2500     155.4462      48.1651     149.4051      53.3897    -999.2500      47.8810       0.0410    -999.2500    -999.2500
   2765.5132    -999.2500      49.9007      36.7706    -999.2500      25.8788    -999.2500     160.0046      47.3854     154.9731      50.2201    -999.2500      42.4134       0.0412    -999.2500    -999.2500
   2765.6655    -999.2500      50.3104      38.2515    -999.2500      21.7575    -999.2500     193.0624      43.9581     186.9918      43.1914    -999.2500      37.3334       0.0413    -999.2500    -999.2500
   2765.8179    -999.2500      50.7085      38.8524    -999.2500      29.2194    -999.2500     210.1703      42.9600     203.8669      41.1400    -999.2500      35.8500       0.0419    -999.2500    -999.2500
   2765.9702    -999.2500      51.0903      38.2052    -999.2500      33.6089    -999.2500     204.6546      44.5251     199.2621      42.5923    -999.2500      40.7215       0.0431    -999.2500    -999.2500
   2766.1228    -999.2500      51.2808      38.0752    -999.2500      29.6967    -999.2500     189.9871      45.3535     184.3100      43.4214    -999.2500      43.0772       0.0455    -999.2500    -999.2500
   2766.2751    -999.2500      51.2008      38.6865    -999.2500      26.3281    -999.2500     162.2056      47.7311     154.5309      46.4277    -999.2500      47.4162       0.0492    -999.2500    -999.2500
   2766.4275    -999.2500      50.9970      39.7514    -999.2500      20.7013    -999.2500     135.9607      49.5049     129.8283      47.9500    -999.2500      47.7089       0.0546    -999.2500    -999.2500
   2766.5798    -999.2500      50.6187      41.4686    -999.2500      24.4134    -999.2500     111.9256      50.6484     112.4260      49.4872    -999.2500      46.4186       0.0622    -999.2500    -999.2500
   2766.7322    -999.2500      52.2943      43.2040    -999.2500      34.6982    -999.2500      95.0792      51.7947     101.0027      53.6932    -999.2500      49.6503       0.0727    -999.2500    -999.2500
   2766.8848    -999.2500      56.8760      44.9648    -999.2500      34.4970    -999.2500      88.3370      54.0204      97.9829      58.4595    -999.2500      54.7458       0.0863    -999.2500    -999.2500
   2767.0371    -999.2500      60.5225      46.2429    -999.2500      33.8588    -999.2500      78.1650      52.8640      85.5689      59.7015    -999.2500      56.9822       0.1010    -999.2500    -999.2500
   2767.1895    -999.2500      62.8500      46.8357    -999.2500      26.6328    -999.2500      63.1230      51.3073      59.8160      63.9107    -999.2500      71.3196       0.1163    -999.2500    -999.2500
   2767.3418    -999.2500      61.4983      46.9237    -999.2500      17.5905    -999.2500      46.8677      58.6496      39.7720      85.0642    -999.2500     110.0361       0.1115    -999.2500    -999.2500
   2767.4944    -999.2500      54.9384      46.2924    -999.2500      21.6509    -999.2500      28.8833      47.1975      27.8630      53.5932    -999.2500      55.2374       0.0859    -999.2500    -999.2500
   2767.6467    -999.2500      49.8937      44.4408    -999.2500      26.2959    -999.2500      23.2338      60.6052      34.0226      82.3198    -999.2500      80.2427       0.0631    -999.2500    -999.2500
   2767.7991    -999.2500      46.9875      40.8893    -999.2500      19.7700    -999.2500      34.7644      82.6200      65.3480     125.9000    -999.2500     143.9500       0.0483    -999.2500    -999.2500
   2767.9514    -999.2500      45.7187      36.4008    -999.2500      18.6506    -999.2500     172.9091     102.1553     189.5967     454.8118    -999.2500     320.1761       0.0390    -999.2500    -999.2500
   2768.1040    -999.2500      46.7691      30.6024    -999.2500      19.5096    -999.2500     488.0296     365.6224     443.7294    1704.6682    -999.2500    1134.3514       0.0362    -999.2500    -999.2500
   2768.2563    -999.2500      47.7667      26.4140    -999.2500      21.1147    -999.2500     629.3152    1569.5354     552.6406    1839.0211    -999.2500    1223.5575       0.0354    -999.2500    -999.2500
   2768.4087    -999.2500      48.6898      24.4988    -999.2500      19.3855    -999.2500     525.1432     366.5740     456.4966     358.6959    -999.2500     239.9451       0.0365    -999.2500    -999.2500
   2768.5610    -999.2500      49.5770      23.6959    -999.2500      22.0743    -999.2500     435.8317      28.6084     379.3959      25.0409    -999.2500      20.5610       0.0392    -999.2500    -999.2500
   2768.7134    -999.2500      50.4133      24.4690    -999.2500      25.2217    -999.2500     367.5782      46.9397     329.2805      64.1307    -999.2500      59.7995       0.0442    -999.2500    -999.2500
   2768.8660    -999.2500      51.5877      25.1411    -999.2500      28.1125    -999.2500     306.4591      65.5189     282.8998     122.6020    -999.2500     125.3020       0.0499    -999.2500    -999.2500
   2769.0183    -999.2500      53.2399      25.6694    -999.2500      30.9157    -999.2500     255.4861      53.3443     241.8300      77.4119    -999.2500      82.1555       0.0562    -999.2500    -999.2500
   2769.1707    -999.2500      54.8333      27.0556    -999.2500      29.5610    -999.2500     207.0689      48.4603     203.1987      68.7280    -999.2500      65.6049       0.0617    -999.2500    -999.2500
   2769.3230    -999.2500      56.3442      29.6662    -999.2500      29.8010    -999.2500     162.2991      50.0555     168.0474      83.1775    -999.2500      87.7171       0.0659    -999.2500    -999.2500
   2769.4756    -999.2500      56.9853      31.5870    -999.2500      30.7121    -999.2500     126.5629      45.7930     134.7498      74.2027    -999.2500      80.0808       0.0705    -999.2500    -999.2500
   2769.6279    -999.2500      56.3971      32.5391    -999.2500      29.4757    -999.2500     103.5114      42.0745     104.0550      61.9397    -999.2500      63.1688       0.0754    -999.2500    -999.2500
   2769.7803    -999.2500      55.1153      33.4458    -999.2500      34.4620    -999.2500      79.4628      40.1143      77.0469      52.8969    -999.2500      51.5320       0.0741    -999.2500    -999.2500
   2769.9326    -999.2500      52.8563      34.2884    -999.2500      32.4662    -999.2500      54.0093      33.2120      55.2338      46.1122    -999.2500      43.0359       0.0641    -999.2500    -999.2500
   2770.0852    -999.2500      51.5637      35.5111    -999.2500      31.9783    -999.2500      40.6156      27.9845      46.9851      40.0782    -999.2500      36.3437       0.0565    -999.2500    -999.2500
   2770.2375    -999.2500      51.6377      37.2714    -999.2500      34.2474    -999.2500      44.2770      26.0611      57.9194      33.2358    -999.2500      31.0125       0.0518    -999.2500    -999.2500
   2770.3899    -999.2500      51.7523      37.7248    -999.2500      31.6695    -999.2500      60.5262      29.2662      78.5993      29.0218    -999.2500      30.1800       0.0486    -999.2500    -999.2500
   2770.5422    -999.2500      51.9243      36.3235    -999.2500    -999.2500    -999.2500      94.6407      37.1498     113.1108      24.6694    -999.2500      31.1217       0.0472    -999.2500    -999.2500
   2770.6946    -999.2500      51.9540      33.7424    -999.2500    -999.2500    -999.2500     134.0713      43.8460     147.2451      13.8111    -999.2500      19.6962       0.0464    -999.2500    -999.2500
