#------------------------------------------------------------------------------
#
#   Created by  : [OpenWorks] Log Export Utility (LEXP)
#   Created on  : 2016-05-23 11:55:37
#   Project     : CANT971
#   User        : R5K
#   Interpreter : PEP
#
#------------------------------------------------------------------------------
~VERSION INFORMATION
VERS. 2.0 : CWLS Log ASCII Standard - version 2.0
WRAP.  NO : One line per depth step
~WELL INFORMATION
#MNEMONIC   .UNIT                                           VALUE :DESCRIPTION
#------------------------------------------------------------------------------
STRT        .M                                           299.0628 :START DEPTH
STOP        .M                                          2570.8896 :STOP DEPTH
STEP        .M                                             0.1524 :STEP
NULL        .                                           -999.2500 :NULL VALUE
COMP        .                                   PEMEX EXPL & PROD :COMPANY
WELL        .                                                  31 :WELL
FLD         .                                           CANTARELL :FIELD
LOC         .                                             UNKNOWN :LOCATION
CNTY        .                                      CD. DEL CARMEN :COUNTY
STAT        .                                            CAMPECHE :STATE
CTRY        .                                              MEXICO :COUNTRY
SRVC        .                                             UNKNOWN :SERVICE COMPANY
DATE        .                                             UNKNOWN :LOG DATE
UWI         .                                          3060000157 :UNIQUE WELL ID
XCOORD      .                                       599727.810000 :SURFACE X
YCOORD      .                                      2147216.930000 :SURFACE Y
LAT         .                                           19.417919 :LATITUDE
LON         .                                          -92.050118 :LONGITUDE
ELEV        .M                                            27.8000 :SURFACE ELEV
ELEV_TYPE   .                                                  KB :ELEV TYPE
~CURVE INFORMATION
#MNEMONIC.UNIT        API CODE       : CURVE DESCRIPTION
#------------------------------------------------------------------------------
DEPTH    .M                          : Measured Depth
CALI     .inches      UNKNOWN        : CALI:Import:rC:NONE:v0 (auto-composite)
DRHO     .g/cm3       UNKNOWN        : DRHO:Import:rC:NONE:v0 (auto-composite)
DT       .us/ft       UNKNOWN        : DT:Import:rC:NONE:v0 (auto-composite)
GR       .API         UNKNOWN        : GR:Import:rC:NONE:v0 (auto-composite)
ILD      .ohm.m       UNKNOWN        : ILD:Import:rC:NONE:v0 (auto-composite)
LLD      .ohm.m       UNKNOWN        : LLD:Import:rC:NONE:v0 (auto-composite)
LLS      .ohm.m       UNKNOWN        : LLS:Import:rC:NONE:v0 (auto-composite)
MSFL     .ohm.m       UNKNOWN        : MSFL:Import:rC:NONE:v0 (auto-composite)
NPHI     .v/v_decimal UNKNOWN        : NPHI:Import:rC:NONE:v0 (auto-composite)
RHOB     .g/cm3       UNKNOWN        : RHOB:Import:rC:NONE:v0 (auto-composite)
~A     DEPTH         CALI         DRHO           DT           GR          ILD          LLD          LLS         MSFL         NPHI         RHOB
# ...
   1852.3236    -999.2500    -999.2500      57.5400      37.6270    -999.2500   18635.2539   11712.5010    -999.2500       0.0606       2.7580
   1852.4760    -999.2500    -999.2500      58.5967      38.7924    -999.2500   28236.7754   16979.0195    -999.2500       0.0581       2.7423
   1852.6284    -999.2500    -999.2500      60.0164      40.3548    -999.2500   41109.7617   24024.8320    -999.2500       0.0527       2.7213
   1852.7808    -999.2500    -999.2500      60.3739      40.7403    -999.2500   44327.1133   25773.6465    -999.2500       0.0545       2.6965
   1852.9332    -999.2500    -999.2500      60.3724      40.7312    -999.2500   44308.8516   25762.5234    -999.2500       0.0604       2.6705
   1853.0856    -999.2500    -999.2500      60.3120      38.4355    -999.2500   43575.7891   25323.8008    -999.2500       0.0637       2.6644
   1853.2380    -999.2500    -999.2500      60.2319      35.3829    -999.2500   42606.1641   24744.7793    -999.2500       0.0646       2.6649
   1853.3904    -999.2500    -999.2500      59.9529      34.6348    -999.2500   39001.8281   22924.2871    -999.2500       0.0648       2.6665
   1853.5428    -999.2500    -999.2500      59.6083      34.6398    -999.2500   34536.4453   20701.5645    -999.2500       0.0647       2.6685
   1853.6952    -999.2500    -999.2500      59.1183      34.8649    -999.2500   28572.7695   18046.3750    -999.2500       0.0645       2.6739
   1853.8477    -999.2500    -999.2500      58.5812      35.1608    -999.2500   22127.6914   15253.4395    -999.2500       0.0626       2.6804
   1854.0000    -999.2500    -999.2500      57.3289      36.2900    -999.2500   17005.4062    9906.7646    -999.2500       0.0564       2.7044
   1854.1525    -999.2500    -999.2500      55.8476      37.6836    -999.2500   12302.7520    3757.0496    -999.2500       0.0490       2.7339
   1854.3048    -999.2500    -999.2500      55.4928      42.4023    -999.2500    7733.1069    2300.3267    -999.2500       0.0458       2.7410
   1854.4572    -999.2500    -999.2500      55.4938      48.1624    -999.2500    3205.1182    2300.4282    -999.2500       0.0464       2.7410
   1854.6096    -999.2500    -999.2500      56.0593      49.5180    -999.2500    2139.4561    2300.4519    -999.2500       0.0510       2.7337
   1854.7620    -999.2500    -999.2500      56.8002      49.5180    -999.2500    2139.4561    2300.4519    -999.2500       0.0553       2.7242
   1854.9144    -999.2500    -999.2500      56.4069      49.4297    -999.2500    2208.1870    2397.8330    -999.2500       0.0532       2.7293
   1855.0668    -999.2500    -999.2500      55.6661      49.3145    -999.2500    2297.7983    2524.5334    -999.2500       0.0471       2.7388
   1855.2192    -999.2500    -999.2500      56.0373      47.2413    -999.2500    2750.9380    3004.6238    -999.2500       0.0409       2.7525
   1855.3716    -999.2500    -999.2500      56.7449      44.5837    -999.2500    3313.0750    3589.2415    -999.2500       0.0359       2.7676
   1855.5240    -999.2500    -999.2500      56.9070      43.9790    -999.2500    3440.9771    3721.3220    -999.2500       0.0339       2.7710
   1855.6764    -999.2500    -999.2500      56.9070      43.9790    -999.2500    3440.9771    3721.3220    -999.2500       0.0336       2.7710
   1855.8289    -999.2500    -999.2500      54.9264      44.1621    -999.2500   12215.0029    8529.7402    -999.2500       0.0336       2.7710
   1855.9812    -999.2500    -999.2500      52.3649      44.3985    -999.2500   23539.0801   14722.8535    -999.2500       0.0346       2.7710
   1856.1335    -999.2500    -999.2500      52.2906      45.0348    -999.2500   26061.6133   16087.0840    -999.2500       0.0381       2.7656
   1856.2860    -999.2500    -999.2500      52.9329      45.7851    -999.2500   26060.3066   16085.7861    -999.2500       0.0424       2.7585
   1856.4384    -999.2500    -999.2500      52.4260      45.9500    -999.2500   26060.0195   16085.5029    -999.2500       0.0442       2.7570
   1856.5908    -999.2500    -999.2500      51.5925      45.9500    -999.2500   26060.0195   16085.5029    -999.2500       0.0442       2.7570
   1856.7432    -999.2500    -999.2500      54.0634      49.0823    -999.2500   22734.9355   14151.6406    -999.2500       0.0430       2.7637
   1856.8956    -999.2500    -999.2500      57.4608      53.0846    -999.2500   18486.3496   11685.7188    -999.2500       0.0417       2.7722
   1857.0480    -999.2500    -999.2500      58.1932      53.9408    -999.2500   17577.5117   11162.2861    -999.2500       0.0414       2.7677
   1857.2004    -999.2500    -999.2500      58.1922      53.9393    -999.2500   17579.1895   11163.4053    -999.2500       0.0417       2.7597
   1857.3528    -999.2500    -999.2500      57.8329      53.2825    -999.2500   18275.2598   11628.7061    -999.2500       0.0418       2.7580
   1857.5052    -999.2500    -999.2500      57.3764      52.4495    -999.2500   19158.0176   12217.6074    -999.2500       0.0418       2.7580
   1857.6576    -999.2500    -999.2500      55.5118      50.0503    -999.2500   23111.8008   19556.1133    -999.2500       0.0416       2.7635
   1857.8101    -999.2500    -999.2500      53.2703      47.2359    -999.2500   27879.6953   28666.6348    -999.2500       0.0413       2.7705
   1857.9624    -999.2500    -999.2500      53.5850      44.9408    -999.2500   38017.7969   30461.1270    -999.2500       0.0406       2.7653
   1858.1147    -999.2500    -999.2500      54.5712      42.7808    -999.2500   49552.6250   30371.3848    -999.2500       0.0399       2.7567
   1858.2672    -999.2500    -999.2500      54.1513      41.4802    -999.2500   51402.2031   29613.5898    -999.2500       0.0396       2.7570
   1858.4196    -999.2500    -999.2500      53.3674      40.3999    -999.2500   50768.6484   28686.2031    -999.2500       0.0399       2.7595
   1858.5720    -999.2500    -999.2500      53.3141      39.4528    -999.2500   48396.5508   26186.4922    -999.2500       0.0408       2.7584
   1858.7244    -999.2500    -999.2500      53.4473      38.5394    -999.2500   45585.1172   23293.3984    -999.2500       0.0419       2.7564
   1858.8768    -999.2500    -999.2500      53.4740      39.3782    -999.2500   45026.8164   22723.5156    -999.2500       0.0423       2.7560
   1859.0292    -999.2500    -999.2500      53.4740      40.6512    -999.2500   45026.8164   22723.5156    -999.2500       0.0468       2.7560
   1859.1816    -999.2500    -999.2500      55.5042      39.8778    -999.2500   47891.9219   24068.5605    -999.2500       0.0650       2.7122
   1859.3340    -999.2500    -999.2500      58.0352      38.6048    -999.2500   51456.5664   25738.6777    -999.2500       0.0860       2.6576
   1859.4865    -999.2500    -999.2500      58.4333      38.1856    -999.2500   53061.5781   33611.0586    -999.2500       0.0935       2.6494
   1859.6388    -999.2500    -999.2500      58.3131      37.9718    -999.2500   54195.2148   42952.4922    -999.2500       0.0933       2.6524
   1859.7913    -999.2500    -999.2500      55.7717      38.0072    -999.2500   54487.4844   44719.5117    -999.2500       0.0929       2.6530
   1859.9436    -999.2500    -999.2500      52.6535      38.1013    -999.2500   54581.4180   44719.5117    -999.2500       0.0905       2.6530
   1860.0959    -999.2500    -999.2500      54.5866      37.9239    -999.2500   54320.8398   40742.7695    -999.2500       0.0813       2.6830
   1860.2484    -999.2500    -999.2500      57.7048      37.6835    -999.2500   53977.9570   35852.4180    -999.2500       0.0675       2.7201
   1860.4008    -999.2500    -999.2500      56.0270      35.9820    -999.2500   49263.9531   26057.7793    -999.2500       0.0509       2.7494
   1860.5532    -999.2500    -999.2500      53.2411      33.9481    -999.2500   43550.6133   15159.6416    -999.2500       0.0360       2.7769
   1860.7056    -999.2500    -999.2500      52.7270      33.9731    -999.2500   30876.5137    8684.9160    -999.2500       0.0302       2.7820
