#------------------------------------------------------------------------------
#
#   Created by  : [OpenWorks] Log Export Utility (LEXP)
#   Created on  : 2016-05-23 11:52:56
#   Project     : CANT971
#   User        : R5K
#   Interpreter : PEP
#
#------------------------------------------------------------------------------
~VERSION INFORMATION
VERS. 2.0 : CWLS Log ASCII Standard - version 2.0
WRAP.  NO : One line per depth step
~WELL INFORMATION
#MNEMONIC   .UNIT                                           VALUE :DESCRIPTION
#------------------------------------------------------------------------------
STRT        .M                                           340.6189 :START DEPTH
STOP        .M                                          3243.0769 :STOP DEPTH
STEP        .M                                             0.1524 :STEP
NULL        .                                           -999.2500 :NULL VALUE
COMP        .                                   PEMEX EXPL & PROD :COMPANY
WELL        .                                                2098 :WELL
FLD         .                                           CANTARELL :FIELD
LOC         .                                             UNKNOWN :LOCATION
CNTY        .                                      CD. DEL CARMEN :COUNTY
STAT        .                                            CAMPECHE :STATE
CTRY        .                                              MEXICO :COUNTRY
SRVC        .                                             UNKNOWN :SERVICE COMPANY
DATE        .                                             UNKNOWN :LOG DATE
UWI         .                                          3060000229 :UNIQUE WELL ID
XCOORD      .                                       599692.800000 :SURFACE X
YCOORD      .                                      2143031.510000 :SURFACE Y
LAT         .                                           19.380099 :LATITUDE
LON         .                                          -92.050671 :LONGITUDE
ELEV        .M                                            26.7400 :SURFACE ELEV
ELEV_TYPE   .                                                  KB :ELEV TYPE
~CURVE INFORMATION
#MNEMONIC.UNIT        API CODE       : CURVE DESCRIPTION
#------------------------------------------------------------------------------
DEPTH    .M                          : Measured Depth
CALI     .inches      UNKNOWN        : CALI:litodensidad:rC:NONE:v0 (auto-composite)
CGR      .API         UNKNOWN        : CGR:Espectrometria:rC:NONE:v0 (auto-composite)
DRHO     .g/cm3       UNKNOWN        : DRHO:litodensidad:rC:NONE:v0 (auto-composite)
DT       .us/ft       UNKNOWN        : DT:DT-Load:rC:NONE:v0 (auto-composite)
GR       .API         UNKNOWN        : GR:GR-load:rC:NONE:v0 (auto-composite)
ILD      .UNKNOWN     UNKNOWN        : ILD:resistivos:rC:NONE:v0 (auto-composite)
LLD      .ohm.m       UNKNOWN        : LLD:resistivos:rC:NONE:v0 (auto-composite)
LLS      .UNKNOWN     UNKNOWN        : LLS:resistivos:rC:NONE:v0 (auto-composite)
MSFL     .UNKNOWN     UNKNOWN        : MSFL:resistivos:rC:NONE:v0 (auto-composite)
NPHI     .v/v_decimal UNKNOWN        : NPHI:porosidad:rC:NONE:v0 (auto-composite)
PEF      .UNKNOWN     UNKNOWN        : PEF:litodensidad:rC:NONE:v0 (auto-composite)
POTA     .UNKNOWN     UNKNOWN        : POTA:Espectrometria:rC:NONE:v0 (auto-composite)
RHOB     .UNKNOWN     UNKNOWN        : RHOB:litodensidad:rC:NONE:v0 (auto-composite)
THOR     .ppm         UNKNOWN        : THOR:Espectrometria:rC:NONE:v0 (auto-composite)
URAN     .ppm         UNKNOWN        : URAN:Espectrometria:rC:NONE:v0 (auto-composite)
~A     DEPTH         CALI          CGR         DRHO           DT           GR          ILD          LLD          LLS         MSFL         NPHI          PEF         POTA         RHOB         THOR         URAN
# ...
   2819.1001       8.6035    -999.2500       0.0071      59.2563      45.6817    -999.2500      37.4754      45.6497     105.2568       0.1036    -999.2500    -999.2500       2.6244    -999.2500    -999.2500
   2819.2524       8.7460    -999.2500       0.0106      57.4456      42.3815    -999.2500      37.4029      44.9944     101.7823       0.0969    -999.2500    -999.2500       2.6374    -999.2500    -999.2500
   2819.4048       8.8838    -999.2500       0.0140      55.7105      39.2163    -999.2500      37.2646      44.2530      97.9560       0.0903    -999.2500    -999.2500       2.6499    -999.2500    -999.2500
   2819.5574       8.8742    -999.2500       0.0130      56.2146      40.0535    -999.2500      35.3844      41.2279      84.3995       0.0838    -999.2500    -999.2500       2.6459    -999.2500    -999.2500
   2819.7097       8.8622    -999.2500       0.0119      56.8040      40.8601    -999.2500      33.3571      38.1229      70.5159       0.0775    -999.2500    -999.2500       2.6416    -999.2500    -999.2500
   2819.8621       8.7468    -999.2500       0.0094      59.8576      40.7386    -999.2500      27.5121      32.9471      47.7822       0.0780    -999.2500    -999.2500       2.6281    -999.2500    -999.2500
   2820.0144       8.6357    -999.2500       0.0068      62.8060      40.6070    -999.2500      21.8891      27.9697      25.8847       0.0785    -999.2500    -999.2500       2.6148    -999.2500    -999.2500
   2820.1667       8.6638    -999.2500       0.0013      62.7781      40.1762    -999.2500      22.1682      28.2648      27.1982       0.0812    -999.2500    -999.2500       2.6073    -999.2500    -999.2500
   2820.3193       8.6932    -999.2500      -0.0040      62.7387      39.7613    -999.2500      22.4942      28.7177      29.1916       0.0838    -999.2500    -999.2500       2.6001    -999.2500    -999.2500
   2820.4717       8.7845    -999.2500      -0.0030      62.3675      39.8343    -999.2500      24.0416      33.2788      49.6507       0.0835    -999.2500    -999.2500       2.6036    -999.2500    -999.2500
   2820.6240       8.8735    -999.2500      -0.0019      61.9365      39.8955    -999.2500      25.6203      37.6627      69.3374       0.0829    -999.2500    -999.2500       2.6074    -999.2500    -999.2500
   2820.7764       8.8941    -999.2500       0.0021      59.8060      39.6024    -999.2500      28.0372      37.3236      68.4927       0.0778    -999.2500    -999.2500       2.6194    -999.2500    -999.2500
   2820.9290       8.9138    -999.2500       0.0062      57.7610      39.2715    -999.2500      30.3625      36.9409      67.5417       0.0729    -999.2500    -999.2500       2.6313    -999.2500    -999.2500
   2821.0813       8.9073    -999.2500       0.0117      58.2147      37.8386    -999.2500      30.2956      35.4196      63.6923       0.0734    -999.2500    -999.2500       2.6398    -999.2500    -999.2500
   2821.2336       8.9000    -999.2500       0.0171      58.7465      36.4648    -999.2500      30.1718      33.8975      59.7662       0.0739    -999.2500    -999.2500       2.6482    -999.2500    -999.2500
   2821.3860       8.8579    -999.2500       0.0201      61.5043      36.8615    -999.2500      28.5282      32.3575      53.7958       0.0779    -999.2500    -999.2500       2.6557    -999.2500    -999.2500
   2821.5386       8.8149    -999.2500       0.0230      64.1463      37.2969    -999.2500      26.9634      30.9193      48.2188       0.0817    -999.2500    -999.2500       2.6635    -999.2500    -999.2500
   2821.6909       8.7271    -999.2500       0.0220      63.3985      38.8687    -999.2500      27.4626      32.1507      53.3987       0.0787    -999.2500    -999.2500       2.6780    -999.2500    -999.2500
   2821.8433       8.6421    -999.2500       0.0207      62.5808      40.4386    -999.2500      28.0064      33.5172      58.1876       0.0758    -999.2500    -999.2500       2.6919    -999.2500    -999.2500
   2821.9956       8.6476    -999.2500       0.0132      59.7615      41.9492    -999.2500      29.7456      38.5096      52.5125       0.0765    -999.2500    -999.2500       2.6879    -999.2500    -999.2500
   2822.1479       8.6534    -999.2500       0.0060      57.0642      43.4074    -999.2500      31.3027      43.1132      46.2500       0.0773    -999.2500    -999.2500       2.6833    -999.2500    -999.2500
   2822.3005       8.6725    -999.2500       0.0065      57.9515      43.3295    -999.2500      28.0736      37.4961      23.8682       0.0819    -999.2500    -999.2500       2.6628    -999.2500    -999.2500
   2822.4529       8.6915    -999.2500       0.0072      58.9672      43.1950    -999.2500      24.6663      31.7381       2.3188       0.0869    -999.2500    -999.2500       2.6413    -999.2500    -999.2500
   2822.6052       8.7110    -999.2500       0.0122      63.6687      41.3538    -999.2500      16.4593      22.1815       3.1220       0.1054    -999.2500    -999.2500       2.5904    -999.2500    -999.2500
   2822.7576       8.7309    -999.2500       0.0168      68.1879      39.5770    -999.2500       8.5745      13.0078       4.3194       0.1233    -999.2500    -999.2500       2.5413    -999.2500    -999.2500
   2822.9102       8.7695    -999.2500       0.0098      67.3306      39.6979    -999.2500       9.1892      13.9319      16.3724       0.1211    -999.2500    -999.2500       2.5498    -999.2500    -999.2500
   2823.0625       8.8075    -999.2500       0.0032      66.3289      39.8271    -999.2500       9.9032      15.0020      29.4581       0.1185    -999.2500    -999.2500       2.5592    -999.2500    -999.2500
   2823.2148       8.8286    -999.2500       0.0092      61.1671      40.2073    -999.2500      13.3025      20.0203      70.3685       0.1021    -999.2500    -999.2500       2.5957    -999.2500    -999.2500
   2823.3672       8.8507    -999.2500       0.0150      56.1791      40.5825    -999.2500      16.8975      25.3083     109.5898       0.0862    -999.2500    -999.2500       2.6310    -999.2500    -999.2500
   2823.5198       8.9240    -999.2500       0.0150      56.3362      40.8109    -999.2500      25.6748      37.7329     102.1411       0.0869    -999.2500    -999.2500       2.6300    -999.2500    -999.2500
   2823.6721       8.9936    -999.2500       0.0149      56.5188      41.0535    -999.2500      33.9527      49.6169      93.7017       0.0877    -999.2500    -999.2500       2.6287    -999.2500    -999.2500
   2823.8245       8.9338    -999.2500       0.0119      57.4407      41.7287    -999.2500      29.2872      47.4889      58.4806       0.0918    -999.2500    -999.2500       2.6182    -999.2500    -999.2500
   2823.9768       8.8761    -999.2500       0.0090      58.3944      42.4248    -999.2500      24.7959      45.2298      24.5494       0.0961    -999.2500    -999.2500       2.6066    -999.2500    -999.2500
   2824.1292       8.8816    -999.2500       0.0100      60.2501      43.7392    -999.2500      24.9310      39.4932      24.7523       0.1026    -999.2500    -999.2500       2.5646    -999.2500    -999.2500
   2824.2817       8.8894    -999.2500       0.0114      62.1102      44.9569    -999.2500      24.9590      33.8179      24.9193       0.1088    -999.2500    -999.2500       2.5241    -999.2500    -999.2500
   2824.4341       8.9888    -999.2500       0.0234      64.0985      43.2198    -999.2500      22.2057      29.7371      24.1130       0.1034    -999.2500    -999.2500       2.5276    -999.2500    -999.2500
   2824.5864       9.0825    -999.2500       0.0350      66.0095      41.5423    -999.2500      19.5730      25.8359      23.1519       0.0984    -999.2500    -999.2500       2.5314    -999.2500    -999.2500
   2824.7388       8.9725    -999.2500       0.0340      65.7291      41.6438    -999.2500      20.1548      26.7182      18.0806       0.1030    -999.2500    -999.2500       2.5444    -999.2500    -999.2500
   2824.8914       8.8664    -999.2500       0.0329      65.4104      41.7548    -999.2500      20.8100      27.6955      13.6454       0.1075    -999.2500    -999.2500       2.5573    -999.2500    -999.2500
