#------------------------------------------------------------------------------
#
#   Created by  : [OpenWorks] Log Export Utility (LEXP)
#   Created on  : 2016-05-12 17:01:19
#   Project     : CANT971
#   User        : R5K
#   Interpreter : PEP
#
#------------------------------------------------------------------------------
~VERSION INFORMATION
VERS. 2.0 : CWLS Log ASCII Standard - version 2.0
WRAP.  NO : One line per depth step
~WELL INFORMATION
#MNEMONIC   .UNIT                                           VALUE :DESCRIPTION
#------------------------------------------------------------------------------
STRT        .M                                           300.0760 :START DEPTH
STOP        .M                                          2081.9368 :STOP DEPTH
STEP        .M                                             0.1524 :STEP
NULL        .                                           -999.2500 :NULL VALUE
COMP        .                                   PEMEX EXPL & PROD :COMPANY
WELL        .                                                  37 :WELL
FLD         .                                           CANTARELL :FIELD
LOC         .                                             UNKNOWN :LOCATION
CNTY        .                                      CD. DEL CARMEN :COUNTY
STAT        .                                            CAMPECHE :STATE
CTRY        .                                              MEXICO :COUNTRY
SRVC        .                                             UNKNOWN :SERVICE COMPANY
DATE        .                                             UNKNOWN :LOG DATE
UWI         .                                          3060000160 :UNIQUE WELL ID
XCOORD      .                                       602154.560000 :SURFACE X
YCOORD      .                                      2147169.070000 :SURFACE Y
LAT         .                                           19.417364 :LATITUDE
LON         .                                          -92.027009 :LONGITUDE
ELEV        .M                                            28.1700 :SURFACE ELEV
ELEV_TYPE   .                                                  KB :ELEV TYPE
~CURVE INFORMATION
#MNEMONIC.UNIT        API CODE       : CURVE DESCRIPTION
#------------------------------------------------------------------------------
DEPTH    .M                          : Measured Depth
CALI     .inches      UNKNOWN        : CALI:Import:rC:NONE:v0 (auto-composite)
DRHO     .g/cm3       UNKNOWN        : DRHO:Import:rC:NONE:v0 (auto-composite)
DT       .us/ft       UNKNOWN        : DT:Import:rC:NONE:v0 (auto-composite)
GR       .API         UNKNOWN        : GR:Import:rC:NONE:v0 (auto-composite)
ILD      .ohm.m       UNKNOWN        : ILD:Import:rC:NONE:v0 (auto-composite)
NPHI     .v/v_decimal UNKNOWN        : NPHI:Import:rC:NONE:v0 (auto-composite)
RHOB     .g/cm3       UNKNOWN        : RHOB:Import:rC:NONE:v0 (auto-composite)
~A     DEPTH         CALI         DRHO           DT           GR          ILD         NPHI         RHOB
# ...
   1989.8872       6.2430      -0.0190      70.2490      16.9920    1696.4490      12.6220       2.6330
   1990.0396       6.2430      -0.0250      71.1866      18.5920    1704.2871      12.7516       2.6210
   1990.1920       6.2430      -0.0310      72.1230      20.1900    1712.1150      12.8810       2.6090
   1990.3444       6.2430      -0.0230      75.7917      18.8897    1704.1774      12.9811       2.6035
   1990.4968       6.2430      -0.0150      79.4560      17.5910    1696.2490      13.0810       2.5980
   1990.6492       6.2430      -0.0130      79.4045      18.0948    1152.7278      13.1310       2.6070
   1990.8016       6.2430      -0.0110      79.3530      18.5980     609.7760      13.1810       2.6160
   1990.9540       6.2430      -0.0065      76.9204      20.7008     367.6699      13.0408       2.6305
   1991.1064       6.2430      -0.0020      74.4920      22.8000     125.7870      12.9010       2.6450
   1991.2588       6.2430      -0.0055      74.7143      26.1465     115.2408      13.5618       2.6380
   1991.4111       6.2430      -0.0090      74.9360      29.4850     104.7030      14.2210       2.6310
   1991.5636       6.2430      -0.0185      72.8877      28.5845     107.1853      13.5893       2.6095
   1991.7159       6.2430      -0.0280      70.8440      27.6860     109.6640      12.9590       2.5880
   1991.8684       6.2430      -0.0125      66.0904      33.4392     145.9319      12.0075       2.6320
   1992.0208       6.2430       0.0030      61.3470      39.1800     182.1220      11.0580       2.6760
   1992.1732       6.2430       0.0010      57.9326      37.7721     275.5874       9.8458       2.7055
   1992.3256       6.2430      -0.0010      54.5250      36.3670     368.8640       8.6360       2.7350
   1992.4780       6.1910       0.0070      55.0685      30.8217     269.4984       7.2867       2.7585
   1992.6304       6.1390       0.0150      55.6110      25.2870     170.3210       5.9400       2.7820
   1992.7828       6.1910       0.0335      55.4128      25.8390     138.9112       5.7398       2.8090
   1992.9352       6.2430       0.0520      55.2150      26.3900     107.5570       5.5400       2.8360
   1993.0876       6.4236       0.0450      53.3229      27.2402      84.1693       5.5505       2.8335
   1993.2400       6.6040       0.0380      51.4340      28.0890      60.8200       5.5610       2.8310
   1993.3923       6.3713       0.0195      51.5591      28.6905      47.9262       5.6811       2.8050
   1993.5448       6.1390       0.0010      51.6840      29.2910      35.0520       5.8010       2.7790
   1993.6971       6.1390      -0.0000      52.8673      30.7915      30.5889       6.2423       2.7635
   1993.8496       6.1390      -0.0010      54.0490      32.2900      26.1320       6.6830       2.7480
   1994.0020       6.1390       0.0035      54.4933      35.5376      27.3953       7.3134       2.7425
   1994.1544       6.1390       0.0080      54.9370      38.7810      28.6570       7.9430       2.7370
   1994.3068       6.1390       0.0075      56.4464      38.3307      34.1066       9.2963       2.7280
   1994.4592       6.1390       0.0070      57.9540      37.8810      39.5500      10.6480       2.7190
   1994.6116       6.1390       0.0070      61.0761      41.8326      56.3636      12.5462       2.6935
   1994.7640       6.1390       0.0070      64.1950      45.7770      73.1600      14.4410       2.6680
   1994.9164       6.1911       0.0055      64.3937      42.9565      61.9005      13.7757       2.6810
   1995.0688       6.2430       0.0040      64.5920      40.1430      50.6510      13.1120       2.6940
   1995.2212       6.2430       0.0110      62.4214      30.2538      51.6064      11.0631       2.7205
   1995.3735       6.2430       0.0180      60.2560      20.3880      52.5610       9.0190       2.7470
   1995.5260       6.1909       0.0010      58.1191      18.5880      65.6609       8.3693       2.7280
   1995.6783       6.1390      -0.0160      55.9870      16.7920      78.7420       7.7210       2.7090
   1995.8308       6.1395      -0.0030      56.1111      17.6925      72.1235       7.7215       2.7200
   1995.9832       6.1400       0.0100      56.2350      18.5910      65.5190       7.7220       2.7310
   1996.1356       6.1916       0.0080      55.9407      18.1886      66.7562       8.3726       2.7235
   1996.2880       6.2430       0.0060      55.6470      17.7870      67.9910       9.0220       2.7160
   1996.4404       6.2430       0.0020      55.4028      15.8882      82.6492       9.5520       2.6705
   1996.5928       6.2430      -0.0020      55.1590      13.9930      97.2800      10.0810       2.6250
   1996.7452       6.2430       0.0000      55.7275      14.3948      94.2464       9.8308       2.6360
   1996.8976       6.2430       0.0020      56.2950      14.7960      91.2180       9.5810       2.6470
   1997.0500       6.2430      -0.0015      56.2470      16.0445     111.1976       9.8822       2.6370
   1997.2024       6.2430      -0.0050      56.1990      17.2910     131.1450      10.1830       2.6270
   1997.3547       6.2430      -0.0015      57.2108      16.4909     914.3798      10.6729       2.6340
   1997.5072       6.2430       0.0020      58.2210      15.6920    1696.4490      11.1620       2.6410
   1997.6595       6.2430      -0.0025      59.1111      16.8443    1680.9379      11.7329       2.6300
   1997.8120       6.2430      -0.0070      60.0000      17.9950    1665.4480      12.3030       2.6190
   1997.9644       6.2430      -0.0030      59.9064      18.6929    1635.4159      13.0124       2.5975
   1998.1168       6.2430       0.0010      59.8130      19.3900    1605.4210      13.7210       2.5760
   1998.2692       6.2430      -0.0080      60.2863      18.6401    1612.8616      13.2607       2.5870
   1998.4216       6.2430      -0.0170      60.7590      17.8910    1620.2939      12.8010       2.5980
   1998.5740       6.2430      -0.0140      61.1302      17.5907    1627.7546      12.8320       2.6120
   1998.7264       6.2430      -0.0110      61.5010      17.2910    1635.2080      12.8630       2.6260
   1998.8788       6.1909      -0.0195      63.1073      17.3911    1605.6793      14.0435       2.6050
   1999.0311       6.1390      -0.0280      64.7110      17.4910    1576.1760      15.2210       2.5840
   1999.1836       6.1911      -0.0260      66.7043      17.8955    1590.8040      15.2105       2.5545
   1999.3359       6.2430      -0.0240      68.6930      18.2990    1605.4210      15.2000       2.5250
   1999.4884       6.2430      -0.0100      65.4414      20.1986    1590.7882      14.6879       2.5400
   1999.6407       6.2430       0.0040      62.1970      22.0940    1576.1760      14.1770       2.5550
   1999.7932       6.2430      -0.0000      61.0693      24.0946    1644.2164      12.6244       2.5935
   1999.9456       6.2430      -0.0040      59.9440      26.0910    1712.1150      11.0750       2.6320
   2000.0980       6.2430       0.0020      59.7984      27.1896    1644.0789       9.5865       2.6911
   2000.2504       6.2430       0.0080      59.6530      28.2860    1576.1760       8.1010       2.7500
   2000.4028       6.1910      -0.0015      58.6936      28.1859    1576.1295       8.2111       2.7290
   2000.5552       6.1390      -0.0110      57.7360      28.0860    1576.0830       8.3210       2.7080
   2000.7076       6.1910      -0.0105      56.0666      29.6864    1250.1847       8.4816       2.6895
   2000.8600       6.2430      -0.0100      54.4000      31.2840     924.8430       8.6420       2.6710
   2001.0123       6.1910       0.0090      54.4020      31.5862    1236.4462       9.1419       2.6965
   2001.1648       6.1390       0.0280      54.4040      31.8880    1547.5560       9.6410       2.7220
   2001.3171       6.1910       0.0130      54.3805      34.4424    1561.8765       9.3108       2.6895
   2001.4696       6.2430      -0.0020      54.3570      36.9930    1576.1760       8.9810       2.6570
