#------------------------------------------------------------------------------
#
#   Created by  : [OpenWorks] Log Export Utility (LEXP)
#   Created on  : 2016-05-23 11:50:40
#   Project     : CANT971
#   User        : R5K
#   Interpreter : PEP
#
#------------------------------------------------------------------------------
~VERSION INFORMATION
VERS. 2.0 : CWLS Log ASCII Standard - version 2.0
WRAP.  NO : One line per depth step
~WELL INFORMATION
#MNEMONIC   .UNIT                                           VALUE :DESCRIPTION
#------------------------------------------------------------------------------
STRT        .M                                           697.2303 :START DEPTH
STOP        .M                                          3650.8948 :STOP DEPTH
STEP        .M                                             0.1524 :STEP
NULL        .                                           -999.2500 :NULL VALUE
COMP        .                                   PEMEX EXPL & PROD :COMPANY
WELL        .                                                1026 :WELL
FLD         .                                           CANTARELL :FIELD
LOC         .                                             UNKNOWN :LOCATION
CNTY        .                                      CD. DEL CARMEN :COUNTY
STAT        .                                            CAMPECHE :STATE
CTRY        .                                              MEXICO :COUNTRY
SRVC        .                                             UNKNOWN :SERVICE COMPANY
DATE        .                                             UNKNOWN :LOG DATE
UWI         .                                          3060000491 :UNIQUE WELL ID
XCOORD      .                                       596159.330000 :SURFACE X
YCOORD      .                                      2150607.710000 :SURFACE Y
LAT         .                                           19.448735 :LATITUDE
LON         .                                          -92.083932 :LONGITUDE
ELEV        .M                                            30.0000 :SURFACE ELEV
ELEV_TYPE   .                                                  KB :ELEV TYPE
~CURVE INFORMATION
#MNEMONIC.UNIT        API CODE       : CURVE DESCRIPTION
#------------------------------------------------------------------------------
DEPTH    .M                          : Measured Depth
CALI     .inches      UNKNOWN        : CALI:registros:rC:NONE:v0 (auto-composite)
DRHO     .g/cm3       UNKNOWN        : DRHO:registros:rC:NONE:v0 (auto-composite)
DT       .us/ft       UNKNOWN        : DT:registros:rC:NONE:v0 (auto-composite)
GR       .API         UNKNOWN        : GR:registros:rC:NONE:v0 (auto-composite)
ILD      .ohm.m       UNKNOWN        : ILD:registros:rC:NONE:v0 (auto-composite)
ILM      .ohm.m       UNKNOWN        : ILM:registros:rC:NONE:v0 (auto-composite)
LLD      .ohm.m       UNKNOWN        : LLD:registros:rC:NONE:v0 (auto-composite)
LLS      .ohm.m       UNKNOWN        : LLS:registros:rC:NONE:v0 (auto-composite)
MSFL     .ohm.m       UNKNOWN        : MSFL:registros:rC:NONE:v0 (auto-composite)
NPHI     .v/v_decimal UNKNOWN        : NPHI:registros:rC:NONE:v0 (auto-composite)
PEF      .b/elec      UNKNOWN        : PEF:registros:rC:NONE:v0 (auto-composite)
RHOB     .g/cm3       UNKNOWN        : RHOB:registros:rC:NONE:v0 (auto-composite)
~A     DEPTH         CALI         DRHO           DT           GR          ILD          ILM          LLD          LLS         MSFL         NPHI          PEF         RHOB
# ...
   3601.3647       9.5115       0.1005      86.9297      72.3724    -999.2500    -999.2500      10.8610      12.0923       6.9312       0.1446       3.5748       2.6819
   3601.5171       9.5150       0.0920      84.6000      78.5000    -999.2500    -999.2500      10.4280      12.2510       7.1560       0.1554       3.7320       2.7280
   3601.6694       9.5230       0.0695      76.8268      77.2181    -999.2500    -999.2500      10.6208      12.7504       6.7281       0.1707       3.7165       2.7270
   3601.8218       9.5310       0.0470      69.0210      75.9350    -999.2500    -999.2500      10.8140      13.2510       6.2990       0.1835       3.7010       2.7260
   3601.9744       9.5470       0.0590      63.5180      70.0957    -999.2500    -999.2500      10.4300      12.8151       4.4031       0.1865       3.4429       2.7180
   3602.1267       9.5630       0.0710      58.0000      64.2500    -999.2500    -999.2500      10.0450      12.3780       2.5020       0.1823       3.1840       2.7100
   3602.2791       9.6684       0.0680      58.3390      64.7632    -999.2500    -999.2500       8.4937      10.6999       2.6168       0.1734       3.3503       2.7180
   3602.4314       9.7740       0.0650      58.6790      65.2770    -999.2500    -999.2500       6.9380       9.0170       2.7320       0.1602       3.5170       2.7260
   3602.5840      10.2728       0.0550      65.3920      68.8860    -999.2500    -999.2500       7.4867       9.7549       3.9851       0.1431       4.3473       2.7814
   3602.7363      10.7730       0.0450      72.1250      72.5000    -999.2500    -999.2500       8.0370      10.4950       5.2420       0.1309       5.1800       2.8370
   3602.8887      10.5898       0.0345      67.0389      71.2619    -999.2500    -999.2500      10.3679      13.7475       3.4538       0.1327       5.0362       2.8275
   3603.0410      10.4060       0.0240      61.9370      70.0220    -999.2500    -999.2500      12.7060      17.0100       1.6600       0.1383       4.8920       2.8180
   3603.1936       9.9507       0.0075      79.7833      63.1475    -999.2500    -999.2500      14.6683      20.0756       1.8157       0.1374       4.4657       2.7781
   3603.3459       9.4940      -0.0090      97.6870      56.2620    -999.2500    -999.2500      16.6370      23.1510       1.9720       0.1310       4.0380       2.7380
   3603.4983       9.4425      -0.0085      93.1361      45.6013    -999.2500    -999.2500      18.4894      25.9426       3.1435       0.1202       3.8039       2.6970
   3603.6506       9.3910      -0.0080      88.5700      34.9220    -999.2500    -999.2500      20.3450      28.7390       4.3170       0.1083       3.5690       2.6560
   3603.8030       9.3910      -0.0065      76.0882      31.1265    -999.2500    -999.2500      28.9665      40.6045      10.9104       0.0985       3.3953       2.6610
   3603.9556       9.3910      -0.0050      63.5630      27.3240    -999.2500    -999.2500      37.6040      52.4920      17.5160       0.0909       3.2210       2.6660
   3604.1079       9.4000      -0.0000      76.4459      24.7740    -999.2500    -999.2500      61.6501      75.6585      15.8142       0.0855       3.3244       2.6630
   3604.2603       9.4090       0.0050      89.3750      22.2190    -999.2500    -999.2500      85.7440      98.8710      14.1090       0.0807       3.4280       2.6600
   3604.4126       9.4430       0.0050      87.3248      23.5752    -999.2500    -999.2500      85.3634     109.5777      14.5385       0.0751       3.3361       2.6530
   3604.5652       9.4770       0.0050      85.2670      24.9320    -999.2500    -999.2500      84.9820     120.3070      14.9690       0.0710       3.2440       2.6460
   3604.7175       9.5040       0.0055      80.4797      30.2048    -999.2500    -999.2500      82.6381     117.6730      14.9525       0.0706       3.2570       2.6390
   3604.8699       9.5310       0.0060      75.6740      35.4810    -999.2500    -999.2500      80.2890     115.0330      14.9360       0.0734       3.2700       2.6320
   3605.0222       9.5525       0.0135      67.8525      41.9460    -999.2500    -999.2500      76.5489     107.3286      13.3838       0.0789       3.2570       2.6320
   3605.1748       9.5740       0.0210      60.0000      48.4160    -999.2500    -999.2500      72.8000      99.6060      11.8280       0.0825       3.2440       2.6320
   3605.3271       9.6584       0.0390      61.3492      55.2984    -999.2500    -999.2500      70.5034      93.0711      12.0557       0.0795       3.3853       2.6455
   3605.4795       9.7430       0.0570      62.7040      62.1870    -999.2500    -999.2500      68.2010      86.5200      12.2840       0.0748       3.5270       2.6590
   3605.6318       9.8294       0.0780      66.4690      61.3789    -999.2500    -999.2500      65.2823      81.2079      12.9666       0.0737       3.4226       2.7354
   3605.7842       9.9160       0.0990      70.2500      60.5700    -999.2500    -999.2500      62.3560      75.8820      13.6510       0.0754       3.3180       2.8120
   3605.9368       9.9280       0.0980      65.5999      57.1514    -999.2500    -999.2500      57.9466      70.7660      15.3936       0.0795       3.3554       2.8115
   3606.0891       9.9400       0.0970      60.9370      53.7290    -999.2500    -999.2500      53.5250      65.6360      17.1410       0.0902       3.3930       2.8110
   3606.2415       9.9894       0.0795      61.0723      44.2455    -999.2500    -999.2500      43.4844      54.0811      16.2458       0.1116       3.3775       2.7296
   3606.3938      10.0390       0.0620      61.2080      34.7500    -999.2500    -999.2500      33.4150      42.4930      15.3480       0.1453       3.3620       2.6480
   3606.5464      10.4763       0.0720      61.5290      36.5962    -999.2500    -999.2500      25.9712      32.6567      10.9716       0.1930       3.3126       2.4338
   3606.6987      10.9150       0.0820      61.8510      38.4450    -999.2500    -999.2500      18.5050      22.7910       6.5820       0.2329       3.2630       2.2190
   3606.8511      12.1002       0.1169      69.1955      45.7694    -999.2500    -999.2500      15.4323      18.8017       3.4913       0.2429       3.1327       2.1311
   3607.0034      13.2890       0.1520      76.5630      53.1050    -999.2500    -999.2500      12.3500      14.8000       0.3910       0.2412       3.0020       2.0430
   3607.1560      12.9765       0.1450      75.1708      62.3459    -999.2500    -999.2500       9.3324      11.0606       0.4544       0.2465       3.0185       2.0675
   3607.3083      12.6630       0.1380      73.7740      71.6020    -999.2500    -999.2500       6.3050       7.3090       0.5180       0.2597       3.0350       2.0920
   3607.4607      11.9296       0.1140      65.9317      76.9058    -999.2500    -999.2500       4.4611       5.3697       0.4516       0.2818       3.0734       2.2219
   3607.6130      11.1950       0.0900      58.0630      82.2190    -999.2500    -999.2500       2.6140       3.4270       0.3850       0.2996       3.1120       2.3520
   3607.7654      11.2330       0.0635      60.2102      88.6554    -999.2500    -999.2500       2.6140       3.0823       0.4210       0.2999       3.1370       2.3445
   3607.9180      11.2710       0.0370      62.3650      95.1040    -999.2500    -999.2500       2.6140       2.7370       0.4570       0.2937       3.1620       2.3370
   3608.0703      11.4009       0.0220      76.4071     110.1918    -999.2500    -999.2500       2.6295       2.7405       0.4395       0.2924       3.2809       2.3390
   3608.2227      11.5310       0.0070      90.5000     125.3100    -999.2500    -999.2500       2.6450       2.7440       0.4220       0.2943       3.4000       2.3410
   3608.3750      11.8861       0.0090      79.6139     134.3705    -999.2500    -999.2500       2.8253       2.8359       0.3870       0.2975       3.3895       2.3635
   3608.5276      12.2420       0.0110      68.6870     143.4360    -999.2500    -999.2500       3.0060       2.9280       0.3520       0.2997       3.3790       2.3860
