#------------------------------------------------------------------------------
#
#   Created by  : [OpenWorks] Log Export Utility (LEXP)
#   Created on  : 2016-05-23 11:52:56
#   Project     : CANT971
#   User        : R5K
#   Interpreter : PEP
#
#------------------------------------------------------------------------------
~VERSION INFORMATION
VERS. 2.0 : CWLS Log ASCII Standard - version 2.0
WRAP.  NO : One line per depth step
~WELL INFORMATION
#MNEMONIC   .UNIT                                           VALUE :DESCRIPTION
#------------------------------------------------------------------------------
STRT        .M                                           340.6189 :START DEPTH
STOP        .M                                          3243.0769 :STOP DEPTH
STEP        .M                                             0.1524 :STEP
NULL        .                                           -999.2500 :NULL VALUE
COMP        .                                   PEMEX EXPL & PROD :COMPANY
WELL        .                                                2098 :WELL
FLD         .                                           CANTARELL :FIELD
LOC         .                                             UNKNOWN :LOCATION
CNTY        .                                      CD. DEL CARMEN :COUNTY
STAT        .                                            CAMPECHE :STATE
CTRY        .                                              MEXICO :COUNTRY
SRVC        .                                             UNKNOWN :SERVICE COMPANY
DATE        .                                             UNKNOWN :LOG DATE
UWI         .                                          3060000229 :UNIQUE WELL ID
XCOORD      .                                       599692.800000 :SURFACE X
YCOORD      .                                      2143031.510000 :SURFACE Y
LAT         .                                           19.380099 :LATITUDE
LON         .                                          -92.050671 :LONGITUDE
ELEV        .M                                            26.7400 :SURFACE ELEV
ELEV_TYPE   .                                                  KB :ELEV TYPE
~CURVE INFORMATION
#MNEMONIC.UNIT        API CODE       : CURVE DESCRIPTION
#------------------------------------------------------------------------------
DEPTH    .M                          : Measured Depth
CALI     .inches      UNKNOWN        : CALI:litodensidad:rC:NONE:v0 (auto-composite)
CGR      .API         UNKNOWN        : CGR:Espectrometria:rC:NONE:v0 (auto-composite)
DRHO     .g/cm3       UNKNOWN        : DRHO:litodensidad:rC:NONE:v0 (auto-composite)
DT       .us/ft       UNKNOWN        : DT:DT-Load:rC:NONE:v0 (auto-composite)
GR       .API         UNKNOWN        : GR:GR-load:rC:NONE:v0 (auto-composite)
ILD      .UNKNOWN     UNKNOWN        : ILD:resistivos:rC:NONE:v0 (auto-composite)
LLD      .ohm.m       UNKNOWN        : LLD:resistivos:rC:NONE:v0 (auto-composite)
LLS      .UNKNOWN     UNKNOWN        : LLS:resistivos:rC:NONE:v0 (auto-composite)
MSFL     .UNKNOWN     UNKNOWN        : MSFL:resistivos:rC:NONE:v0 (auto-composite)
NPHI     .v/v_decimal UNKNOWN        : NPHI:porosidad:rC:NONE:v0 (auto-composite)
PEF      .UNKNOWN     UNKNOWN        : PEF:litodensidad:rC:NONE:v0 (auto-composite)
POTA     .UNKNOWN     UNKNOWN        : POTA:Espectrometria:rC:NONE:v0 (auto-composite)
RHOB     .UNKNOWN     UNKNOWN        : RHOB:litodensidad:rC:NONE:v0 (auto-composite)
THOR     .ppm         UNKNOWN        : THOR:Espectrometria:rC:NONE:v0 (auto-composite)
URAN     .ppm         UNKNOWN        : URAN:Espectrometria:rC:NONE:v0 (auto-composite)
~A     DEPTH         CALI          CGR         DRHO           DT           GR          ILD          LLD          LLS         MSFL         NPHI          PEF         POTA         RHOB         THOR         URAN
# ...
   2914.1978       8.8000    -999.2500      -0.0578      76.0816      12.1979    -999.2500      10.5556      12.3373       0.9523       0.0864    -999.2500    -999.2500       2.4564    -999.2500    -999.2500
   2914.3501       8.8000    -999.2500      -0.0523      75.4314      12.7741    -999.2500       9.6530      11.5316       2.8456       0.0834    -999.2500    -999.2500       2.4694    -999.2500    -999.2500
   2914.5024       8.8002    -999.2500      -0.0467      74.7404      13.3599    -999.2500       8.7909      10.7597       5.0164       0.0803    -999.2500    -999.2500       2.4826    -999.2500    -999.2500
   2914.6548       8.8082    -999.2500      -0.0382      72.9292      14.2217    -999.2500       8.9770      10.8603      14.3399       0.0747    -999.2500    -999.2500       2.5006    -999.2500    -999.2500
   2914.8074       8.8186    -999.2500      -0.0297      71.0500      15.0737    -999.2500       9.2034      10.9940      23.7808       0.0688    -999.2500    -999.2500       2.5203    -999.2500    -999.2500
   2914.9597       8.9351    -999.2500      -0.0207      67.2551      15.6484    -999.2500      10.4498      11.9686      36.3184       0.0575    -999.2500    -999.2500       2.5893    -999.2500    -999.2500
   2915.1121       9.0468    -999.2500      -0.0116      63.4923      16.2264    -999.2500      11.7645      13.0269      48.9739       0.0463    -999.2500    -999.2500       2.6560    -999.2500    -999.2500
   2915.2644       8.9956    -999.2500       0.0004      60.6150      16.8961    -999.2500      14.8476      16.2566      64.6752       0.0381    -999.2500    -999.2500       2.6560    -999.2500    -999.2500
   2915.4167       8.9461    -999.2500       0.0119      57.8044      17.5333    -999.2500      17.9348      19.4981      82.1272       0.0300    -999.2500    -999.2500       2.6555    -999.2500    -999.2500
   2915.5693       8.9491    -999.2500       0.0094      56.8791      17.2494    -999.2500      21.1255      23.0396     145.9318       0.0275    -999.2500    -999.2500       2.6415    -999.2500    -999.2500
   2915.7217       8.9525    -999.2500       0.0067      55.9416      16.9315    -999.2500      24.4838      26.6722     206.7641       0.0250    -999.2500    -999.2500       2.6280    -999.2500    -999.2500
   2915.8740       8.9767    -999.2500      -0.0013      54.6681      15.6261    -999.2500      32.2067      32.6759     190.5285       0.0215    -999.2500    -999.2500       2.6285    -999.2500    -999.2500
   2916.0264       8.9991    -999.2500      -0.0086      53.4423      14.3049    -999.2500      40.6928      39.3762     173.4216       0.0181    -999.2500    -999.2500       2.6294    -999.2500    -999.2500
   2916.1790       8.9559    -999.2500       0.0034      53.5689      12.5402    -999.2500      68.6308      63.8287     133.1652       0.0149    -999.2500    -999.2500       2.6424    -999.2500    -999.2500
   2916.3313       8.9141    -999.2500       0.0150      53.7082      10.8377    -999.2500      96.7612      89.5909      94.7203       0.0119    -999.2500    -999.2500       2.6550    -999.2500    -999.2500
   2916.4836       8.9176    -999.2500       0.0145      54.2035      10.9508    -999.2500     129.9150     149.5406     103.3990       0.0120    -999.2500    -999.2500       2.6550    -999.2500    -999.2500
   2916.6360       8.9216    -999.2500       0.0135      54.6770      11.0729    -999.2500     161.8146     211.7180     118.0503       0.0122    -999.2500    -999.2500       2.6542    -999.2500    -999.2500
   2916.7886       8.9467    -999.2500       0.0005      54.5294      11.4538    -999.2500     161.6447     330.8538     284.8941       0.0128    -999.2500    -999.2500       2.6302    -999.2500    -999.2500
   2916.9409       8.9708    -999.2500      -0.0120      54.3500      11.8276    -999.2500     161.0899     444.7692     445.1334       0.0134    -999.2500    -999.2500       2.6071    -999.2500    -999.2500
   2917.0933       8.9597    -999.2500      -0.0115      53.2821      11.9961    -999.2500     150.4559     421.9633     433.0029       0.0142    -999.2500    -999.2500       2.6106    -999.2500    -999.2500
   2917.2456       8.9473    -999.2500      -0.0110      52.2582      12.1738    -999.2500     139.0678     396.3734     417.7124       0.0149    -999.2500    -999.2500       2.6144    -999.2500    -999.2500
   2917.3979       8.8725    -999.2500      -0.0100      52.4336      12.6132    -999.2500     108.3325     299.3696     321.6392       0.0153    -999.2500    -999.2500       2.6254    -999.2500    -999.2500
   2917.5505       8.8006    -999.2500      -0.0089      52.6274      13.0867    -999.2500      77.7768     203.3209     225.4463       0.0158    -999.2500    -999.2500       2.6365    -999.2500    -999.2500
   2917.7029       8.8293    -999.2500      -0.0059      53.3326      14.5642    -999.2500      51.9397     132.3706     126.1184       0.0161    -999.2500    -999.2500       2.6510    -999.2500    -999.2500
   2917.8552       8.8569    -999.2500      -0.0032      54.0323      16.0485    -999.2500      27.1831      63.6183      31.1041       0.0166    -999.2500    -999.2500       2.6648    -999.2500    -999.2500
   2918.0076       8.8534    -999.2500      -0.0087      54.5785      17.7272    -999.2500      30.2337      51.4348      46.7224       0.0188    -999.2500    -999.2500       2.6588    -999.2500    -999.2500
   2918.1602       8.8482    -999.2500      -0.0140      55.1293      19.3826    -999.2500      33.1152      39.6086      61.3829       0.0212    -999.2500    -999.2500       2.6521    -999.2500    -999.2500
   2918.3125       8.7678    -999.2500      -0.0135      55.8055      20.3892    -999.2500      31.7313      36.7918      50.8816       0.0278    -999.2500    -999.2500       2.6256    -999.2500    -999.2500
   2918.4648       8.6908    -999.2500      -0.0130      56.5608      21.4244    -999.2500      30.0583      33.9645      40.1164       0.0345    -999.2500    -999.2500       2.5990    -999.2500    -999.2500
   2918.6172       8.7239    -999.2500      -0.0120      59.4830      23.2831    -999.2500      20.9204      30.8669      22.5634       0.0455    -999.2500    -999.2500       2.5700    -999.2500    -999.2500
   2918.7698       8.7583    -999.2500      -0.0109      62.4569      25.1332    -999.2500      12.1353      27.7030       5.7565       0.0560    -999.2500    -999.2500       2.5409    -999.2500    -999.2500
   2918.9221       8.8623    -999.2500      -0.0079      66.8845      26.7410    -999.2500      12.2737      22.8646       8.6166       0.0559    -999.2500    -999.2500       2.5079    -999.2500    -999.2500
   2919.0745       8.9638    -999.2500      -0.0046      71.1453      28.3328    -999.2500      12.4354      18.2257      17.2083       0.0557    -999.2500    -999.2500       2.4764    -999.2500    -999.2500
   2919.2268       8.9974    -999.2500       0.0054      70.8104      29.4643    -999.2500      13.1987      18.7549     173.7685       0.0537    -999.2500    -999.2500       2.4879    -999.2500    -999.2500
   2919.3792       9.0289    -999.2500       0.0147      70.4082      30.5465    -999.2500      14.1334      19.5181     323.7285       0.0515    -999.2500    -999.2500       2.5006    -999.2500    -999.2500
   2919.5317       8.9776    -999.2500       0.0057      68.1028      30.2391    -999.2500      19.4191      26.2202     299.1214       0.0433    -999.2500    -999.2500       2.5481    -999.2500    -999.2500
   2919.6841       8.9284    -999.2500      -0.0030      65.7203      29.9019    -999.2500      26.9194      35.5519     280.7195       0.0349    -999.2500    -999.2500       2.5954    -999.2500    -999.2500
   2919.8364       8.9455    -999.2500      -0.0025      61.2042      28.6979    -999.2500      91.9786     113.2282     423.0394       0.0225    -999.2500    -999.2500       2.6374    -999.2500    -999.2500
   2919.9888       8.9619    -999.2500      -0.0018      56.7755      27.5409    -999.2500     154.5132     187.9534     559.3019       0.0105    -999.2500    -999.2500       2.6783    -999.2500    -999.2500
