#------------------------------------------------------------------------------
#
#   Created by  : [OpenWorks] Log Export Utility (LEXP)
#   Created on  : 2016-05-12 17:01:14
#   Project     : CANT971
#   User        : R5K
#   Interpreter : PEP
#
#------------------------------------------------------------------------------
~VERSION INFORMATION
VERS. 2.0 : CWLS Log ASCII Standard - version 2.0
WRAP.  NO : One line per depth step
~WELL INFORMATION
#MNEMONIC   .UNIT                                           VALUE :DESCRIPTION
#------------------------------------------------------------------------------
STRT        .M                                          1708.0991 :START DEPTH
STOP        .M                                          2834.0303 :STOP DEPTH
STEP        .M                                             0.1524 :STEP
NULL        .                                           -999.2500 :NULL VALUE
COMP        .                                             UNKNOWN :COMPANY
WELL        .                                                3016 :WELL
FLD         .                                           CANTARELL :FIELD
LOC         .                                             UNKNOWN :LOCATION
CNTY        .                                             UNKNOWN :COUNTY
STAT        .                                            CAMPECHE :STATE
CTRY        .                                              MEXICO :COUNTRY
SRVC        .                                             UNKNOWN :SERVICE COMPANY
DATE        .                                             UNKNOWN :LOG DATE
UWI         .                                                3016 :UNIQUE WELL ID
XCOORD      .                                       192548.498000 :SURFACE X
YCOORD      .                                        92151.948000 :SURFACE Y
LAT         .                                            0.832805 :LATITUDE
LON         .                                          -95.762171 :LONGITUDE
ELEV        .M                                            46.0000 :SURFACE ELEV
ELEV_TYPE   .                                                  KB :ELEV TYPE
~CURVE INFORMATION
#MNEMONIC.UNIT        API CODE       : CURVE DESCRIPTION
#------------------------------------------------------------------------------
DEPTH    .M                          : Measured Depth
CALI     .inches      UNKNOWN        : CALI:litodensidad:rC:NONE:v0 (auto-composite)
CGR      .API         UNKNOWN        : CGR:Espectrometria:rC:NONE:v0 (auto-composite)
DRHO     .g/cm3       UNKNOWN        : DRHO:litodensidad:rC:NONE:v0 (auto-composite)
DT       .us/ft       UNKNOWN        : DT:DT-Load:rC:NONE:v0 (auto-composite)
GR       .API         UNKNOWN        : GR:PETROWORKS:rC:NONE:v1 
GR-LWD   .API         UNKNOWN        : GR-LWD:PETROWORKS:rC:NONE:v1 
ILD-LWD  .ohm.m       UNKNOWN        : ILD-LWD:PETROWORKS:rC:NONE:v1 
ILM-LWD  .ohm.m       UNKNOWN        : ILM-LWD:PETROWORKS:rC:NONE:v1 
LLD      .ohm.m       UNKNOWN        : LLD:Resistivos:rC:NONE:v0 (auto-composite)
LLS      .ohm.m       UNKNOWN        : LLS:Resistivos:rC:NONE:v0 (auto-composite)
MSFL     .ohm.m       UNKNOWN        : MSFL:Resistivos:rC:NONE:v0 (auto-composite)
NPHI     .v/v_decimal UNKNOWN        : NPHI:Porosidad:rC:NONE:v0 (auto-composite)
PEF      .UNKNOWN     UNKNOWN        : PEF:litodensidad:rC:NONE:v0 (auto-composite)
POTA     .wtpercent   UNKNOWN        : POTA:Espectrometria:rC:NONE:v0 (auto-composite)
RHOB     .g/cm3       UNKNOWN        : RHOB:litodensidad:rC:NONE:v0 (auto-composite)
SP       .mV          UNKNOWN        : SP:SP-Load:rC:NONE:v0 (auto-composite)
THOR     .ppm         UNKNOWN        : THOR:Espectrometria:rC:NONE:v0 (auto-composite)
URAN     .ppm         UNKNOWN        : URAN:Espectrometria:rC:NONE:v0 (auto-composite)
~A     DEPTH         CALI          CGR         DRHO           DT           GR       GR-LWD      ILD-LWD      ILM-LWD          LLD          LLS         MSFL         NPHI          PEF         POTA         RHOB           SP         THOR         URAN
# ...
   2432.3040    -999.2500       2.6398    -999.2500    -999.2500       5.6833       5.4138    1971.9032    1717.9962    -999.2500    -999.2500    -999.2500       0.0891    -999.2500       0.0006    -999.2500    -251.3750       0.4757       0.3757
   2432.4563    -999.2500       3.1081    -999.2500    -999.2500       5.9931       5.3115    2000.0000    1156.8794    -999.2500    -999.2500    -999.2500       0.0881    -999.2500       0.0008    -999.2500    -252.5625       0.5221       0.3183
   2432.6086    -999.2500       2.3409    -999.2500    -999.2500       5.1953       5.0320    2000.0000    1322.3778    -999.2500    -999.2500    -999.2500       0.0999    -999.2500       0.0007    -999.2500    -246.5000       0.3578       0.2846
   2432.7612    -999.2500       2.5308    -999.2500    -999.2500       5.5427       5.8076     508.4629     827.9539    -999.2500    -999.2500    -999.2500       0.0992    -999.2500       0.0007    -999.2500    -247.4375       0.3852       0.2904
   2432.9136    -999.2500       2.1467    -999.2500    -999.2500       4.8750       5.8012    1965.2103    1515.3602    -999.2500    -999.2500    -999.2500       0.0970    -999.2500       0.0005    -999.2500    -252.0625       0.3750       0.2455
   2433.0659    -999.2500       2.1074    -999.2500    -999.2500       4.8933       5.7135    2000.0000    1372.0917    -999.2500    -999.2500    -999.2500       0.0836    -999.2500       0.0006    -999.2500    -256.1250       0.3171       0.2466
   2433.2183    -999.2500       1.8718    -999.2500    -999.2500       4.7934       4.8315    1764.2329     951.8104    -999.2500    -999.2500    -999.2500       0.0787    -999.2500       0.0004    -999.2500    -257.0000       0.3491       0.2334
   2433.3706    -999.2500       1.8352    -999.2500    -999.2500       5.1352       4.7730    1640.6594     894.0760    -999.2500    -999.2500    -999.2500       0.0790    -999.2500       0.0003    -999.2500    -257.5000       0.4342       0.2898
   2433.5232    -999.2500       1.2122    -999.2500    -999.2500       5.9199       4.8572     542.6973     766.0269    -999.2500    -999.2500    -999.2500       0.0845    -999.2500       0.0002    -999.2500    -257.1250       0.2966       0.4664
   2433.6755    -999.2500       0.8434    -999.2500    -999.2500       5.6740       4.9448    1964.2528     959.6080    -999.2500    -999.2500    -999.2500       0.0844    -999.2500       0.0000    -999.2500    -254.2500       0.2567       0.5260
   2433.8279    -999.2500       0.5758    -999.2500    -999.2500       5.7594       5.1062    1817.2944     950.3487    -999.2500    -999.2500    -999.2500       0.0885    -999.2500      -0.0001    -999.2500    -251.0625       0.2275       0.5732
   2433.9802    -999.2500       0.5145    -999.2500    -999.2500       5.8644       5.1675    1995.6196    1239.5381    -999.2500    -999.2500    -999.2500       0.0816    -999.2500      -0.0000    -999.2500    -247.9375       0.1931       0.5943
   2434.1328    -999.2500       0.4339    -999.2500    -999.2500       6.3433       5.3073     883.8008     578.0170    -999.2500    -999.2500    -999.2500       0.0796    -999.2500      -0.0001    -999.2500    -247.2500       0.1753       0.6902
   2434.2852    -999.2500       0.3344    -999.2500    -999.2500       7.1726       5.3492    1974.1029     947.9777    -999.2500    -999.2500    -999.2500       0.0724    -999.2500      -0.0001    -999.2500    -247.2500       0.1378       0.8331
   2434.4375    -999.2500      -0.0593    -999.2500    -999.2500       7.3923       5.9293    1032.0065     671.8953    -999.2500    -999.2500    -999.2500       0.0733    -999.2500      -0.0002    -999.2500    -245.6875       0.1024       0.9339
   2434.5898    -999.2500      -0.3757    -999.2500    -999.2500       7.9617       6.5400    1976.6655     836.3883    -999.2500    -999.2500    -999.2500       0.0700    -999.2500      -0.0002    -999.2500    -244.5000      -0.0092       1.0802
   2434.7424    -999.2500       0.2857    -999.2500    -999.2500       8.9653       7.4535    1245.5000     772.9164    -999.2500    -999.2500    -999.2500       0.0689    -999.2500       0.0000    -999.2500    -245.1875       0.0829       1.1488
   2434.8948    -999.2500       0.8891    -999.2500    -999.2500       9.3895       7.6275     465.8030     611.5014    -999.2500    -999.2500    -999.2500       0.0733    -999.2500       0.0002    -999.2500    -246.0000       0.1953       1.1483
   2435.0471    -999.2500       0.3567    -999.2500    -999.2500       9.3551       7.7062    1470.0347     786.6426    -999.2500    -999.2500    -999.2500       0.0793    -999.2500       0.0001    -999.2500    -247.1875       0.0552       1.2106
   2435.1995    -999.2500       1.8090    -999.2500    -999.2500       9.0975       8.1440     499.0578     590.3820    -999.2500    -999.2500    -999.2500       0.0835    -999.2500       0.0006    -999.2500    -249.0000       0.2274       0.9581
   2435.3518    -999.2500       2.4138    -999.2500    -999.2500       9.2509       8.6044     717.7003     566.7951    -999.2500    -999.2500    -999.2500       0.0747    -999.2500       0.0010    -999.2500    -251.1250       0.1926       0.8631
   2435.5044    -999.2500       3.3165    -999.2500    -999.2500      11.1457       9.1818    1435.5911     726.5740    -999.2500    -999.2500    -999.2500       0.0787    -999.2500       0.0013    -999.2500    -251.6250       0.3163       1.0360
   2435.6567    -999.2500       3.8573    -999.2500    -999.2500      12.5871       9.9389     633.0635     511.8382    -999.2500    -999.2500    -999.2500       0.0809    -999.2500       0.0014    -999.2500    -251.5000       0.4425       1.1468
   2435.8091    -999.2500       4.7314    -999.2500    -999.2500      15.1940      11.7168     517.5048     420.3306    -999.2500    -999.2500    -999.2500       0.0857    -999.2500       0.0016    -999.2500    -252.3750       0.5944       1.4220
   2435.9614    -999.2500       5.5551    -999.2500    -999.2500      14.8869      15.1004     662.6016     505.3049    -999.2500    -999.2500    -999.2500       0.0844    -999.2500       0.0015    -999.2500    -253.3125       0.9057       1.2681
   2436.1140    -999.2500       5.9540    -999.2500    -999.2500      14.5732      18.4988     313.7567     344.5067    -999.2500    -999.2500    -999.2500       0.0872    -999.2500       0.0016    -999.2500    -252.8125       0.9915       1.1658
   2436.2664    -999.2500       5.6628    -999.2500    -999.2500      11.7117      20.4681     751.0978     521.1532    -999.2500    -999.2500    -999.2500       0.0893    -999.2500       0.0015    -999.2500    -252.3125       0.9575       0.8113
   2436.4187    -999.2500       5.0256    -999.2500    -999.2500      10.0891      20.8444     811.3702     560.3242    -999.2500    -999.2500    -999.2500       0.0897    -999.2500       0.0013    -999.2500    -252.3125       0.8713       0.6580
   2436.5710    -999.2500       3.6868    -999.2500    -999.2500       7.5122      19.5888     685.9839     500.2703    -999.2500    -999.2500    -999.2500       0.0939    -999.2500       0.0010    -999.2500    -248.7500       0.5810       0.4785
   2436.7236    -999.2500       4.8218    -999.2500    -999.2500       7.4578      16.9426     536.0458     676.3480    -999.2500    -999.2500    -999.2500       0.1014    -999.2500       0.0012    -999.2500    -243.6250       0.8267       0.3232
   2436.8760    -999.2500       4.1055    -999.2500    -999.2500       7.0990      13.1016     779.3669     594.1251    -999.2500    -999.2500    -999.2500       0.1070    -999.2500       0.0010    -999.2500    -243.5625       0.7393       0.3944
   2437.0283    -999.2500       4.7393    -999.2500    -999.2500       7.9391       9.9355     854.6518     599.8080    -999.2500    -999.2500    -999.2500       0.1048    -999.2500       0.0009    -999.2500    -241.4375       0.9789       0.4529
   2437.1807    -999.2500       4.5692    -999.2500    -999.2500       7.2399       8.2389     710.5047     559.8068    -999.2500    -999.2500    -999.2500       0.1104    -999.2500       0.0009    -999.2500    -240.3125       0.9192       0.3362
