#------------------------------------------------------------------------------
#
#   Created by  : [OpenWorks] Log Export Utility (LEXP)
#   Created on  : 2016-05-12 17:01:19
#   Project     : CANT971
#   User        : R5K
#   Interpreter : PEP
#
#------------------------------------------------------------------------------
~VERSION INFORMATION
VERS. 2.0 : CWLS Log ASCII Standard - version 2.0
WRAP.  NO : One line per depth step
~WELL INFORMATION
#MNEMONIC   .UNIT                                           VALUE :DESCRIPTION
#------------------------------------------------------------------------------
STRT        .M                                           335.5854 :START DEPTH
STOP        .M                                          2510.4858 :STOP DEPTH
STEP        .M                                             0.1524 :STEP
NULL        .                                           -999.2500 :NULL VALUE
COMP        .                                   PEMEX EXPL & PROD :COMPANY
WELL        .                                                  35 :WELL
FLD         .                                           CANTARELL :FIELD
LOC         .                                             UNKNOWN :LOCATION
CNTY        .                                      CD. DEL CARMEN :COUNTY
STAT        .                                            CAMPECHE :STATE
CTRY        .                                              MEXICO :COUNTRY
SRVC        .                                             UNKNOWN :SERVICE COMPANY
DATE        .                                             UNKNOWN :LOG DATE
UWI         .                                          3060000159 :UNIQUE WELL ID
XCOORD      .                                       602147.900000 :SURFACE X
YCOORD      .                                      2147168.470000 :SURFACE Y
LAT         .                                           19.417359 :LATITUDE
LON         .                                          -92.027072 :LONGITUDE
ELEV        .M                                            28.1700 :SURFACE ELEV
ELEV_TYPE   .                                                  KB :ELEV TYPE
~CURVE INFORMATION
#MNEMONIC.UNIT        API CODE       : CURVE DESCRIPTION
#------------------------------------------------------------------------------
DEPTH    .M                          : Measured Depth
CALI     .inches      UNKNOWN        : CALI:Import:rC:NONE:v0 (auto-composite)
DRHO     .g/cm3       UNKNOWN        : DRHO:Import:rC:NONE:v0 (auto-composite)
DT       .us/ft       UNKNOWN        : DT:Import:rC:NONE:v0 (auto-composite)
GR       .API         UNKNOWN        : GR:Import:rC:NONE:v0 (auto-composite)
ILD      .ohm.m       UNKNOWN        : ILD:Import:rC:NONE:v0 (auto-composite)
LLD      .ohm.m       UNKNOWN        : LLD:Import:rC:NONE:v0 (auto-composite)
LLS      .ohm.m       UNKNOWN        : LLS:Import:rC:NONE:v0 (auto-composite)
MSFL     .ohm.m       UNKNOWN        : MSFL:Import:rC:NONE:v0 (auto-composite)
NPHI     .v/v_decimal UNKNOWN        : NPHI:Import:rC:NONE:v0 (auto-composite)
RHOB     .g/cm3       UNKNOWN        : RHOB:Import:rC:NONE:v0 (auto-composite)
SP       .mV          UNKNOWN        : SP:Import:rC:NONE:v0 (auto-composite)
~A     DEPTH         CALI         DRHO           DT           GR          ILD          LLD          LLS         MSFL         NPHI         RHOB           SP
# ...
   2499.0559       4.8000   -1998.5000      48.5340      46.3010    -999.2500      23.7600      13.9400       6.7000    -999.2500    -999.2500    -999.2500
   2499.2083       4.8000   -1998.5000      49.7469      46.3559    -999.2500      23.9211      13.9400       6.6698    -999.2500    -999.2500    -999.2500
   2499.3606       4.8000   -1998.5000      50.9430      46.4100    -999.2500      24.0800      13.9400       6.6400    -999.2500    -999.2500    -999.2500
   2499.5129       4.8000   -1998.5000      51.6353      46.4100    -999.2500      24.0357      13.9319       6.6702    -999.2500    -999.2500    -999.2500
   2499.6653       4.8000   -1998.5000      52.3180      46.4100    -999.2500      23.9920      13.9240       6.7000    -999.2500    -999.2500    -999.2500
   2499.8179       4.8000   -1998.5000      54.5253      46.4100    -999.2500      12.0048       7.0094       3.4251    -999.2500    -999.2500    -999.2500
   2499.9702       4.8000   -1998.5000      56.6990      46.4100    -999.2500       0.2000       0.2000       0.2000    -999.2500    -999.2500    -999.2500
   2500.1226       4.8000   -1998.5000      60.2961      46.4100    -999.2500       0.2000       0.2000       0.2000    -999.2500    -999.2500    -999.2500
   2500.2749       4.8000   -1998.5000      63.8390      46.4100    -999.2500       0.2000       0.2000       0.2000    -999.2500    -999.2500    -999.2500
   2500.4275       4.8000   -1998.5000      64.1332      46.4100    -999.2500       0.2000       0.2000       0.2000    -999.2500    -999.2500    -999.2500
   2500.5798       4.8000   -1998.5000      64.4230      46.4100    -999.2500       0.2000       0.2000       0.2000    -999.2500    -999.2500    -999.2500
   2500.7322       4.7849   -1998.5000      64.4316      46.4100    -999.2500       0.2000       0.2000       0.2000    -999.2500    -999.2500    -999.2500
   2500.8845       4.7700   -1998.5000      64.4400      46.4100    -999.2500       0.2000       0.2000       0.2000    -999.2500    -999.2500    -999.2500
   2501.0371       4.7740   -1998.5000      64.4299      46.4100    -999.2500       0.2000       0.2000       0.2000    -999.2500    -999.2500    -999.2500
   2501.1895       4.7780   -1998.5000      64.4200      46.4100    -999.2500       0.2000       0.2000       0.2000    -999.2500    -999.2500    -999.2500
   2501.3418       4.7891   -1998.5000      64.4215      46.4100    -999.2500       0.2000       0.2000       0.2000    -999.2500    -999.2500    -999.2500
   2501.4941       4.8000   -1998.5000      64.4230      46.4100    -999.2500       0.2000       0.2000       0.2000    -999.2500    -999.2500    -999.2500
   2501.6465       4.8000   -1998.5000      64.4316      46.4100    -999.2500       0.2000       0.2000       0.2000    -999.2500    -999.2500    -999.2500
   2501.7991       4.8000   -1998.5000      64.4400      46.4100    -999.2500       0.2000       0.2000       0.2000    -999.2500    -999.2500    -999.2500
   2501.9514       4.8000   -1998.5000      64.4591      46.4100    -999.2500       0.2000       0.2000       0.2000    -999.2500    -999.2500    -999.2500
   2502.1038       4.8000   -1998.5000      64.4780      46.4100    -999.2500       0.2000       0.2000       0.2000    -999.2500    -999.2500    -999.2500
   2502.2561       4.8000   -1998.5000      64.4981      46.4100    -999.2500       0.2000       0.2000       0.2000    -999.2500    -999.2500    -999.2500
   2502.4087       4.8000   -1998.5000      64.5180      46.4100    -999.2500       0.2000       0.2000       0.2000    -999.2500    -999.2500    -999.2500
   2502.5610       4.8000   -1998.5000      64.5643      46.4100    -999.2500       0.2000       0.2000       0.2000    -999.2500    -999.2500    -999.2500
   2502.7134       4.8000   -1998.5000      64.6100      46.4100    -999.2500       0.2000       0.2000       0.2000    -999.2500    -999.2500    -999.2500
   2502.8657       4.8000   -1998.5000      64.6075      46.4100    -999.2500       0.2000       0.2000       0.2000    -999.2500    -999.2500    -999.2500
   2503.0181       4.8000   -1998.5000      64.6050      46.4100    -999.2500       0.2000       0.2000       0.2000    -999.2500    -999.2500    -999.2500
   2503.1707       4.8000   -1998.5000      64.5874      46.4100    -999.2500       0.2000       0.2000       0.2000    -999.2500    -999.2500    -999.2500
   2503.3230       4.8000   -1998.5000      64.5700      46.4100    -999.2500       0.2000       0.2000       0.2000    -999.2500    -999.2500    -999.2500
   2503.4753       4.8000   -1998.5000      64.5750      46.4100    -999.2500       0.2000       0.2000       0.2000    -999.2500    -999.2500    -999.2500
   2503.6277       4.8000   -1998.5000      64.5800      46.4100    -999.2500       0.2000       0.2000       0.2000    -999.2500    -999.2500    -999.2500
   2503.7803       4.8000   -1998.5000      64.6002      46.4100    -999.2500       0.2000       0.2000       0.2000    -999.2500    -999.2500    -999.2500
   2503.9326       4.8000   -1998.5000      64.6200      46.4100    -999.2500       0.2000       0.2000       0.2000    -999.2500    -999.2500    -999.2500
   2504.0850       4.8000   -1998.5000      64.6185      46.4100    -999.2500       0.2000       0.2000       0.2000    -999.2500    -999.2500    -999.2500
   2504.2373       4.8000   -1998.5000      64.6170      46.4100    -999.2500       0.2000       0.2000       0.2000    -999.2500    -999.2500    -999.2500
   2504.3899       4.8000   -1998.5000      64.6084      46.4100    -999.2500       0.2000       0.2000       0.2000    -999.2500    -999.2500    -999.2500
   2504.5422       4.8000   -1998.5000      64.6000      46.4100    -999.2500       0.2000       0.2000       0.2000    -999.2500    -999.2500    -999.2500
   2504.6946       4.8000   -1998.5000      64.6040      43.4214    -999.2500       0.2000       0.2000       0.2000    -999.2500    -999.2500    -999.2500
   2504.8469       4.8000   -1998.5000      64.6080      40.4770    -999.2500       0.2000       0.2000       0.2000    -999.2500    -999.2500    -999.2500
   2504.9993       4.8000   -1998.5000      64.6241      20.0786    -999.2500       0.2000       0.2000       0.2000    -999.2500    -999.2500    -999.2500
   2505.1519       4.8000   -1998.5000      64.6400      -0.0200    -999.2500       0.2000       0.2000       0.2000    -999.2500    -999.2500    -999.2500
   2505.3042       4.8000   -1998.5000      64.6350      -0.0200    -999.2500       0.2000       0.2000       0.2000    -999.2500    -999.2500    -999.2500
   2505.4565       4.8000   -1998.5000      64.6300      -0.0200    -999.2500       0.2000       0.2000       0.2000    -999.2500    -999.2500    -999.2500
   2505.6089       4.8000   -1998.5000      64.5897      -0.0200    -999.2500       0.2000       0.2000       0.2000    -999.2500    -999.2500    -999.2500
   2505.7615       4.8000   -1998.5000      64.5500      -0.0200    -999.2500       0.2000       0.2000       0.2000    -999.2500    -999.2500    -999.2500
   2505.9138       4.8000   -1998.5000      64.5555      -0.0200    -999.2500       0.2000       0.2000       0.2000    -999.2500    -999.2500    -999.2500
   2506.0662       4.8000   -1998.5000      64.5610      -0.0200    -999.2500       0.2000       0.2000       0.2000    -999.2500    -999.2500    -999.2500
   2506.2185       4.8000   -1998.5000      64.5806      -0.0200    -999.2500       0.2000       0.2000       0.2000    -999.2500    -999.2500    -999.2500
   2506.3711       4.8000   -1998.5000      64.6000      -0.0200    -999.2500       0.2000       0.2000       0.2000    -999.2500    -999.2500    -999.2500
   2506.5234       4.8000   -1998.5000      64.5899      -0.0200    -999.2500       0.2000       0.2000       0.2000    -999.2500    -999.2500    -999.2500
   2506.6758       4.8000   -1998.5000      64.5800      -0.0200    -999.2500       0.2000       0.2000       0.2000    -999.2500    -999.2500    -999.2500
   2506.8281       4.8000   -1998.5000      64.5800      -0.0200    -999.2500       0.2000       0.2000       0.2000    -999.2500    -999.2500    -999.2500
