#------------------------------------------------------------------------------
#
#   Created by  : [OpenWorks] Log Export Utility (LEXP)
#   Created on  : 2016-05-23 11:56:16
#   Project     : CANT971
#   User        : R5K
#   Interpreter : PEP
#
#------------------------------------------------------------------------------
~VERSION INFORMATION
VERS. 2.0 : CWLS Log ASCII Standard - version 2.0
WRAP.  NO : One line per depth step
~WELL INFORMATION
#MNEMONIC   .UNIT                                           VALUE :DESCRIPTION
#------------------------------------------------------------------------------
STRT        .M                                           785.0543 :START DEPTH
STOP        .M                                          3464.0940 :STOP DEPTH
STEP        .M                                             0.1524 :STEP
NULL        .                                           -999.2500 :NULL VALUE
COMP        .                                   PEMEX EXPL & PROD :COMPANY
WELL        .                                                448D :WELL
FLD         .                                           CANTARELL :FIELD
LOC         .                                             UNKNOWN :LOCATION
CNTY        .                                      CD. DEL CARMEN :COUNTY
STAT        .                                            CAMPECHE :STATE
CTRY        .                                              MEXICO :COUNTRY
SRVC        .                                             UNKNOWN :SERVICE COMPANY
DATE        .                                             UNKNOWN :LOG DATE
UWI         .                                          3060000822 :UNIQUE WELL ID
XCOORD      .                                       598710.240000 :SURFACE X
YCOORD      .                                      2143307.000000 :SURFACE Y
LAT         .                                           19.382637 :LATITUDE
LON         .                                          -92.060012 :LONGITUDE
ELEV        .M                                            28.0000 :SURFACE ELEV
ELEV_TYPE   .                                                  KB :ELEV TYPE
~CURVE INFORMATION
#MNEMONIC.UNIT        API CODE       : CURVE DESCRIPTION
#------------------------------------------------------------------------------
DEPTH    .M                          : Measured Depth
CALI     .inches      UNKNOWN        : CALI:registros:rC:NONE:v0 (auto-composite)
DRHO     .g/cm3       UNKNOWN        : DRHO:registros:rC:NONE:v0 (auto-composite)
DT       .us/ft       UNKNOWN        : DT:registros:rC:NONE:v0 (auto-composite)
GR       .API         UNKNOWN        : GR:registros:rC:NONE:v0 (auto-composite)
LLD      .ohm.m       UNKNOWN        : LLD:registros:rC:NONE:v0 (auto-composite)
LLS      .ohm.m       UNKNOWN        : LLS:registros:rC:NONE:v0 (auto-composite)
MSFL     .ohm.m       UNKNOWN        : MSFL:registros:rC:NONE:v0 (auto-composite)
NPHI     .v/v_decimal UNKNOWN        : NPHI:registros:rC:NONE:v0 (auto-composite)
PEF      .b/elec      UNKNOWN        : PEF:registros:rC:NONE:v0 (auto-composite)
RHOB     .g/cm3       UNKNOWN        : RHOB:registros:rC:NONE:v0 (auto-composite)
~A     DEPTH         CALI         DRHO           DT           GR          LLD          LLS         MSFL         NPHI          PEF         RHOB
# ...
   2747.9663      17.2793       0.0143      47.0554      28.4097     697.6121     208.0739     529.4644       0.0576       3.6128       2.6567
   2748.1187      17.1821       0.0128      46.5294      27.0539     734.0366     216.4383    1068.0936       0.0618       3.5093       2.6741
   2748.2712      16.8397       0.0115      48.1058      26.2521     643.7740     205.4424    1630.2361       0.0602       3.3454       2.7064
   2748.4236      16.4856       0.0134      52.8221      25.2181     649.7700     202.0283     957.5345       0.0540       3.1600       2.7539
   2748.5759      16.4210       0.0118      56.7738      25.2329     703.0609     205.4214     611.1431       0.0418       3.1214       2.7798
   2748.7283      16.4118       0.0113      57.5117      27.1541     661.8261     191.3894     507.1349       0.0343       3.3706       2.7939
   2748.8806      16.3802       0.0150      57.7734      30.3778     687.8848     189.8268     251.6825       0.0273       3.6259       2.7926
   2749.0332      16.3056       0.0164      55.8647      33.6734     673.6814     179.6142     229.9891       0.0225       3.5831       2.7814
   2749.1855      16.5086       0.0208      53.4818      33.2866     584.5028     163.9514     671.7165       0.0181       3.5126       2.7733
   2749.3379      16.8634       0.0292      52.1572      30.7791     575.7468     163.2040    1856.4890       0.0141       3.5102       2.7817
   2749.4902      17.2564       0.0314      51.7075      28.1116     607.9463     163.7232    1860.2914       0.0137       3.5776       2.7764
   2749.6428      17.4862       0.0299      51.0917      27.0199     686.0931     165.1892    1848.2488       0.0155       3.5427       2.7599
   2749.7952      17.6467       0.0351      51.1619      27.1258     745.7921     170.2032    1600.0887       0.0182       3.2871       2.7538
   2749.9475      17.3996       0.0343      50.9606      27.0332     718.8397     177.1751    1791.1672       0.0185       3.2012       2.7532
   2750.0999      16.8921       0.0327      50.3181      26.8719     658.1627     179.4546    1428.9833       0.0182       3.0817       2.7641
   2750.2524      16.8482       0.0341      50.8878      27.2362     631.1478     180.0864    1651.8645       0.0188       3.1442       2.7739
   2750.4048      16.8578       0.0426      51.2416      27.9763     600.2683     177.8108     885.7318       0.0202       3.1120       2.7851
   2750.5571      16.8894       0.0381      51.3596      27.4704     531.9039     161.7574     765.1078       0.0221       2.9739       2.7545
   2750.7095      16.9849       0.0304      52.9116      25.1063     477.8688     148.0487    1220.8395       0.0278       2.8749       2.7174
   2750.8618      17.0150       0.0201      53.9306      23.0336     453.9556     143.8689    1711.5521       0.0417       2.9363       2.6884
   2751.0144      17.0053       0.0208      54.7719      24.7396     428.2432     139.8796     796.6080       0.0475       3.1525       2.6992
   2751.1667      17.0042       0.0209      56.0307      27.3670     417.3200     140.3813     501.3399       0.0448       3.2338       2.7238
   2751.3191      17.0876       0.0297      56.6372      28.3452     452.1657     149.6719     617.1719       0.0316       3.1418       2.7282
   2751.4714      17.1844       0.0296      55.8918      28.3760     488.9567     156.8968      99.6756       0.0286       2.9916       2.6845
   2751.6240      16.9293       0.0258      52.8505      28.0796     508.0094     159.5478     106.6239       0.0299       3.0490       2.6826
   2751.7764      16.7817       0.0312      52.4540      26.1930     541.4579     166.7864      90.7745       0.0279       3.1410       2.7200
   2751.9287      16.7846       0.0419      54.9375      21.4444     543.7756     167.1438     281.2132       0.0234       3.3451       2.7838
   2752.0811      16.8114       0.0277      53.5765      17.9828     542.9042     165.3776     393.8342       0.0184       3.3884       2.7697
   2752.2336      17.0202       0.0076      52.1965      18.5525     630.2938     176.2890     246.8811       0.0175       3.4036       2.7528
   2752.3860      17.3660       0.0114      52.4465      22.5034     782.8995     192.7092     162.2502       0.0170       3.5042       2.7697
   2752.5383      17.5938       0.0137      51.3773      27.2756     886.0592     197.9695     141.1037       0.0198       3.5191       2.7827
   2752.6907      17.6978       0.0110      50.6652      31.1706     909.5546     197.7748     772.4974       0.0244       3.4878       2.7715
   2752.8430      17.7436       0.0083      51.5155      35.0600     864.3270     192.7309    1392.5671       0.0320       3.3552       2.7606
   2752.9956      17.8086       0.0089      52.4352      37.5947     807.1959     190.6905     212.5072       0.0349       3.2401       2.7409
   2753.1479      17.5498       0.0075      52.6425      37.1072     814.0472     190.3528     332.0620       0.0379       3.2328       2.7213
   2753.3003      17.1021       0.0109      54.7907      34.1464     802.0317     185.4976     455.2293       0.0387       3.2680       2.7318
   2753.4526      17.2779       0.0165      56.9615      30.1653     756.1812     180.9632     225.6919       0.0323       3.3473       2.7599
   2753.6052      17.2986       0.0242      57.7521      26.4835     777.4127     181.0143     119.5500       0.0239       3.4437       2.7938
   2753.7576      17.3428       0.0337      59.8623      21.5825     740.8180     169.1156     166.8563       0.0157       3.4349       2.8015
   2753.9099      17.4931       0.0369      61.4212      17.8446     738.6948     168.2561     172.4499       0.0125       3.4040       2.7867
   2754.0623      17.6673       0.0318      64.9693      17.3203     741.1032     170.2949     202.1282       0.0148       3.3530       2.7555
   2754.2146      17.3943       0.0275      73.5204      19.1141     732.1894     170.1951     336.6228       0.0266       3.2042       2.7332
   2754.3672      17.2242       0.0260      78.0238      23.4920     701.1655     165.2811     351.6249       0.0478       3.1125       2.7198
   2754.5195      17.2619       0.0209      75.6760      29.3014     601.8129     150.8607     365.9749       0.0637       2.9661       2.7059
   2754.6719      17.3439       0.0119      79.4069      35.5111     520.1462     132.6050     260.4550       0.0665       3.0145       2.6727
   2754.8242      17.6671       0.0139      86.9630      38.5703     435.3987     111.0464     467.2487       0.0622       3.0907       2.6690
   2754.9768      18.3699       0.0484     103.0525      37.9094     393.4407     101.3557     562.1885       0.0544       3.1784       2.6992
   2755.1292      19.0896       0.1081     149.2117      34.6424     368.9264      96.0260     570.8764       0.0417       3.3257       2.7406
   2755.2815      19.8247       0.1408     179.9204      30.7868     357.1272      90.3492     231.6936       0.0373       3.3360       2.6524
   2755.4338      20.2729       0.0961     178.8979      27.5870     370.1895      86.6681     351.0363       0.0914       2.5322       2.3007
   2755.5864      20.0489       0.0397     173.2168      25.0681     390.2982      82.6154     115.1435       0.1982       1.9884       1.7909
   2755.7388      19.7197       0.0062     140.1817      23.2229     427.3718      83.8844      88.7095       0.2944       1.7444       1.3504
   2755.8911      19.9652       0.0016     103.5847      21.5571     420.9268      80.8626     219.0360       0.3610       1.8436       1.2111
   2756.0435      20.6324      -0.0048      94.7576      20.1893     326.5001      68.1479     455.9447       0.3862       2.0036       1.1860
   2756.1958      22.3346      -0.0028      97.1292      19.9529     258.5931      58.9800      43.9093       0.3654       2.1249       1.2792
   2756.3484      23.2954       0.0130      86.4328      20.2412     233.4081      54.2479       5.4021       0.2887       2.1862       1.3440
