#------------------------------------------------------------------------------
#
#   Created by  : [OpenWorks] Log Export Utility (LEXP)
#   Created on  : 2016-05-23 11:52:56
#   Project     : CANT971
#   User        : R5K
#   Interpreter : PEP
#
#------------------------------------------------------------------------------
~VERSION INFORMATION
VERS. 2.0 : CWLS Log ASCII Standard - version 2.0
WRAP.  NO : One line per depth step
~WELL INFORMATION
#MNEMONIC   .UNIT                                           VALUE :DESCRIPTION
#------------------------------------------------------------------------------
STRT        .M                                           340.6189 :START DEPTH
STOP        .M                                          3243.0769 :STOP DEPTH
STEP        .M                                             0.1524 :STEP
NULL        .                                           -999.2500 :NULL VALUE
COMP        .                                   PEMEX EXPL & PROD :COMPANY
WELL        .                                                2098 :WELL
FLD         .                                           CANTARELL :FIELD
LOC         .                                             UNKNOWN :LOCATION
CNTY        .                                      CD. DEL CARMEN :COUNTY
STAT        .                                            CAMPECHE :STATE
CTRY        .                                              MEXICO :COUNTRY
SRVC        .                                             UNKNOWN :SERVICE COMPANY
DATE        .                                             UNKNOWN :LOG DATE
UWI         .                                          3060000229 :UNIQUE WELL ID
XCOORD      .                                       599692.800000 :SURFACE X
YCOORD      .                                      2143031.510000 :SURFACE Y
LAT         .                                           19.380099 :LATITUDE
LON         .                                          -92.050671 :LONGITUDE
ELEV        .M                                            26.7400 :SURFACE ELEV
ELEV_TYPE   .                                                  KB :ELEV TYPE
~CURVE INFORMATION
#MNEMONIC.UNIT        API CODE       : CURVE DESCRIPTION
#------------------------------------------------------------------------------
DEPTH    .M                          : Measured Depth
CALI     .inches      UNKNOWN        : CALI:litodensidad:rC:NONE:v0 (auto-composite)
CGR      .API         UNKNOWN        : CGR:Espectrometria:rC:NONE:v0 (auto-composite)
DRHO     .g/cm3       UNKNOWN        : DRHO:litodensidad:rC:NONE:v0 (auto-composite)
DT       .us/ft       UNKNOWN        : DT:DT-Load:rC:NONE:v0 (auto-composite)
GR       .API         UNKNOWN        : GR:GR-load:rC:NONE:v0 (auto-composite)
ILD      .UNKNOWN     UNKNOWN        : ILD:resistivos:rC:NONE:v0 (auto-composite)
LLD      .ohm.m       UNKNOWN        : LLD:resistivos:rC:NONE:v0 (auto-composite)
LLS      .UNKNOWN     UNKNOWN        : LLS:resistivos:rC:NONE:v0 (auto-composite)
MSFL     .UNKNOWN     UNKNOWN        : MSFL:resistivos:rC:NONE:v0 (auto-composite)
NPHI     .v/v_decimal UNKNOWN        : NPHI:porosidad:rC:NONE:v0 (auto-composite)
PEF      .UNKNOWN     UNKNOWN        : PEF:litodensidad:rC:NONE:v0 (auto-composite)
POTA     .UNKNOWN     UNKNOWN        : POTA:Espectrometria:rC:NONE:v0 (auto-composite)
RHOB     .UNKNOWN     UNKNOWN        : RHOB:litodensidad:rC:NONE:v0 (auto-composite)
THOR     .ppm         UNKNOWN        : THOR:Espectrometria:rC:NONE:v0 (auto-composite)
URAN     .ppm         UNKNOWN        : URAN:Espectrometria:rC:NONE:v0 (auto-composite)
~A     DEPTH         CALI          CGR         DRHO           DT           GR          ILD          LLD          LLS         MSFL         NPHI          PEF         POTA         RHOB         THOR         URAN
# ...
   3235.1521       5.8324     -36.3481       0.1182      56.3614      65.4165    -999.2500      16.3513      15.3384       1.7239       0.0889       3.2695      -0.0136       2.7294      -2.8839      11.5297
   3235.3044       5.8335     -36.3481       0.1170      57.0146      65.4165    -999.2500      16.3513      15.3384       1.7239       0.0889       3.2375      -0.0136       2.7283      -2.8839      11.5297
   3235.4568       5.8344     -36.3481       0.1144      56.2095      65.4165    -999.2500      16.3513      15.3384       1.7239       0.0889       3.2704      -0.0136       2.7275      -2.8839      11.5297
   3235.6094       5.8323     -36.3481       0.1206      54.0574      65.4165    -999.2500      16.3513      15.3384       1.7239       0.0889       3.2095      -0.0136       2.7409      -2.8839      11.5297
   3235.7617       5.8336     -36.3480       0.1226      56.1684      65.4165    -999.2500      16.3513      15.3384       1.7239       0.0889       3.1181      -0.0136       2.7417      -2.8839      11.5297
   3235.9141       5.8344     -36.3480       0.1238      56.2237      65.4165    -999.2500      16.3513      15.3384       1.7239       0.0889       3.0614      -0.0136       2.7440      -2.8839      11.5297
   3236.0664       5.8332     -36.3480       0.1276      54.7470      65.4165    -999.2500      16.3513      15.3384       1.7239       0.0889       3.0588      -0.0136       2.7494      -2.8839      11.5297
   3236.2188       5.8329     -36.3480       0.1264      55.8028      65.4165    -999.2500      16.3513      15.3384       1.7239       0.0889       3.0749      -0.0136       2.7497      -2.8839      11.5297
   3236.3713       5.8328     -36.3480       0.1246      55.7638      65.4165    -999.2500      16.3513      15.3384       1.7239       0.0889       3.1714      -0.0136       2.7517      -2.8839      11.5297
   3236.5237       5.8340     -36.3479       0.1284      55.7488      65.4165    -999.2500      16.3513      15.3384       1.7239       0.0889       3.2472      -0.0136       2.7567      -2.8839      11.5297
   3236.6760       5.8333     -36.3479       0.1209      56.1198      65.4165    -999.2500      16.3513      15.3384       1.7239       0.0889       3.3569      -0.0136       2.7465      -2.8839      11.5297
   3236.8284       5.8341     -36.3479       0.1168      57.4225      65.4165    -999.2500      16.3513      15.3384       1.7239       0.0889       3.2868      -0.0136       2.7394      -2.8839      11.5297
   3236.9810       5.8335     -36.3478       0.1224      57.5264      65.4165    -999.2500      16.3513      15.3384       1.7239       0.0889       3.2475      -0.0136       2.7387      -2.8839      11.5297
   3237.1333       5.8339     -36.3478       0.1290      57.6832      65.4165    -999.2500      16.3513      15.3384       1.7239       0.0889       3.2024      -0.0136       2.7440      -2.8839      11.5297
   3237.2856       5.8339     -36.3477       0.1229      56.8769      65.4165    -999.2500      16.3513      15.3384       1.7239       0.0889       3.2651      -0.0136       2.7376      -2.8838      11.5297
   3237.4380       5.8331     -36.3477       0.1279      55.9533      65.4165    -999.2500      16.3513      15.3384       1.7239       0.0889       3.2599      -0.0136       2.7449      -2.8838      11.5297
   3237.5906       5.8341     -36.3476       0.1274      55.9276      65.4165    -999.2500      16.3513      15.3384       1.7239       0.0889       3.2678      -0.0136       2.7444      -2.8838      11.5296
   3237.7429       5.8342     -36.3476       0.1247      55.0114      65.4165    -999.2500      16.3513      15.3384       1.7239       0.0889       3.1453      -0.0136       2.7438      -2.8838      11.5296
   3237.8953       5.8336     -36.3475       0.1192      56.3716      65.4165    -999.2500    -999.2500    -999.2500    -999.2500       0.0889       3.0503      -0.0136       2.7374      -2.8838      11.5296
   3238.0476       5.8341     -36.3474       0.1285      55.7001      65.4165    -999.2500    -999.2500    -999.2500    -999.2500       0.0889       2.9586      -0.0136       2.7539      -2.8838      11.5296
   3238.2000       5.8218     -36.3473       0.1384      56.7601      65.4165    -999.2500    -999.2500    -999.2500    -999.2500       0.0890       2.9586      -0.0136       2.7692      -2.8838      11.5296
   3238.3525       5.8215     -36.3472       0.1493      56.9707      65.4165    -999.2500    -999.2500    -999.2500    -999.2500       0.0890       2.9586      -0.0136       2.7874      -2.8838      11.5296
   3238.5049       5.8215     -36.3471       0.1561      56.9410      65.4165    -999.2500    -999.2500    -999.2500    -999.2500       0.0890       2.9586      -0.0136       2.7942      -2.8837      11.5296
   3238.6572       5.8215     -36.3469       0.1638      56.7867      65.4165    -999.2500    -999.2500    -999.2500    -999.2500       0.0890       2.9586      -0.0136       2.8017      -2.8837      11.5296
   3238.8096       5.8215     -36.3467       0.1638      56.6509      65.4165    -999.2500    -999.2500    -999.2500    -999.2500       0.0890       2.9586      -0.0136       2.8017      -2.8837      11.5295
   3238.9622    -999.2500     -36.3465       0.1638      56.0851      65.4165    -999.2500    -999.2500    -999.2500    -999.2500       0.0890       2.9586      -0.0136       2.8017      -2.8837      11.5295
   3239.1145    -999.2500    -999.2500    -999.2500      55.8964    -999.2500    -999.2500    -999.2500    -999.2500    -999.2500    -999.2500    -999.2500    -999.2500    -999.2500    -999.2500    -999.2500
   3239.2668    -999.2500    -999.2500    -999.2500      55.7756    -999.2500    -999.2500    -999.2500    -999.2500    -999.2500    -999.2500    -999.2500    -999.2500    -999.2500    -999.2500    -999.2500
   3239.4192    -999.2500    -999.2500    -999.2500      56.4534    -999.2500    -999.2500    -999.2500    -999.2500    -999.2500    -999.2500    -999.2500    -999.2500    -999.2500    -999.2500    -999.2500
   3239.5718    -999.2500    -999.2500    -999.2500      56.5664    -999.2500    -999.2500    -999.2500    -999.2500    -999.2500    -999.2500    -999.2500    -999.2500    -999.2500    -999.2500    -999.2500
   3239.7241    -999.2500    -999.2500    -999.2500      55.0696    -999.2500    -999.2500    -999.2500    -999.2500    -999.2500    -999.2500    -999.2500    -999.2500    -999.2500    -999.2500    -999.2500
   3239.8765    -999.2500    -999.2500    -999.2500      56.1394    -999.2500    -999.2500    -999.2500    -999.2500    -999.2500    -999.2500    -999.2500    -999.2500    -999.2500    -999.2500    -999.2500
   3240.0288    -999.2500    -999.2500    -999.2500      56.0372    -999.2500    -999.2500    -999.2500    -999.2500    -999.2500    -999.2500    -999.2500    -999.2500    -999.2500    -999.2500    -999.2500
   3240.1812    -999.2500    -999.2500    -999.2500      56.1248    -999.2500    -999.2500    -999.2500    -999.2500    -999.2500    -999.2500    -999.2500    -999.2500    -999.2500    -999.2500    -999.2500
   3240.3337    -999.2500    -999.2500    -999.2500      56.2426    -999.2500    -999.2500    -999.2500    -999.2500    -999.2500    -999.2500    -999.2500    -999.2500    -999.2500    -999.2500    -999.2500
   3240.4861    -999.2500    -999.2500    -999.2500      56.7478    -999.2500    -999.2500    -999.2500    -999.2500    -999.2500    -999.2500    -999.2500    -999.2500    -999.2500    -999.2500    -999.2500
   3240.6384    -999.2500    -999.2500    -999.2500      56.0957    -999.2500    -999.2500    -999.2500    -999.2500    -999.2500    -999.2500    -999.2500    -999.2500    -999.2500    -999.2500    -999.2500
   3240.7908    -999.2500    -999.2500    -999.2500      56.0834    -999.2500    -999.2500    -999.2500    -999.2500    -999.2500    -999.2500    -999.2500    -999.2500    -999.2500    -999.2500    -999.2500
   3240.9434    -999.2500    -999.2500    -999.2500      55.8540    -999.2500    -999.2500    -999.2500    -999.2500    -999.2500    -999.2500    -999.2500    -999.2500    -999.2500    -999.2500    -999.2500
