#------------------------------------------------------------------------------
#
#   Created by  : [OpenWorks] Log Export Utility (LEXP)
#   Created on  : 2016-05-12 17:01:25
#   Project     : CANT971
#   User        : R5K
#   Interpreter : PEP
#
#------------------------------------------------------------------------------
~VERSION INFORMATION
VERS. 2.0 : CWLS Log ASCII Standard - version 2.0
WRAP.  NO : One line per depth step
~WELL INFORMATION
#MNEMONIC   .UNIT                                           VALUE :DESCRIPTION
#------------------------------------------------------------------------------
STRT        .M                                           310.6675 :START DEPTH
STOP        .M                                          2665.7046 :STOP DEPTH
STEP        .M                                             0.1524 :STEP
NULL        .                                           -999.2500 :NULL VALUE
COMP        .                                   PEMEX EXPL & PROD :COMPANY
WELL        .                                                 77A :WELL
FLD         .                                           CANTARELL :FIELD
LOC         .                                             UNKNOWN :LOCATION
CNTY        .                                      CD. DEL CARMEN :COUNTY
STAT        .                                            CAMPECHE :STATE
CTRY        .                                              MEXICO :COUNTRY
SRVC        .                                             UNKNOWN :SERVICE COMPANY
DATE        .                                             UNKNOWN :LOG DATE
UWI         .                                          3060000181 :UNIQUE WELL ID
XCOORD      .                                       602151.310000 :SURFACE X
YCOORD      .                                      2147165.430000 :SURFACE Y
LAT         .                                           19.417331 :LATITUDE
LON         .                                          -92.027040 :LONGITUDE
ELEV        .M                                            28.1700 :SURFACE ELEV
ELEV_TYPE   .                                                  KB :ELEV TYPE
~CURVE INFORMATION
#MNEMONIC.UNIT        API CODE       : CURVE DESCRIPTION
#------------------------------------------------------------------------------
DEPTH    .M                          : Measured Depth
CALI     .inches      UNKNOWN        : CALI:UNKNOWN:rC:NONE:v0 (auto-composite)
DRHO     .UNKNOWN     UNKNOWN        : DRHO:PETROWORKS:rC:NONE:v1 
DT       .us/ft       UNKNOWN        : DT:DT:rC:NONE:v0 (auto-composite)
GR       .API         UNKNOWN        : GR:UNKNOWN:rC:NONE:v0 (auto-composite)
ILD      .UNKNOWN     UNKNOWN        : ILD:UNKNOWN:rC:NONE:v0 (auto-composite)
LLD      .ohm.m       UNKNOWN        : LLD:UNKNOWN:rC:NONE:v0 (auto-composite)
LLS      .ohm.m       UNKNOWN        : LLS:UNKNOWN:rC:NONE:v0 (auto-composite)
MSFL     .ohm.m       UNKNOWN        : MSFL:UNKNOWN:rC:NONE:v0 (auto-composite)
NPHI     .v/v_decimal UNKNOWN        : NPHI:PETROWORKS:rC:NONE:v1 
RHOB     .UNKNOWN     UNKNOWN        : RHOB:PETROWORKS:rC:NONE:v1 
SP       .UNKNOWN     UNKNOWN        : SP:UNKNOWN:rC:NONE:v0 (auto-composite)
~A     DEPTH         CALI         DRHO           DT           GR          ILD          LLD          LLS         MSFL         NPHI         RHOB           SP
# ...
    683.1331      22.8560       0.0192     121.7089      41.2497       1.6416    -999.2500    -999.2500    -999.2500       0.3210       2.3332     112.1790
    683.2855      22.8560       0.0178     121.1009      40.0981       1.6580    -999.2500    -999.2500    -999.2500       0.3186       2.3218     112.1400
    683.4379      22.8560       0.0114     118.3540      41.1659       1.6580    -999.2500    -999.2500    -999.2500       0.3117       2.3066     112.1400
    683.5903      22.8560       0.0090     113.4827      42.4808       1.6569    -999.2500    -999.2500    -999.2500       0.3002       2.2965     112.1099
    683.7427      22.8560       0.0130     111.2794      44.4383       1.6529    -999.2500    -999.2500    -999.2500       0.2954       2.2937     112.0016
    683.8951      22.8560       0.0156     111.7224      45.7989       1.6533    -999.2500    -999.2500    -999.2500       0.2972       2.2943     111.9698
    684.0475      22.8560       0.0144     112.6528      45.6465       1.6648    -999.2500    -999.2500    -999.2500       0.3012       2.2969     112.1317
    684.1999      22.8560       0.0114     114.0667      45.2816       1.6753    -999.2500    -999.2500    -999.2500       0.3074       2.3016     112.2315
    684.3523      22.8560       0.0072     114.9296      44.3916       1.6833    -999.2500    -999.2500    -999.2500       0.3128       2.3087     112.1779
    684.5047      22.8560       0.0045     115.2456      43.9421       1.6822    -999.2500    -999.2500    -999.2500       0.3175       2.3144     112.0925
    684.6571      22.8560       0.0040     115.6243      44.5522       1.6592    -999.2500    -999.2500    -999.2500       0.3185       2.3179     111.9305
    684.8095      22.8560       0.0163     116.0653      45.4660       1.6396    -999.2500    -999.2500    -999.2500       0.3158       2.3169     111.7204
    684.9619      22.8560       0.0436     115.9016      47.0927       1.6280    -999.2500    -999.2500    -999.2500       0.3099       2.3109     111.3971
    685.1143      22.8560       0.0627     115.1377      48.5651       1.6177    -999.2500    -999.2500    -999.2500       0.3007       2.2990     111.2538
    685.2667      22.8560       0.0676     111.8771      49.6842       1.6102    -999.2500    -999.2500    -999.2500       0.2970       2.2812     111.5231
    685.4191      22.8560       0.0576     106.1373      49.5917       1.5983    -999.2500    -999.2500    -999.2500       0.2989       2.2646     111.7591
    685.5715      22.8560       0.0330     104.0582      46.7955       1.5768    -999.2500    -999.2500    -999.2500       0.3046       2.2510     111.9210
    685.7239      22.8560       0.0187     105.6155      44.2631       1.5631    -999.2500    -999.2500    -999.2500       0.3144       2.2490     112.0490
    685.8763      22.8560       0.0206     112.6097      42.3056       1.5666    -999.2500    -999.2500    -999.2500       0.3334       2.2604     112.1032
    686.0287      22.8560       0.0221     124.9973      40.9902       1.5725    -999.2500    -999.2500    -999.2500       0.3617       2.2712     112.1572
    686.1811      22.8560       0.0194     130.6370      41.0408       1.5836    -999.2500    -999.2500    -999.2500       0.3734       2.2779     112.2108
    686.3335      22.8560       0.0171     129.5810      41.3063       1.5816    -999.2500    -999.2500    -999.2500       0.3687       2.2800     112.2996
    686.4859      22.8560       0.0163     127.1941      42.0183       1.5525    -999.2500    -999.2500    -999.2500       0.3521       2.2774     112.4616
    686.6383      22.8560       0.0163     123.4862      42.7302       1.5161    -999.2500    -999.2500    -999.2500       0.3236       2.2695     112.5165
    686.7907      22.8560       0.0167     120.8246      43.4421       1.4650    -999.2500    -999.2500    -999.2500       0.3096       2.2564     112.3546
    686.9431      22.8560       0.0252     119.2016      43.7614       1.4202    -999.2500    -999.2500    -999.2500       0.3101       2.2484     112.1747
    687.0955      22.8560       0.0431     117.3183      43.3037       1.3882    -999.2500    -999.2500    -999.2500       0.3150       2.2477     111.9591
    687.2479      22.8560       0.0510     115.1763      42.9673       1.3617    -999.2500    -999.2500    -999.2500       0.3245       2.2465     112.0006
    687.4003      22.8560       0.0453     114.4048      42.8656       1.3462    -999.2500    -999.2500    -999.2500       0.3231       2.2433     112.5395
    687.5527      22.8560       0.0358     114.9944      42.9573       1.3481    -999.2500    -999.2500    -999.2500       0.3109       2.2426     113.0599
    687.7051      22.8560       0.0245     116.6284      43.4151       1.3832    -999.2500    -999.2500    -999.2500       0.3073       2.2450     113.5452
    687.8575      22.8560       0.0179     119.2983      43.9979       1.4412    -999.2500    -999.2500    -999.2500       0.3123       2.2633     113.9358
    688.0099      22.8560       0.0170     122.7274      44.8115       1.5415    -999.2500    -999.2500    -999.2500       0.3250       2.2991     114.1513
    688.1623      22.8560       0.0159     126.9098      44.6279       1.6249    -999.2500    -999.2500    -999.2500       0.3453       2.3439     114.3669
    688.3147      22.8560       0.0136     128.6595      42.6448       1.6781    -999.2500    -999.2500    -999.2500       0.3551       2.3959     114.5824
    688.4671      22.8560       0.0254     127.9950      40.3861       1.7105    -999.2500    -999.2500    -999.2500       0.3544       2.4341     114.7006
    688.6195      22.8560       0.0536     125.9891      37.6410       1.7065    -999.2500    -999.2500    -999.2500       0.3519       2.4552     114.6470
    688.7719      22.8560       0.0848     122.6517      36.0242       1.6860    -999.2500    -999.2500    -999.2500       0.3477       2.4463     114.3360
    688.9243      22.8560       0.1168     117.5047      36.3546       1.6368    -999.2500    -999.2500    -999.2500       0.3369       2.4061     113.5809
    689.0767      22.8560       0.1203     110.5610      36.9122       1.5698    -999.2500    -999.2500    -999.2500       0.3196       2.3584     113.0669
    689.2291      22.8560       0.0917     100.3561      37.8526       1.4725    -999.2500    -999.2500    -999.2500       0.2898       2.3073     112.9591
    689.3815      22.8560       0.0688      86.9125      38.6299       1.3863    -999.2500    -999.2500    -999.2500       0.2477       2.2680     112.9734
    689.5339      22.8560       0.0572      82.1655      39.1382       1.3181    -999.2500    -999.2500    -999.2500       0.2326       2.2426     113.1889
    689.6863      22.8560       0.0459      86.0577      39.9676       1.2651    -999.2500    -999.2500    -999.2500       0.2445       2.2302     113.4664
    689.8387      22.8560       0.0330      95.0187      41.3151       1.2365    -999.2500    -999.2500    -999.2500       0.2711       2.2301     113.8439
    689.9911      22.8560       0.0269     109.0082      42.8204       1.2211    -999.2500    -999.2500    -999.2500       0.3122       2.2320     114.0122
    690.1435      22.8560       0.0285     120.2222      44.5747       1.2267    -999.2500    -999.2500    -999.2500       0.3409       2.2345     113.8502
    690.2959      22.8560       0.0337     128.6819      45.2890       1.2345    -999.2500    -999.2500    -999.2500       0.3572       2.2377     113.6885
    690.4483      22.8560       0.0418     132.7269      44.3992       1.2461    -999.2500    -999.2500    -999.2500       0.3634       2.2416     113.5271
    690.6007      22.8560       0.0429     132.3899      44.2591       1.2540    -999.2500    -999.2500    -999.2500       0.3597       2.2433     113.3870
    690.7531      22.8560       0.0358     130.9224      45.2507       1.2565    -999.2500    -999.2500    -999.2500       0.3582       2.2426     113.2793
    690.9055      22.8560       0.0310     128.3324      46.0061       1.2570    -999.2500    -999.2500    -999.2500       0.3589       2.2441     113.1715
