#------------------------------------------------------------------------------
#
#   Created by  : [OpenWorks] Log Export Utility (LEXP)
#   Created on  : 2016-05-23 11:53:41
#   Project     : CANT971
#   User        : R5K
#   Interpreter : PEP
#
#------------------------------------------------------------------------------
~VERSION INFORMATION
VERS. 2.0 : CWLS Log ASCII Standard - version 2.0
WRAP.  NO : One line per depth step
~WELL INFORMATION
#MNEMONIC   .UNIT                                           VALUE :DESCRIPTION
#------------------------------------------------------------------------------
STRT        .M                                           901.1412 :START DEPTH
STOP        .M                                          2449.6777 :STOP DEPTH
STEP        .M                                             0.1524 :STEP
NULL        .                                           -999.2500 :NULL VALUE
COMP        .                                   PEMEX EXPL & PROD :COMPANY
WELL        .                                                  25 :WELL
FLD         .                                           CANTARELL :FIELD
LOC         .                                             UNKNOWN :LOCATION
CNTY        .                                      CD. DEL CARMEN :COUNTY
STAT        .                                            CAMPECHE :STATE
CTRY        .                                              MEXICO :COUNTRY
SRVC        .                                             UNKNOWN :SERVICE COMPANY
DATE        .                                             UNKNOWN :LOG DATE
UWI         .                                          3060000154 :UNIQUE WELL ID
XCOORD      .                                       603358.080000 :SURFACE X
YCOORD      .                                      2145091.420000 :SURFACE Y
LAT         .                                           19.398528 :LATITUDE
LON         .                                          -92.015660 :LONGITUDE
ELEV        .M                                            27.1400 :SURFACE ELEV
ELEV_TYPE   .                                                  KB :ELEV TYPE
~CURVE INFORMATION
#MNEMONIC.UNIT        API CODE       : CURVE DESCRIPTION
#------------------------------------------------------------------------------
DEPTH    .M                          : Measured Depth
CALI     .in          UNKNOWN        : CALI:registros:rC:NONE:v0 (auto-composite)
DRHO     .g/cm3       UNKNOWN        : DRHO:registros:rC:NONE:v0 (auto-composite)
DT       .us/ft       UNKNOWN        : DT:registros:rC:NONE:v0 (auto-composite)
GR       .api         UNKNOWN        : GR:registros:rC:NONE:v0 (auto-composite)
ILD      .ohmm        UNKNOWN        : ILD:registros:rC:NONE:v0 (auto-composite)
LLD      .ohmm        UNKNOWN        : LLD:registros:rC:NONE:v0 (auto-composite)
LLS      .ohmm        UNKNOWN        : LLS:registros:rC:NONE:v0 (auto-composite)
MSFL     .ohmm        UNKNOWN        : MSFL:registros:rC:NONE:v0 (auto-composite)
NPHI     .v/v_decimal UNKNOWN        : NPHI:registros:rC:NONE:v0 (auto-composite)
PEF      .b/elec      UNKNOWN        : PEF:registros:rC:NONE:v0 (auto-composite)
RHOB     .g/cm3       UNKNOWN        : RHOB:registros:rC:NONE:v0 (auto-composite)
~A     DEPTH         CALI         DRHO           DT           GR          ILD          LLD          LLS         MSFL         NPHI          PEF         RHOB
# ...
   2074.0117       6.3735       0.0495      71.1438      27.1898    -999.2500      30.2363      13.3005      18.3939       0.1382       4.2907       2.5423
   2074.1641       6.4060       0.0370      75.8950      25.4120    -999.2500      26.6180      12.3550      13.7640       0.1552       4.9590       2.4570
   2074.3164       6.5269       0.0380      75.6216      22.7120    -999.2500      24.1984      11.1167      11.8712       0.1755       4.7315       2.3204
   2074.4688       6.6480       0.0390      75.3470      20.0000    -999.2500      21.7680       9.8730       9.9700       0.1959       4.5040       2.1830
   2074.6213       7.1152       0.0539      71.1975      22.8211    -999.2500      20.1542       8.7516       8.9384       0.2146       4.0211       2.0933
   2074.7737       7.5830       0.0690      67.0290      25.6550    -999.2500      18.5330       7.6250       7.9020       0.2333       3.5390       2.0030
   2074.9260       7.5280       0.0650      59.5595      25.1966    -999.2500      17.5069       7.7108       8.0945       0.2236       3.2768       2.0593
   2075.0784       7.4730       0.0610      52.0550      24.7360    -999.2500      16.4760       7.7970       8.2880       0.2139       3.0150       2.1160
   2075.2310       7.2672       0.0515      64.0816      25.7730    -999.2500      17.4656       8.3207       9.2103       0.1851       3.1341       2.2655
   2075.3833       7.0610       0.0420      76.1660      26.8150    -999.2500      18.4600       8.8470      10.1370       0.1561       3.2530       2.4160
   2075.5356       6.7525       0.0330      75.1894      29.5205    -999.2500      23.8871      10.2371      12.5695       0.1292       3.2470       2.5346
   2075.6880       6.4440       0.0240      74.2080      32.2350    -999.2500      29.3410      11.6340      15.0140       0.1021       3.2410       2.6540
   2075.8403       6.4440       0.0106      66.3689      34.6304    -999.2500      49.3927      14.5860      19.8552       0.0894       3.1945       2.6909
   2075.9929       6.4440      -0.0030      58.4900      37.0340    -999.2500      69.5460      17.5530      24.7210       0.0767       3.1480       2.7280
   2076.1453       6.3920       0.0005      59.1653      38.7265    -999.2500     122.1191      22.2089      32.5547       0.0785       3.0740       2.7200
   2076.2976       6.3400       0.0040      59.8430      40.4250    -999.2500     174.9650      26.8890      40.4290       0.0803       3.0000       2.7120
   2076.4500       6.3835       0.0125      69.6518      41.4511    -999.2500     221.5730      29.9434      56.4624       0.0930       3.0065       2.7175
   2076.6025       6.4270       0.0210      79.4970      42.4810    -999.2500     268.4290      33.0140      72.5810       0.1056       3.0130       2.7230
   2076.7549       6.3800       0.0250      74.9612      41.1600    -999.2500     272.1140      35.2479      70.0574       0.1033       3.0605       2.7225
   2076.9072       6.3330       0.0290      70.4080      39.8340    -999.2500     275.8190      37.4940      67.5200       0.1010       3.1080       2.7220
   2077.0596       6.3330       0.0265      61.9368      35.0570    -999.2500     270.7701      36.8483      61.8717       0.0942       3.1650       2.7165
   2077.2119       6.3330       0.0240      53.4320      30.2610    -999.2500     265.6930      36.1990      56.1920       0.0874       3.2220       2.7110
   2077.3645       6.3330       0.0130      53.8741      31.3637    -999.2500     250.6683      36.6462      58.2372       0.0804       3.2045       2.7135
   2077.5168       6.3330       0.0020      54.3180      32.4710    -999.2500     235.5580      37.0960      60.2940       0.0733       3.1870       2.7160
   2077.6692       6.3330       0.0065      55.2126      32.1871    -999.2500     239.9771      42.4280      78.4855       0.0747       3.1505       2.7240
   2077.8215       6.3330       0.0110      56.1110      31.9020    -999.2500     244.4220      47.7910      96.7830       0.0760       3.1140       2.7320
   2077.9741       6.3330       0.0110      55.9773      30.5584    -999.2500     255.4401      47.6408      87.3455       0.0787       3.1405       2.7410
   2078.1265       6.3330       0.0110      55.8430      29.2090    -999.2500     266.5060      47.4900      77.8670       0.0814       3.1670       2.7500
   2078.2788       6.3330       0.0090      55.8779      26.7405    -999.2500     280.3611      44.7337      65.4756       0.0827       3.2245       2.7435
   2078.4312       6.3330       0.0070      55.9130      24.2610    -999.2500     294.2780      41.9650      53.0290       0.0839       3.2820       2.7370
   2078.5837       6.3330       0.0035      62.1876      25.6393    -999.2500     278.4379      37.3536      50.5667       0.0848       3.1394       2.7151
   2078.7361       6.3330       0.0000      68.4910      27.0240    -999.2500     262.5250      32.7210      48.0930       0.0856       2.9970       2.6930
   2078.8884       6.3330      -0.0050      67.4689      29.1804    -999.2500     217.0123      29.5600      45.2003       0.0861       3.1912       2.7035
   2079.0408       6.3330      -0.0100      66.4420      31.3470    -999.2500     171.2850      26.3840      42.2940       0.0867       3.3850       2.7140
   2079.1931       6.3330      -0.0055      66.6854      30.7370    -999.2500     128.6144      23.0321      32.4528       0.0888       3.2974       2.7140
   2079.3457       6.3330      -0.0010      66.9300      30.1240    -999.2500      85.7370      19.6640      22.5640       0.0910       3.2100       2.7140
   2079.4980       6.3330      -0.0040      69.7754      30.4345    -999.2500      66.6045      17.0300      24.3077       0.0976       2.8642       2.6956
   2079.6504       6.3330      -0.0070      72.6350      30.7460    -999.2500      47.3770      14.3830      26.0600       0.1042       2.5190       2.6770
   2079.8027       6.3575      -0.0045      78.0821      30.3507    -999.2500      41.6117      13.3611      30.0703       0.1368       2.5775       2.6067
   2079.9553       6.3820      -0.0020      83.5570      29.9540    -999.2500      35.8170      12.3340      34.1010       0.1694       2.6360       2.5360
   2080.1077       6.5960       0.0045      89.4618      28.4442    -999.2500      31.6813      12.6995      36.1541       0.1693       2.9587       2.5415
   2080.2600       6.8100       0.0110      95.3880      26.9290    -999.2500      27.5240      13.0670      38.2180       0.1691       3.2810       2.5470
   2080.4124       6.7370       0.0220     101.3104      28.8709    -999.2500      28.9297      14.1965      52.9795       0.1618       3.2025       2.5948
   2080.5649       6.6640       0.0330     107.2550      30.8200    -999.2500      30.3430      15.3320      67.8200       0.1545       3.1240       2.6430
   2080.7173       6.5096       0.0315     113.4580      37.8429    -999.2500      37.1868      17.1356      61.8798       0.1339       2.8839       2.6355
   2080.8696       6.3550       0.0300     119.6850      44.8930    -999.2500      44.0680      18.9490      55.9070       0.1133       2.6440       2.6280
   2081.0220       6.3735       0.0250     118.3651      43.5891    -999.2500      41.8557      17.5624      48.5022       0.1136       2.8916       2.6365
   2081.1743       6.3920       0.0200     117.0400      42.2800    -999.2500      39.6310      16.1680      41.0560       0.1139       3.1390       2.6450
   2081.3269       6.4180       0.0140     114.4134      36.7614    -999.2500      34.3788      13.7310      42.5559       0.1147       3.1355       2.6669
   2081.4792       6.4440       0.0080     111.7760      31.2200    -999.2500      29.1050      11.2840      44.0620       0.1155       3.1320       2.6890
   2081.6316       6.4440       0.0025     110.1889      31.9435    -999.2500      26.0495      10.0546      46.6969       0.1179       3.0660       2.6820
   2081.7839       6.4440      -0.0030     108.5950      32.6700    -999.2500      22.9810       8.8200      49.3430       0.1202       3.0000       2.6750
