#------------------------------------------------------------------------------
#
#   Created by  : [OpenWorks] Log Export Utility (LEXP)
#   Created on  : 2016-05-12 17:01:16
#   Project     : CANT971
#   User        : R5K
#   Interpreter : PEP
#
#------------------------------------------------------------------------------
~VERSION INFORMATION
VERS. 2.0 : CWLS Log ASCII Standard - version 2.0
WRAP.  NO : One line per depth step
~WELL INFORMATION
#MNEMONIC   .UNIT                                           VALUE :DESCRIPTION
#------------------------------------------------------------------------------
STRT        .M                                          4907.2798 :START DEPTH
STOP        .M                                          5813.7549 :STOP DEPTH
STEP        .M                                             0.1524 :STEP
NULL        .                                           -999.2500 :NULL VALUE
COMP        .                                   PEMEX EXPL & PROD :COMPANY
WELL        .                                            3026D_ST :WELL
FLD         .                                           CANTARELL :FIELD
LOC         .                                             UNKNOWN :LOCATION
CNTY        .                                      CD. DEL CARMEN :COUNTY
STAT        .                                            CAMPECHE :STATE
CTRY        .                                              MEXICO :COUNTRY
SRVC        .                                             UNKNOWN :SERVICE COMPANY
DATE        .                                             UNKNOWN :LOG DATE
UWI         .                                      3060000820D_ST :UNIQUE WELL ID
XCOORD      .                                       601717.200000 :SURFACE X
YCOORD      .                                      2148573.570000 :SURFACE Y
LAT         .                                           19.430078 :LATITUDE
LON         .                                          -92.031099 :LONGITUDE
ELEV        .M                                            30.0000 :SURFACE ELEV
ELEV_TYPE   .                                                  KB :ELEV TYPE
~CURVE INFORMATION
#MNEMONIC.UNIT        API CODE       : CURVE DESCRIPTION
#------------------------------------------------------------------------------
DEPTH    .M                          : Measured Depth
CALI     .inches      UNKNOWN        : CALI:registros:rC:NONE:v0 (auto-composite)
CGR      .API         UNKNOWN        : CGR:registros:rC:NONE:v0 (auto-composite)
DRHO     .g/cm3       UNKNOWN        : DRHO:registros:rC:NONE:v0 (auto-composite)
DT       .us/ft       UNKNOWN        : DT:registros:rC:NONE:v0 (auto-composite)
GR       .API         UNKNOWN        : GR:registros:rC:NONE:v0 (auto-composite)
ILD      .ohm.m       UNKNOWN        : ILD:registros:rC:NONE:v0 (auto-composite)
ILM      .ohm.m       UNKNOWN        : ILM:registros:rC:NONE:v0 (auto-composite)
NPHI     .UNKNOWN     UNKNOWN        : NPHI:registros:rC:NONE:v0 (auto-composite)
PEF      .b/elec      UNKNOWN        : PEF:registros:rC:NONE:v0 (auto-composite)
POTA     .UNKNOWN     UNKNOWN        : POTA:registros:rC:NONE:v0 (auto-composite)
RHOB     .g/cm3       UNKNOWN        : RHOB:registros:rC:NONE:v0 (auto-composite)
THOR     .ppm         UNKNOWN        : THOR:registros:rC:NONE:v0 (auto-composite)
URAN     .ppm         UNKNOWN        : URAN:registros:rC:NONE:v0 (auto-composite)
~A     DEPTH         CALI          CGR         DRHO           DT           GR          ILD          ILM         NPHI          PEF         POTA         RHOB         THOR         URAN
# ...
   5369.9663       6.7869      90.6179       0.0104      76.5973     112.4047       4.4790       4.4598       0.2436       6.7646       0.0359       2.6699      12.0827       3.1754
   5370.1187       6.7312      89.7271       0.0074      77.0279     111.4523       4.8231       4.7945       0.2398       6.7896       0.0357       2.6677      11.8606       3.1665
   5370.2710       6.6893      90.2330       0.0038      77.1236     112.3426       4.6893       4.6471       0.2343       5.9625       0.0361       2.6673      11.8772       3.2225
   5370.4233       6.7759      89.6652       0.0005      76.2968     111.9403       4.6246       4.5860       0.2401       5.6714       0.0358       2.6653      11.8120       3.2466
   5370.5757       6.7568      88.1886      -0.0027      74.6777     110.1120       4.9601       4.9028       0.2456       5.3991       0.0355       2.6683      11.5095       3.1953
   5370.7280       6.7008      86.0616      -0.0040      75.5860     107.3060       5.0111       4.9613       0.2490       5.9490       0.0351       2.6769      11.0226       3.0964
   5370.8804       6.6979      83.9216      -0.0028      76.0402     104.3451       5.1552       5.1019       0.2381       6.5813       0.0346       2.6879      10.5853       2.9767
   5371.0332       6.6969      82.3022      -0.0020      76.4944     102.3110       5.3212       5.2633       0.2289       7.2363       0.0340       2.6866      10.3440       2.9163
   5371.1855       6.6454      81.9371      -0.0019      73.9180     102.1063       5.2277       5.1738       0.2305       6.4849       0.0340       2.6818      10.2619       2.9397
   5371.3379       6.6593      81.8333       0.0010      73.9180     102.3135       5.1326       5.0736       0.2382       5.7177       0.0339       2.6823      10.2727       2.9850
   5371.4902       6.6923      71.4143       0.0029      73.9180      94.1963       5.0739       5.0120       0.2309       5.4169       0.0300       2.6951       8.7969       3.3205
   5371.6426       6.6969      72.3295       0.0002      73.9180      95.6198       5.1246       5.0579       0.2113       5.8427       0.0305       2.6937       8.8648       3.3946
   5371.7949       6.6221      72.3550      -0.0037      73.9180      95.5380       5.2671       5.1937       0.1873       5.8830       0.0308       2.6840       8.7101       3.3789
   5371.9473       6.6172      73.0597      -0.0079      73.9180     101.4963       4.8688       4.8131       0.1812       5.3516       0.0297       2.6750       9.4171       4.1446
   5372.0996       6.6242      72.5343      -0.0091      73.9180     108.2766       4.4467       4.3917       0.1963       5.0122       0.0300       2.6805       9.1111       5.2094
   5372.2520       6.6401      65.5486      -0.0085      73.9180     101.3860       4.4075       4.3522       0.2181       5.2249       0.0253       2.6879       8.9917       5.2233
   5372.4048       6.5904      63.2150      -0.0065      73.9180      96.9059       4.9570       4.8896       0.2309       5.1430       0.0247       2.6921       8.5424       4.9105
   5372.5571       6.5868      56.9122      -0.0070      73.9180      83.0678       5.5939       5.5285       0.2189       4.7453       0.0245       2.6894       6.7562       3.8122
   5372.7095       6.6349      55.3953      -0.0038      73.9180     100.5633       6.0733       6.0171       0.1948       4.5196       0.0241       2.7031       6.4390       3.6103
   5372.8618       6.6388      52.1567      -0.0014      73.9180      90.8889       6.7950       6.6930       0.1782       4.9263       0.0234       2.7160       5.7878       3.3457
   5373.0142       6.5979      52.4083       0.0018      73.9180      87.2089       8.0716       8.0132       0.1565       5.0961       0.0236       2.7302       5.7847       3.4076
   5373.1665       6.5817      60.9027       0.0039      73.9180      81.1379       7.3280       7.2968       0.1466       4.7239       0.0225       2.7293       8.7794       3.9854
   5373.3188       6.6739      75.6041       0.0045      73.9180      81.5415       5.9064       5.9164       0.1477       4.4222       0.0277       2.7150      11.0154       3.9427
   5373.4712       6.6881      84.1572       0.0038      73.9180      82.9675       5.4559       5.4824       0.1743       4.6790       0.0323       2.7157      11.6318       4.0161
   5373.6240       6.6400      88.2242       0.0009      73.9180      91.5938       4.8062       4.8436       0.1967       5.1642       0.0340       2.7151      12.1681       4.0601
   5373.7764       6.6429      89.5303       0.0001      73.9180     100.4878       4.1830       4.2237       0.2076       5.5188       0.0343       2.7181      12.4254       4.0821
   5373.9287       6.7008      90.5068      -0.0007      73.9180     105.2127       3.7424       3.7841       0.2163       5.6077       0.0345       2.7210      12.6432       4.1192
   5374.0811       6.7087      94.2988      -0.0015      73.9180     104.3801       3.3694       3.4111       0.2240       5.3843       0.0360       2.6981      13.1478       4.2065
   5374.2334       6.6718      94.7316       0.0000      73.9180     105.0484       3.0936       3.1326       0.2309       5.0583       0.0364       2.6884      13.0884       4.2292
   5374.3857       6.6787      93.6659       0.0009      73.9180     106.3283       2.9658       3.0078       0.2337       4.9832       0.0362       2.6936      12.8454       4.1062
   5374.5381       6.7400      93.4566       0.0037      73.9180     106.7910       3.3209       3.3802       0.2400       5.1263       0.0362       2.7016      12.7708       4.0483
   5374.6904       6.7463      90.5848       0.0009      73.9180     106.8532       3.4073       3.4685       0.2529       5.5588       0.0377       2.7074      11.2673       3.5472
   5374.8428       6.7130      89.5494      -0.0044      73.9180     106.3055       3.5528       3.6194       0.2591       5.6211       0.0375       2.7074      11.0600       3.4084
   5374.9956       6.6684      89.0788      -0.0098      73.9180     105.2524       3.6422       3.7172       0.2561       5.7421       0.0372       2.7035      11.0373       3.3433
   5375.1479       6.7087      92.4428      -0.0071      73.9180     105.7871       3.4090       3.4647       0.2393       5.7075       0.0360       2.7059      12.5760       3.7282
   5375.3003       6.7476      92.6529      -0.0080      73.9180     105.1056       3.1536       3.1895       0.2354       5.8801       0.0354       2.6973      12.8698       3.7256
   5375.4526       6.7152     100.3341      -0.0033      73.9180     107.1680       2.7673       2.7870       0.2449       5.8941       0.0358       2.6886      15.0181       3.6574
   5375.6050       6.6517     100.3341      -0.0022    -999.2500     106.0217       3.4731       3.4902       0.2597       6.1555       0.0358       2.6811      15.0181       3.6574
   5375.7573       6.6803     100.3341       0.0017    -999.2500     108.1370       4.3120       4.3453       0.2645       5.9257       0.0358       2.6861      15.0181       3.6574
   5375.9097       6.6954     100.3341       0.0019    -999.2500     108.0108       4.3830       4.4179       0.2576       5.9168       0.0358       2.6910      15.0181       3.6574
   5376.0620       6.6577     100.3341       0.0010    -999.2500     108.6955       3.5264       3.5402       0.2496       5.4452       0.0358       2.6975      15.0181       3.6574
   5376.2144       6.6687     100.3341      -0.0051    -999.2500     107.2369       3.3055       3.3119       0.2449       5.4410       0.0358       2.6830      15.0181       3.6574
   5376.3672       6.6759     100.3341      -0.0061    -999.2500     109.2509       3.6624       3.6959       0.2512       5.6030       0.0358       2.6797      15.0181       3.6574
   5376.5195       6.6782     100.3341      -0.0058    -999.2500     110.4642       4.3787       4.3959       0.2548       6.0088       0.0358       2.6772      15.0181       3.6574
