#------------------------------------------------------------------------------
#
#   Created by  : [OpenWorks] Log Export Utility (LEXP)
#   Created on  : 2015-10-01 09:41:14
#   Project     : CANT971
#   User        : R5K
#   Interpreter : PEP
#
#------------------------------------------------------------------------------
~VERSION INFORMATION
VERS. 2.0 : CWLS Log ASCII Standard - version 2.0
WRAP.  NO : One line per depth step
~WELL INFORMATION
#MNEMONIC   .UNIT                                           VALUE :DESCRIPTION
#------------------------------------------------------------------------------
STRT        .M                                          1374.3848 :START DEPTH
STOP        .M                                          3939.4292 :STOP DEPTH
STEP        .M                                             0.1524 :STEP
NULL        .                                           -999.2500 :NULL VALUE
COMP        .                                             UNKNOWN :COMPANY
WELL        .                                         SIHIL-11-ST :WELL
FLD         .                                             UNKNOWN :FIELD
LOC         .                                             UNKNOWN :LOCATION
CNTY        .                                             UNKNOWN :COUNTY
STAT        .                                             UNKNOWN :STATE
CTRY        .                                             UNKNOWN :COUNTRY
SRVC        .                                             UNKNOWN :SERVICE COMPANY
DATE        .                                             UNKNOWN :LOG DATE
UWI         .                                         SIHIL-11-ST :UNIQUE WELL ID
XCOORD      .                                       599653.950000 :SURFACE X
YCOORD      .                                      2147230.550000 :SURFACE Y
LAT         .                                           19.418046 :LATITUDE
LON         .                                          -92.050821 :LONGITUDE
ELEV        .M                                             0.0000 :SURFACE ELEV
ELEV_TYPE   .                                                  KB :ELEV TYPE
~CURVE INFORMATION
#MNEMONIC.UNIT        API CODE       : CURVE DESCRIPTION
#------------------------------------------------------------------------------
DEPTH    .M                          : Measured Depth
TVD      .M                          : True Vertical Depth (TVD)
CALI     .inches      UNKNOWN        : CALI:litodensidad:rC:NONE:v0 (auto-composite)
DRHO     .g/cm3       UNKNOWN        : DRHO:UNKNOWN:rC:NONE:v0 (auto-composite)
DT       .us/ft       UNKNOWN        : DT:UNKNOWN:rC:NONE:v0 (auto-composite)
GR       .API         UNKNOWN        : GR:UNKNOWN:rC:NONE:v0 (auto-composite)
GR-ENT   .API         UNKNOWN        : GR-ENT:registros:rC:NONE:v0 (auto-composite)
GR-LWD   .API         UNKNOWN        : GR-LWD:PETROWORKS:rC:NONE:v1 
LLD-LWD  .ohm.m       UNKNOWN        : LLD-LWD:PETROWORKS:rC:NONE:v1 
LLS-LWD  .ohm.m       UNKNOWN        : LLS-LWD:PETROWORKS:rC:NONE:v1 
MSFL-LWD .ohm.m       UNKNOWN        : MSFL-LWD:PETROWORKS:rC:NONE:v1 
NPHI     .v/v_decimal UNKNOWN        : NPHI:UNKNOWN:rC:NONE:v0 (auto-composite)
NPHI-ENT .v/v_decimal UNKNOWN        : NPHI-ENT:registros:rC:NONE:v0 (auto-composite)
PEF      .b/elec      UNKNOWN        : PEF:UNKNOWN:rC:NONE:v0 (auto-composite)
RHOB     .g/cm3       UNKNOWN        : RHOB:UNKNOWN:rC:NONE:v0 (auto-composite)
SIGM     .cu          UNKNOWN        : SIGM:registros:rC:NONE:v0 (auto-composite)
~A     DEPTH         TVD         CALI         DRHO           DT           GR       GR-ENT       GR-LWD      LLD-LWD      LLS-LWD     MSFL-LWD         NPHI     NPHI-ENT          PEF         RHOB         SIGM
# ...
   3906.3584   3906.3584       6.5221       0.0340      50.0328      73.5485    -999.2500      68.4917      70.6159      60.1063      62.0530       0.0727    -999.2500       4.0292       2.7374    -999.2500
   3906.5107   3906.5107       6.5439       0.0455      51.4126      76.4606    -999.2500      68.3873      74.2976      66.7443      72.6924       0.0685    -999.2500       4.1285       2.7162    -999.2500
   3906.6631   3906.6631       6.5455       0.0495      52.9102      82.1980    -999.2500      70.8048      78.0529      71.7945      80.7382       0.0637    -999.2500       4.0935       2.7239    -999.2500
   3906.8157   3906.8157       6.5361       0.0389      53.0181      82.5695    -999.2500      73.5347      81.4250      75.0851      83.7994       0.0614    -999.2500       3.9331       2.7521    -999.2500
   3906.9680   3906.9680       6.5194       0.0307      52.3947      80.0541    -999.2500      75.3695      84.0236      78.0584      84.3622       0.0587    -999.2500       3.7967       2.7736    -999.2500
   3907.1204   3907.1204       6.5236       0.0316      51.2587      79.1721    -999.2500      73.4594      85.3122      78.2114      83.1938       0.0581    -999.2500       3.7654       2.7757    -999.2500
   3907.2727   3907.2727       6.5294       0.0343      50.1353      78.1329    -999.2500      69.6310      85.3471      75.9915      81.6460       0.0581    -999.2500       3.7502       2.7851    -999.2500
   3907.4250   3907.4250       6.5288       0.0355      49.3615      78.5166    -999.2500      69.5386      84.6082      74.7607      82.2824       0.0589    -999.2500       3.7699       2.7994    -999.2500
   3907.5776   3907.5776       6.5215       0.0345      48.8401      83.1037    -999.2500      75.3340      84.0443      76.2562      85.6950       0.0604    -999.2500       3.7907       2.8093    -999.2500
   3907.7300   3907.7300       6.5162       0.0337      47.9945      87.4035    -999.2500      78.9783      83.8413      79.4843      90.9520       0.0608    -999.2500       3.7978       2.8149    -999.2500
   3907.8823   3907.8823       6.5180       0.0331      46.2444      85.0196    -999.2500      75.3717      84.7984      83.4928      99.1849       0.0583    -999.2500       3.8178       2.8285    -999.2500
   3908.0347   3908.0347       6.5198       0.0302      44.1541      79.2382    -999.2500      70.5816      86.6627      87.8988     108.6318       0.0542    -999.2500       3.8272       2.8440    -999.2500
   3908.1873   3908.1873       6.5228       0.0283      43.3309      77.6288    -999.2500      70.2790      88.0288      90.1192     112.2025       0.0500    -999.2500       3.8302       2.8443    -999.2500
   3908.3396   3908.3396       6.5260       0.0276      44.2013      84.1256    -999.2500      75.0078      88.1654      87.1935     106.3242       0.0485    -999.2500       3.8620       2.8380    -999.2500
   3908.4919   3908.4919       6.5336       0.0265      45.0686      94.1325    -999.2500      81.5509      87.6976      82.5756     100.5174       0.0491    -999.2500       3.8974       2.8363    -999.2500
   3908.6443   3908.6443       6.5431       0.0279      46.1805      98.6029    -999.2500      84.5665      87.7082      79.1217      98.0090       0.0488    -999.2500       3.9213       2.8348    -999.2500
   3908.7969   3908.7969       6.5444       0.0320      47.5590      93.9666    -999.2500      82.4893      86.9068      75.2569      92.8607       0.0486    -999.2500       3.9423       2.8253    -999.2500
   3908.9492   3908.9492       6.5360       0.0347      48.9625      87.0021    -999.2500      77.4361      85.1310      70.6061      82.8968       0.0507    -999.2500       3.9671       2.8142    -999.2500
   3909.1016   3909.1016       6.5310       0.0361      50.1093      81.7563    -999.2500      71.9254      84.8027      67.6954      74.1070       0.0534    -999.2500       3.9866       2.8088    -999.2500
   3909.2539   3909.2539       6.5413       0.0377      50.6624      78.9553    -999.2500      68.0250      85.2003      65.5047      69.2813       0.0544    -999.2500       3.9549       2.8090    -999.2500
   3909.4062   3909.4062       6.5520       0.0392      50.3110      77.6768    -999.2500      65.1830      84.2548      62.8731      66.6807       0.0544    -999.2500       3.8849       2.8102    -999.2500
   3909.5588   3909.5588       6.5518       0.0415      49.0208      74.5827    -999.2500      62.7006      82.7299      62.1881      67.3434       0.0545    -999.2500       3.8601       2.8087    -999.2500
   3909.7112   3909.7112       6.5479       0.0440      47.5402      72.5864    -999.2500      62.2261      82.2023      65.8013      71.8681       0.0534    -999.2500       3.9069       2.8110    -999.2500
   3909.8635   3909.8635       6.5427       0.0473      47.6960      73.6402    -999.2500      65.4597      83.6569      74.5139      80.5001       0.0518    -999.2500       3.9576       2.8197    -999.2500
   3910.0159   3910.0159       6.5369       0.0504      50.3655      80.0341    -999.2500      70.0984      85.2237      88.7532     100.9955       0.0519    -999.2500       3.9865       2.8242    -999.2500
   3910.1685   3910.1685       6.5333       0.0560      50.8409      87.7165    -999.2500      72.6551      86.1767     113.5356     167.8282       0.0536    -999.2500       4.0303       2.8139    -999.2500
   3910.3208   3910.3208       6.5295       0.0562      49.6193      87.6358    -999.2500      73.6303     114.9263     204.7031     372.2275       0.0575    -999.2500       4.0829       2.7847    -999.2500
   3910.4731   3910.4731       6.5280       0.0473      48.3205      85.9352    -999.2500      73.9519     244.2901     458.0728     742.2372       0.0630    -999.2500       4.1226       2.7509    -999.2500
   3910.6255   3910.6255       6.5272       0.0365      48.0504      82.0177    -999.2500      70.4320     445.9576     741.3693     992.1451       0.0685    -999.2500       4.0636       2.7531    -999.2500
   3910.7781   3910.7781       6.5255       0.0295      48.6228      66.9963    -999.2500      61.0715     442.4266     727.2602     863.1357       0.0720    -999.2500       3.9374       2.7809    -999.2500
   3910.9304   3910.9304       6.5251       0.0305      49.1919      50.4988    -999.2500      49.0773     218.1037     368.2726     369.9601       0.0671    -999.2500       3.8314       2.8169    -999.2500
   3911.0828   3911.0828       6.5320       0.0319      49.2554      51.0004    -999.2500      50.6657     114.0470     152.4570     167.0384       0.0581    -999.2500       3.8144       2.8400    -999.2500
   3911.2351   3911.2351       6.5394       0.0304      49.0039      61.5436    -999.2500      62.7357     104.7007     113.1590     140.4665       0.0549    -999.2500       3.8242       2.8486    -999.2500
   3911.3875   3911.3875       6.5427       0.0306      48.9574      74.2969    -999.2500      70.1089     101.8150      98.3708     117.2534       0.0557    -999.2500       3.8295       2.8382    -999.2500
   3911.5400   3911.5400       6.5409       0.0311      49.4134      81.2073    -999.2500      68.8131      98.0590      84.2314      96.4502       0.0575    -999.2500       3.8337       2.8233    -999.2500
   3911.6924   3911.6924       6.5405       0.0306      49.8372      75.3513    -999.2500      61.8145      94.0406      75.5598      85.7445       0.0579    -999.2500       3.8383       2.8173    -999.2500
   3911.8447   3911.8447       6.5431       0.0299      49.9376      64.8203    -999.2500      54.0184      90.9899      74.0057      83.9308       0.0574    -999.2500       3.8342       2.8197    -999.2500
   3911.9971   3911.9971       6.5497       0.0290      49.5928      58.5397    -999.2500      51.5306      88.6124      75.5595      85.3108       0.0553    -999.2500       3.8589       2.8156    -999.2500
   3912.1497   3912.1497       6.5435       0.0329      49.0891      57.4803    -999.2500      53.5185      84.8484      74.8242      83.9689       0.0562    -999.2500       3.9212       2.8069    -999.2500
