#------------------------------------------------------------------------------
#
#   Created by  : [OpenWorks] Log Export Utility (LEXP)
#   Created on  : 2015-10-01 09:42:34
#   Project     : CANT971
#   User        : R5K
#   Interpreter : PEP
#
#------------------------------------------------------------------------------
~VERSION INFORMATION
VERS. 2.0 : CWLS Log ASCII Standard - version 2.0
WRAP.  NO : One line per depth step
~WELL INFORMATION
#MNEMONIC   .UNIT                                           VALUE :DESCRIPTION
#------------------------------------------------------------------------------
STRT        .M                                          3550.1582 :START DEPTH
STOP        .M                                          4164.9399 :STOP DEPTH
STEP        .M                                             0.1524 :STEP
NULL        .                                           -999.2500 :NULL VALUE
COMP        .                                             UNKNOWN :COMPANY
WELL        .                                         SIHIL-12-ST :WELL
FLD         .                                             UNKNOWN :FIELD
LOC         .                                             UNKNOWN :LOCATION
CNTY        .                                             UNKNOWN :COUNTY
STAT        .                                             UNKNOWN :STATE
CTRY        .                                             UNKNOWN :COUNTRY
SRVC        .                                             UNKNOWN :SERVICE COMPANY
DATE        .                                             UNKNOWN :LOG DATE
UWI         .                                         SIHIL-12-ST :UNIQUE WELL ID
XCOORD      .                                            0.000000 :SURFACE X
YCOORD      .                                            0.000000 :SURFACE Y
LAT         .                                            0.000000 :LATITUDE
LON         .                                          -97.488695 :LONGITUDE
ELEV        .M                                             0.0000 :SURFACE ELEV
ELEV_TYPE   .                                                  KB :ELEV TYPE
~CURVE INFORMATION
#MNEMONIC.UNIT        API CODE       : CURVE DESCRIPTION
#------------------------------------------------------------------------------
DEPTH    .M                          : Measured Depth
TVD      .M                          : True Vertical Depth (TVD)
CALI     .inches      UNKNOWN        : CALI:litodensidad:rC:NONE:v0 (auto-composite)
DRHO     .g/cm3       UNKNOWN        : DRHO:litodensidad:rC:NONE:v0 (auto-composite)
DT       .us/ft       UNKNOWN        : DT:sonico:rC:NONE:v0 (auto-composite)
GR       .API         UNKNOWN        : GR:resistivos:rC:NONE:v0 (auto-composite)
GR-LWD   .API         UNKNOWN        : GR-LWD:resistivos-LWD:rC:NONE:v0 (auto-composite)
LLD      .ohm.m       UNKNOWN        : LLD:resistivos:rC:NONE:v0 (auto-composite)
LLD-LWD  .ohm.m       UNKNOWN        : LLD-LWD:resistivos-LWD:rC:NONE:v0 (auto-composite)
LLS      .ohm.m       UNKNOWN        : LLS:resistivos:rC:NONE:v0 (auto-composite)
LLS-LWD  .ohm.m       UNKNOWN        : LLS-LWD:resistivos-LWD:rC:NONE:v0 (auto-composite)
MSFL-LWD .ohm.m       UNKNOWN        : MSFL-LWD:resistivos-LWD:rC:NONE:v0 (auto-composite)
NPHI     .v/v_decimal UNKNOWN        : NPHI:porosidad:rC:NONE:v0 (auto-composite)
PEF      .b/elec      UNKNOWN        : PEF:litodensidad:rC:NONE:v0 (auto-composite)
RHOB     .g/cm3       UNKNOWN        : RHOB:litodensidad:rC:NONE:v0 (auto-composite)
SP       .mv          UNKNOWN        : SP:resistivos:rC:NONE:v0 (auto-composite)
~A     DEPTH         TVD         CALI         DRHO           DT           GR       GR-LWD          LLD      LLD-LWD          LLS      LLS-LWD     MSFL-LWD         NPHI          PEF         RHOB           SP
# ...
   4073.1951   4073.1951       6.5998       0.1505      52.9683      86.3244    -999.2500     459.3852    -999.2500     490.6461    -999.2500    -999.2500       0.0649       3.7849       2.4686     146.8747
   4073.3474   4073.3474       7.9233       0.1486      51.5026      80.2009    -999.2500     419.8054    -999.2500     455.9261    -999.2500    -999.2500       0.0993       4.4161       1.9012     147.0320
   4073.4998   4073.4998       8.1440       0.1336      50.0558      76.6836    -999.2500      87.7855    -999.2500      94.0137    -999.2500    -999.2500       0.1431       5.0227       1.5130     148.1448
   4073.6521   4073.6521       7.4070       0.1376      48.3386      78.6776    -999.2500      46.1746    -999.2500      48.0425    -999.2500    -999.2500       0.1496       4.8421       1.6859     148.0115
   4073.8047   4073.8047       5.3725       0.1822      45.0781      85.9531    -999.2500      54.5905    -999.2500      52.6908    -999.2500    -999.2500       0.0968       4.1902       2.3539     145.0839
   4073.9570   4073.9570       4.8096       0.1880      43.9755      90.7504    -999.2500     166.8741    -999.2500     160.6305    -999.2500    -999.2500       0.0654       4.1278       2.6651     142.3670
   4074.1094   4074.1094       4.6067       0.1143      44.1763      89.4040    -999.2500     213.1668    -999.2500     209.7672    -999.2500    -999.2500       0.0440       4.2312       2.8350     139.2503
   4074.2617   4074.2617       4.5891       0.0750      44.5554      83.9245    -999.2500     252.5885    -999.2500     250.6554    -999.2500    -999.2500       0.0435       4.2422       2.8318     139.0515
   4074.4143   4074.4143       4.6267       0.0573      45.2670      77.3059    -999.2500     244.7949    -999.2500     250.7657    -999.2500    -999.2500       0.0470       4.2282       2.8067     139.8521
   4074.5667   4074.5667       4.5817       0.0497      46.2645      69.5528    -999.2500     171.8062    -999.2500     177.4829    -999.2500    -999.2500       0.0492       4.1317       2.7872     140.0918
   4074.7190   4074.7190       4.5731       0.0520      47.0504      69.1001    -999.2500     232.1456    -999.2500     239.6873    -999.2500    -999.2500       0.0511       3.8702       2.7732     138.9272
   4074.8713   4074.8713       4.5896       0.0730      47.5629      71.2674    -999.2500     234.1727    -999.2500     237.9516    -999.2500    -999.2500       0.0509       3.7956       2.7889     137.0582
   4075.0237   4075.0237       4.6150       0.1070      47.8819      73.3742    -999.2500     183.8742    -999.2500     179.6807    -999.2500    -999.2500       0.0489       3.9498       2.8251     136.0490
   4075.1763   4075.1763       4.6183       0.1064      47.8842      75.2125    -999.2500     121.4276    -999.2500     117.6065    -999.2500    -999.2500       0.0479       4.0942       2.8236     135.8236
   4075.3286   4075.3286       4.6253       0.0859      47.4591      78.0562    -999.2500     211.8084    -999.2500     206.0294    -999.2500    -999.2500       0.0468       4.2112       2.8062     135.7254
   4075.4810   4075.4810       4.6178       0.0484      46.8127      81.5696    -999.2500     193.3894    -999.2500     194.4848    -999.2500    -999.2500       0.0461       4.2336       2.7762     135.7910
   4075.6333   4075.6333       4.6264       0.0210      46.6790      87.7215    -999.2500     100.9540    -999.2500     102.6365    -999.2500    -999.2500       0.0455       4.1403       2.7299     137.2424
   4075.7859   4075.7859       4.5888       0.0190      47.1291      90.1449    -999.2500     132.7748    -999.2500     132.6882    -999.2500    -999.2500       0.0455       4.0643       2.6996     138.8647
   4075.9382   4075.9382       4.5848       0.0579      47.5434      87.1235    -999.2500     560.5135    -999.2500     571.1021    -999.2500    -999.2500       0.0456       4.1263       2.7494     141.2653
   4076.0906   4076.0906       4.6001       0.0922      47.6266      80.5637    -999.2500     351.7873    -999.2500     372.6981    -999.2500    -999.2500       0.0462       4.1816       2.7892     143.4434
   4076.2429   4076.2429       4.5812       0.1010      47.6555      73.3748    -999.2500     162.5739    -999.2500     169.9172    -999.2500    -999.2500       0.0483       4.0879       2.7468     144.3490
   4076.3955   4076.3955       4.5805       0.1263      48.1230      66.3874    -999.2500     181.4854    -999.2500     189.4288    -999.2500    -999.2500       0.0522       3.9667       2.6953     144.7374
   4076.5479   4076.5479       4.6077       0.1651      49.6621      62.6705    -999.2500     176.8301    -999.2500     184.0897    -999.2500    -999.2500       0.0559       3.9097       2.6803     145.4544
   4076.7002   4076.7002       4.5784       0.1793      50.3451      62.2933    -999.2500     255.5330    -999.2500     261.2132    -999.2500    -999.2500       0.0576       3.8902       2.6888     147.4514
   4076.8525   4076.8525       4.5947       0.1648      48.5510      68.2804    -999.2500     344.9036    -999.2500     355.8655    -999.2500    -999.2500       0.0548       3.9604       2.7236     148.2169
   4077.0049   4077.0049       4.6325       0.1476      46.9364      77.7991    -999.2500     266.3283    -999.2500     274.0677    -999.2500    -999.2500       0.0478       4.1212       2.7940     148.0331
   4077.1575   4077.1575       4.6574       0.1327      46.5068      96.3085    -999.2500     225.0771    -999.2500     234.3099    -999.2500    -999.2500       0.0447       4.1041       2.8137     146.7475
   4077.3098   4077.3098       4.6128       0.0909      46.0880     105.8384    -999.2500      90.9646    -999.2500      96.6325    -999.2500    -999.2500       0.0456       3.9290       2.8144     145.8805
   4077.4622   4077.4622       4.6143       0.0774      45.3828     108.3382    -999.2500      89.3067    -999.2500      93.1034    -999.2500    -999.2500       0.0463       3.9025       2.8174     145.0834
   4077.6145   4077.6145       4.5867       0.0798      44.9926     106.6960    -999.2500     187.9182    -999.2500     196.7592    -999.2500    -999.2500       0.0439       4.0804       2.8278     143.6167
   4077.7671   4077.7671       4.5716       0.0809      45.0516     101.3160    -999.2500     201.6859    -999.2500     214.9692    -999.2500    -999.2500       0.0417       4.1567       2.8178     140.8393
   4077.9194   4077.9194       4.5957       0.0828      45.2109      96.9477    -999.2500     219.1121    -999.2500     234.0475    -999.2500    -999.2500       0.0412       4.1195       2.7874     140.0719
   4078.0718   4078.0718       4.5893       0.0875      45.6373      90.4783    -999.2500     195.5559    -999.2500     211.0655    -999.2500    -999.2500       0.0417       4.0918       2.7822     141.3599
   4078.2241   4078.2241       4.6265       0.0862      47.2608      84.0109    -999.2500     143.2585    -999.2500     154.2197    -999.2500    -999.2500       0.0420       4.0235       2.7870     142.7507
   4078.3767   4078.3767       4.6194       0.0778      49.0962      80.7863    -999.2500     152.9938    -999.2500     164.6972    -999.2500    -999.2500       0.0418       4.0098       2.7957     143.4232
   4078.5291   4078.5291       4.6075       0.0613      49.8270      74.4465    -999.2500     194.3229    -999.2500     206.5863    -999.2500    -999.2500       0.0435       4.0515       2.7969     144.3638
   4078.6814   4078.6814       4.5942       0.0413      50.1718      72.6659    -999.2500     187.7514    -999.2500     198.9762    -999.2500    -999.2500       0.0472       4.0644       2.7724     145.9470
   4078.8337   4078.8337       4.5962       0.0523      49.4868      70.3175    -999.2500     119.4041    -999.2500     126.5535    -999.2500    -999.2500       0.0501       4.0092       2.7624     147.7245
   4078.9861   4078.9861       4.5647       0.0846      47.8632      70.2977    -999.2500     137.5799    -999.2500     144.0573    -999.2500    -999.2500       0.0499       3.9625       2.7764     147.2538
