#------------------------------------------------------------------------------
#
#   Created by  : [OpenWorks] Log Export Utility (LEXP)
#   Created on  : 2015-10-01 09:41:14
#   Project     : CANT971
#   User        : R5K
#   Interpreter : PEP
#
#------------------------------------------------------------------------------
~VERSION INFORMATION
VERS. 2.0 : CWLS Log ASCII Standard - version 2.0
WRAP.  NO : One line per depth step
~WELL INFORMATION
#MNEMONIC   .UNIT                                           VALUE :DESCRIPTION
#------------------------------------------------------------------------------
STRT        .M                                          1374.3848 :START DEPTH
STOP        .M                                          3939.4292 :STOP DEPTH
STEP        .M                                             0.1524 :STEP
NULL        .                                           -999.2500 :NULL VALUE
COMP        .                                             UNKNOWN :COMPANY
WELL        .                                         SIHIL-11-ST :WELL
FLD         .                                             UNKNOWN :FIELD
LOC         .                                             UNKNOWN :LOCATION
CNTY        .                                             UNKNOWN :COUNTY
STAT        .                                             UNKNOWN :STATE
CTRY        .                                             UNKNOWN :COUNTRY
SRVC        .                                             UNKNOWN :SERVICE COMPANY
DATE        .                                             UNKNOWN :LOG DATE
UWI         .                                         SIHIL-11-ST :UNIQUE WELL ID
XCOORD      .                                       599653.950000 :SURFACE X
YCOORD      .                                      2147230.550000 :SURFACE Y
LAT         .                                           19.418046 :LATITUDE
LON         .                                          -92.050821 :LONGITUDE
ELEV        .M                                             0.0000 :SURFACE ELEV
ELEV_TYPE   .                                                  KB :ELEV TYPE
~CURVE INFORMATION
#MNEMONIC.UNIT        API CODE       : CURVE DESCRIPTION
#------------------------------------------------------------------------------
DEPTH    .M                          : Measured Depth
TVD      .M                          : True Vertical Depth (TVD)
CALI     .inches      UNKNOWN        : CALI:litodensidad:rC:NONE:v0 (auto-composite)
DRHO     .g/cm3       UNKNOWN        : DRHO:UNKNOWN:rC:NONE:v0 (auto-composite)
DT       .us/ft       UNKNOWN        : DT:UNKNOWN:rC:NONE:v0 (auto-composite)
GR       .API         UNKNOWN        : GR:UNKNOWN:rC:NONE:v0 (auto-composite)
GR-ENT   .API         UNKNOWN        : GR-ENT:registros:rC:NONE:v0 (auto-composite)
GR-LWD   .API         UNKNOWN        : GR-LWD:PETROWORKS:rC:NONE:v1 
LLD-LWD  .ohm.m       UNKNOWN        : LLD-LWD:PETROWORKS:rC:NONE:v1 
LLS-LWD  .ohm.m       UNKNOWN        : LLS-LWD:PETROWORKS:rC:NONE:v1 
MSFL-LWD .ohm.m       UNKNOWN        : MSFL-LWD:PETROWORKS:rC:NONE:v1 
NPHI     .v/v_decimal UNKNOWN        : NPHI:UNKNOWN:rC:NONE:v0 (auto-composite)
NPHI-ENT .v/v_decimal UNKNOWN        : NPHI-ENT:registros:rC:NONE:v0 (auto-composite)
PEF      .b/elec      UNKNOWN        : PEF:UNKNOWN:rC:NONE:v0 (auto-composite)
RHOB     .g/cm3       UNKNOWN        : RHOB:UNKNOWN:rC:NONE:v0 (auto-composite)
SIGM     .cu          UNKNOWN        : SIGM:registros:rC:NONE:v0 (auto-composite)
~A     DEPTH         TVD         CALI         DRHO           DT           GR       GR-ENT       GR-LWD      LLD-LWD      LLS-LWD     MSFL-LWD         NPHI     NPHI-ENT          PEF         RHOB         SIGM
# ...
   3793.4299   3793.4299       6.5849      -0.0017      62.9564      23.3112    -999.2500      22.8664     112.5847     144.0259     192.2228       0.1388    -999.2500       3.8793       2.6834    -999.2500
   3793.5823   3793.5823       6.5731      -0.0046      59.1819      24.1410    -999.2500      26.6676     112.7181     153.2546     198.4666       0.1680    -999.2500       3.8570       2.5872    -999.2500
   3793.7349   3793.7349       6.5677      -0.0030      56.4889      28.9873    -999.2500      35.5302     110.9302     148.9496     190.8414       0.1818    -999.2500       3.8512       2.5108    -999.2500
   3793.8872   3793.8872       6.5651       0.0027      55.0853      37.4245    -999.2500      41.3501     109.8968     135.4941     191.2944       0.1689    -999.2500       3.8899       2.5030    -999.2500
   3794.0396   3794.0396       6.5595       0.0061      54.3367      41.7229    -999.2500      39.9463     113.0225     117.4033     195.5371       0.1457    -999.2500       3.9438       2.5112    -999.2500
   3794.1919   3794.1919       6.5596       0.0086      54.7687      39.7098    -999.2500      34.8220     116.2204      96.8820     176.6123       0.1211    -999.2500       3.9699       2.5578    -999.2500
   3794.3445   3794.3445       6.5685       0.0122      56.7100      40.3081    -999.2500      33.8896     110.4536      75.6134     121.6755       0.0969    -999.2500       3.9507       2.6540    -999.2500
   3794.4968   3794.4968       6.5718       0.0114      59.6094      45.9282    -999.2500      40.1874      93.5312      58.7194      70.1626       0.0860    -999.2500       3.8888       2.7112    -999.2500
   3794.6492   3794.6492       6.5721       0.0086      62.7968      52.2837    -999.2500      46.9797      71.9162      47.4245      45.7528       0.0933    -999.2500       3.8507       2.6595    -999.2500
   3794.8015   3794.8015       6.5685       0.0082      64.6315      53.9138    -999.2500      49.5721      56.6717      44.5023      45.9390       0.1214    -999.2500       3.8602       2.5404    -999.2500
   3794.9539   3794.9539       6.5644       0.0091      63.9663      49.6687    -999.2500      47.9292      56.7508      55.1821      70.6559       0.1580    -999.2500       3.8824       2.4394    -999.2500
   3795.1064   3795.1064       6.5683       0.0111      62.1560      47.4003    -999.2500      45.9074      72.1448      80.3822     123.9521       0.1484    -999.2500       3.9209       2.4781    -999.2500
   3795.2588   3795.2588       6.5767       0.0140      60.7651      48.7539    -999.2500      47.9080      92.3161     103.9437     173.3234       0.1145    -999.2500       4.0193       2.5768    -999.2500
   3795.4111   3795.4111       6.5808       0.0086      59.6807      53.5735    -999.2500      54.6135     109.7329     110.4739     181.1105       0.1001    -999.2500       4.0605       2.5894    -999.2500
   3795.5635   3795.5635       6.5788      -0.0048      58.4775      64.4687    -999.2500      63.6718     120.3888      99.2475     151.8875       0.0966    -999.2500       4.0159       2.5522    -999.2500
   3795.7161   3795.7161       6.5772      -0.0110      57.7514      78.7012    -999.2500      75.7210     123.0920      80.9187     110.0645       0.0977    -999.2500       3.9687       2.5790    -999.2500
   3795.8684   3795.8684       6.5809      -0.0118      58.0605      99.7843    -999.2500      93.4084     114.2124      66.4009      74.8186       0.0937    -999.2500       3.9607       2.6645    -999.2500
   3796.0208   3796.0208       6.5842      -0.0101      58.9234     115.2189    -999.2500     108.5659      95.5615      57.4865      56.4658       0.0889    -999.2500       3.9783       2.7088    -999.2500
   3796.1731   3796.1731       6.5859      -0.0092      59.0283     121.1394    -999.2500     107.7564      82.1087      59.2797      62.4600       0.0915    -999.2500       4.0267       2.7072    -999.2500
   3796.3257   3796.3257       6.5845      -0.0094      57.3434     104.0885    -999.2500      91.1916      83.5603      79.0873     100.7651       0.1040    -999.2500       4.0798       2.6479    -999.2500
   3796.4780   3796.4780       6.5798      -0.0063      54.6390      80.1133    -999.2500      76.1495     102.0541     118.0399     182.2505       0.1186    -999.2500       4.0766       2.5744    -999.2500
   3796.6304   3796.6304       6.5773       0.0009      52.6671      69.9383    -999.2500      75.8605     129.2540     154.8360     293.8439       0.1206    -999.2500       4.0157       2.5706    -999.2500
   3796.7827   3796.7827       6.5809       0.0124      52.1515      77.3617    -999.2500      77.8943     150.1727     175.7471     371.2140       0.1002    -999.2500       3.9758       2.6713    -999.2500
   3796.9351   3796.9351       6.5843       0.0256      52.8817      83.9140    -999.2500      77.1181     162.7695     181.3262     355.3583       0.0794    -999.2500       4.0066       2.7619    -999.2500
   3797.0876   3797.0876       6.5871       0.0342      54.4411      84.9067    -999.2500      77.3849     159.8496     171.8717     260.5930       0.0733    -999.2500       4.1099       2.7694    -999.2500
   3797.2400   3797.2400       6.5938       0.0348      56.3469      82.7997    -999.2500      78.1794     138.4508     150.7901     169.8285       0.0755    -999.2500       4.1637       2.7569    -999.2500
   3797.3923   3797.3923       6.5995       0.0275      57.6529      78.5995    -999.2500      74.0918     116.3282     141.5532     172.9474       0.0786    -999.2500       4.1089       2.7492    -999.2500
   3797.5447   3797.5447       6.6068       0.0191      57.7051      72.4318    -999.2500      69.6185     107.1754     173.2581     302.1321       0.0814    -999.2500       4.0407       2.7232    -999.2500
   3797.6973   3797.6973       6.6090       0.0115      56.4720      65.0493    -999.2500      61.1414     100.1459     218.6579     580.4750       0.0874    -999.2500       3.9802       2.6859    -999.2500
   3797.8496   3797.8496       6.6075       0.0055      54.2934      58.0527    -999.2500      51.8405      87.4670     257.2473     922.3146       0.0935    -999.2500       3.9130       2.6681    -999.2500
   3798.0020   3798.0020       6.6055       0.0044      52.3913      51.6121    -999.2500      47.7654      69.7292     271.6297    1025.2863       0.0988    -999.2500       3.8397       2.6679    -999.2500
   3798.1543   3798.1543       6.5979       0.0079      51.7497      48.2462    -999.2500      45.3530      52.6133     236.4378     844.7842       0.1022    -999.2500       3.7752       2.6675    -999.2500
   3798.3069   3798.3069       6.5956       0.0129      52.2163      49.1612    -999.2500      43.2481      42.4412     186.4256     630.8680       0.1022    -999.2500       3.7798       2.6557    -999.2500
   3798.4592   3798.4592       6.6021       0.0227      53.0723      48.4671    -999.2500      43.4533      37.0096     141.2467     486.8369       0.1035    -999.2500       3.7963       2.6426    -999.2500
   3798.6116   3798.6116       6.6128       0.0316      53.8912      48.1785    -999.2500      45.4091      30.7260      95.3766     338.3810       0.1029    -999.2500       3.7657       2.6526    -999.2500
   3798.7639   3798.7639       6.6299       0.0358      55.0810      50.6060    -999.2500      47.1304      23.2032      52.5446     150.2629       0.0996    -999.2500       3.7114       2.6762    -999.2500
   3798.9163   3798.9163       6.6430       0.0349      57.2578      58.3368    -999.2500      53.0657      18.5518      28.0461      58.8271       0.0990    -999.2500       3.6910       2.6879    -999.2500
   3799.0688   3799.0688       6.6528       0.0385      60.1351      78.6763    -999.2500      73.1214      15.0357      16.1903      26.3800       0.0989    -999.2500       3.6822       2.6929    -999.2500
   3799.2212   3799.2212       6.6654       0.0435      62.7348     105.4084    -999.2500     100.6474      11.2526       9.7172      11.6934       0.1066    -999.2500       3.8181       2.6774    -999.2500
