#------------------------------------------------------------------------------
#
#   Created by  : [OpenWorks] Log Export Utility (LEXP)
#   Created on  : 2015-10-01 09:41:14
#   Project     : CANT971
#   User        : R5K
#   Interpreter : PEP
#
#------------------------------------------------------------------------------
~VERSION INFORMATION
VERS. 2.0 : CWLS Log ASCII Standard - version 2.0
WRAP.  NO : One line per depth step
~WELL INFORMATION
#MNEMONIC   .UNIT                                           VALUE :DESCRIPTION
#------------------------------------------------------------------------------
STRT        .M                                          1374.3848 :START DEPTH
STOP        .M                                          3939.4292 :STOP DEPTH
STEP        .M                                             0.1524 :STEP
NULL        .                                           -999.2500 :NULL VALUE
COMP        .                                             UNKNOWN :COMPANY
WELL        .                                         SIHIL-11-ST :WELL
FLD         .                                             UNKNOWN :FIELD
LOC         .                                             UNKNOWN :LOCATION
CNTY        .                                             UNKNOWN :COUNTY
STAT        .                                             UNKNOWN :STATE
CTRY        .                                             UNKNOWN :COUNTRY
SRVC        .                                             UNKNOWN :SERVICE COMPANY
DATE        .                                             UNKNOWN :LOG DATE
UWI         .                                         SIHIL-11-ST :UNIQUE WELL ID
XCOORD      .                                       599653.950000 :SURFACE X
YCOORD      .                                      2147230.550000 :SURFACE Y
LAT         .                                           19.418046 :LATITUDE
LON         .                                          -92.050821 :LONGITUDE
ELEV        .M                                             0.0000 :SURFACE ELEV
ELEV_TYPE   .                                                  KB :ELEV TYPE
~CURVE INFORMATION
#MNEMONIC.UNIT        API CODE       : CURVE DESCRIPTION
#------------------------------------------------------------------------------
DEPTH    .M                          : Measured Depth
TVD      .M                          : True Vertical Depth (TVD)
CALI     .inches      UNKNOWN        : CALI:litodensidad:rC:NONE:v0 (auto-composite)
DRHO     .g/cm3       UNKNOWN        : DRHO:UNKNOWN:rC:NONE:v0 (auto-composite)
DT       .us/ft       UNKNOWN        : DT:UNKNOWN:rC:NONE:v0 (auto-composite)
GR       .API         UNKNOWN        : GR:UNKNOWN:rC:NONE:v0 (auto-composite)
GR-ENT   .API         UNKNOWN        : GR-ENT:registros:rC:NONE:v0 (auto-composite)
GR-LWD   .API         UNKNOWN        : GR-LWD:PETROWORKS:rC:NONE:v1 
LLD-LWD  .ohm.m       UNKNOWN        : LLD-LWD:PETROWORKS:rC:NONE:v1 
LLS-LWD  .ohm.m       UNKNOWN        : LLS-LWD:PETROWORKS:rC:NONE:v1 
MSFL-LWD .ohm.m       UNKNOWN        : MSFL-LWD:PETROWORKS:rC:NONE:v1 
NPHI     .v/v_decimal UNKNOWN        : NPHI:UNKNOWN:rC:NONE:v0 (auto-composite)
NPHI-ENT .v/v_decimal UNKNOWN        : NPHI-ENT:registros:rC:NONE:v0 (auto-composite)
PEF      .b/elec      UNKNOWN        : PEF:UNKNOWN:rC:NONE:v0 (auto-composite)
RHOB     .g/cm3       UNKNOWN        : RHOB:UNKNOWN:rC:NONE:v0 (auto-composite)
SIGM     .cu          UNKNOWN        : SIGM:registros:rC:NONE:v0 (auto-composite)
~A     DEPTH         TVD         CALI         DRHO           DT           GR       GR-ENT       GR-LWD      LLD-LWD      LLS-LWD     MSFL-LWD         NPHI     NPHI-ENT          PEF         RHOB         SIGM
# ...
   3912.3020   3912.3020       6.5293       0.0470      49.0624      57.9314    -999.2500      54.6632      81.9118      73.6574      83.0396       0.0604    -999.2500       4.0417       2.7994    -999.2500
   3912.4543   3912.4543       6.5350       0.0633      49.7627      59.1096    -999.2500      56.8512      81.4076      72.9866      84.2122       0.0653    -999.2500       4.2512       2.7845    -999.2500
   3912.6067   3912.6067       6.5375       0.0587      50.7496      63.7698    -999.2500      61.9210      84.1391      73.0124      87.7288       0.0683    -999.2500       4.2940       2.7795    -999.2500
   3912.7593   3912.7593       6.5327       0.0432      51.6907      70.9406    -999.2500      67.2266      89.1040      74.1049      92.4354       0.0700    -999.2500       4.1230       2.7902    -999.2500
   3912.9116   3912.9116       6.5318       0.0324      52.7745      73.9243    -999.2500      69.0779      93.3349      75.6935      95.0032       0.0653    -999.2500       3.9655       2.7971    -999.2500
   3913.0640   3913.0640       6.5380       0.0223      54.8167      75.3853    -999.2500      68.1028      95.7709      76.8774      93.4821       0.0596    -999.2500       3.9222       2.7966    -999.2500
   3913.2163   3913.2163       6.5391       0.0204      58.0394      71.4326    -999.2500      65.3922      95.0004      76.3736      86.9165       0.0589    -999.2500       3.9570       2.7978    -999.2500
   3913.3687   3913.3687       6.5407       0.0225      59.7367      64.1111    -999.2500      63.2304      91.4631      74.1471      78.7153       0.0591    -999.2500       3.9406       2.8024    -999.2500
   3913.5212   3913.5212       6.5527       0.0264      60.3234      64.6252    -999.2500      63.6798      89.0261      74.0080      76.7882       0.0589    -999.2500       3.8739       2.8120    -999.2500
   3913.6736   3913.6736       6.5629       0.0313      59.1432      72.8860    -999.2500      67.1773      88.2560      77.3632      81.3283       0.0578    -999.2500       3.8376       2.8297    -999.2500
   3913.8259   3913.8259       6.5651       0.0345      56.0855      83.1101    -999.2500      73.6957      88.4691      80.8041      88.0223       0.0589    -999.2500       3.8818       2.8391    -999.2500
   3913.9783   3913.9783       6.5595       0.0397      51.8901      94.0519    -999.2500      84.0463      90.7442      83.9825      98.5532       0.0568    -999.2500       3.9240       2.8484    -999.2500
   3914.1309   3914.1309       6.5611       0.0445      48.3518     108.5947    -999.2500      99.8038      93.8665      87.6652     112.2581       0.0510    -999.2500       3.9331       2.8560    -999.2500
   3914.2832   3914.2832       6.5715       0.0468      46.4642     130.8267    -999.2500     118.5200      95.7604      92.2244     123.3677       0.0460    -999.2500       3.9114       2.8585    -999.2500
   3914.4355   3914.4355       6.5797       0.0469      45.7546     141.6357    -999.2500     126.5873      98.5005      97.1174     126.7166       0.0431    -999.2500       3.8644       2.8537    -999.2500
   3914.5879   3914.5879       6.5901       0.0441      45.8831     122.5747    -999.2500     114.7160     103.0826     101.0178     119.6555       0.0434    -999.2500       3.8194       2.8348    -999.2500
   3914.7405   3914.7405       6.5859       0.0412      46.7724     102.9723    -999.2500      97.9057     106.8786     100.4466     103.0850       0.0447    -999.2500       3.8077       2.8118    -999.2500
   3914.8928   3914.8928       6.5864       0.0385      47.3914     101.6861    -999.2500      93.4253     105.7056      90.0067      82.1790       0.0479    -999.2500       3.8316       2.8020    -999.2500
   3915.0452   3915.0452       6.5826       0.0357      48.2009     103.7590    -999.2500      96.0685      98.8706      76.7080      70.1130       0.0517    -999.2500       3.8532       2.8025    -999.2500
   3915.1975   3915.1975       6.5678       0.0324      49.6038     100.2800    -999.2500      92.2262      94.0165      75.1982      75.7558       0.0527    -999.2500       3.8142       2.8030    -999.2500
   3915.3499   3915.3499       6.5523       0.0315      50.7466      95.7419    -999.2500      84.9782      93.5454      80.6997      86.3542       0.0524    -999.2500       3.7412       2.8011    -999.2500
   3915.5024   3915.5024       6.5543       0.0501      50.5858      92.7253    -999.2500      80.6762      93.1810      85.2558      91.8473       0.0551    -999.2500       3.7502       2.8041    -999.2500
   3915.6548   3915.6548       6.5976       0.0984      50.1871      87.6691    -999.2500      77.4253      91.3641      89.0288      95.5785       0.0602    -999.2500       3.9501       2.7988    -999.2500
   3915.8071   3915.8071       6.7897       0.1250      48.7973      80.6449    -999.2500      73.4820      87.9669      93.3714     102.6376       0.0600    -999.2500       4.2244       2.7725    -999.2500
   3915.9595   3915.9595       6.7838       0.1118      47.0798      75.4145    -999.2500      70.0537      80.1273      95.3032     110.8134       0.0595    -999.2500       4.3427       2.7559    -999.2500
   3916.1121   3916.1121       6.6483       0.0749      47.2411      76.1040    -999.2500      68.7133      68.3701      88.4106     111.4029       0.0580    -999.2500       4.0806       2.7781    -999.2500
   3916.2644   3916.2644       6.5498       0.0443      48.0063      77.8819    -999.2500      77.7346      72.5846      63.4846      82.0112       0.0525    -999.2500       3.7201       2.8058    -999.2500
   3916.4167   3916.4167       6.5358       0.0381      48.9259      80.0938    -999.2500      92.6751      97.2739      32.0247      38.9042       0.0490    -999.2500       3.6134       2.8158    -999.2500
   3916.5691   3916.5691       6.5330       0.0392      49.6332      84.2765    -999.2500     105.5186     104.5857      13.6198      14.7960       0.0479    -999.2500       3.6312       2.8277    -999.2500
   3916.7217   3916.7217       6.5334       0.0410      48.9099      95.0948    -999.2500     143.0172      56.7527       7.8088       6.3614       0.0504    -999.2500       3.7258       2.8210    -999.2500
   3916.8740   3916.8740       6.5355       0.0385      48.8090     108.8047    -999.2500     149.7460      37.1663       7.1492       5.9390       0.0552    -999.2500       3.8234       2.7983    -999.2500
   3917.0264   3917.0264       6.5323       0.0369      48.9517     106.6262    -999.2500     146.6428      32.9778       7.3640       6.2771       0.0617    -999.2500       3.8413       2.7862    -999.2500
   3917.1787   3917.1787       6.5327       0.0392      50.6763     110.6719    -999.2500     143.5404      28.7836       7.5790       6.6158       0.0716    -999.2500       3.8371       2.7772    -999.2500
   3917.3311   3917.3311       6.5392       0.0437      53.9749     138.3143    -999.2500     140.4409      24.5901       7.7940       6.9545       0.0825    -999.2500       3.8505       2.7703    -999.2500
   3917.4836   3917.4836       6.5392       0.0466      54.8511     159.3904    -999.2500     137.3080      20.4040       8.0129       7.2967       0.0952    -999.2500       3.8779       2.7716    -999.2500
   3917.6360   3917.6360       6.5270       0.0480      55.3209     140.4722    -999.2500     129.8574      17.1082       8.8097       8.1898       0.1020    -999.2500       3.8909       2.7789    -999.2500
   3917.7883   3917.7883       6.5227       0.0492      53.7419     103.0833    -999.2500     105.0526      20.6062      15.3748      15.6783       0.0849    -999.2500       3.9013       2.7918    -999.2500
   3917.9407   3917.9407       6.5382       0.0499      50.3696      81.1583    -999.2500      72.3854      36.1680      33.3688      37.5674       0.0695    -999.2500       3.9173       2.8178    -999.2500
   3918.0933   3918.0933       6.5613       0.0528      49.4404      72.6884    -999.2500      64.5346      53.0181      50.9792      59.8056       0.0609    -999.2500       3.9237       2.8600    -999.2500
