#------------------------------------------------------------------------------
#
#   Created by  : [OpenWorks] Log Export Utility (LEXP)
#   Created on  : 2015-10-01 09:42:34
#   Project     : CANT971
#   User        : R5K
#   Interpreter : PEP
#
#------------------------------------------------------------------------------
~VERSION INFORMATION
VERS. 2.0 : CWLS Log ASCII Standard - version 2.0
WRAP.  NO : One line per depth step
~WELL INFORMATION
#MNEMONIC   .UNIT                                           VALUE :DESCRIPTION
#------------------------------------------------------------------------------
STRT        .M                                          3550.1582 :START DEPTH
STOP        .M                                          4164.9399 :STOP DEPTH
STEP        .M                                             0.1524 :STEP
NULL        .                                           -999.2500 :NULL VALUE
COMP        .                                             UNKNOWN :COMPANY
WELL        .                                         SIHIL-12-ST :WELL
FLD         .                                             UNKNOWN :FIELD
LOC         .                                             UNKNOWN :LOCATION
CNTY        .                                             UNKNOWN :COUNTY
STAT        .                                             UNKNOWN :STATE
CTRY        .                                             UNKNOWN :COUNTRY
SRVC        .                                             UNKNOWN :SERVICE COMPANY
DATE        .                                             UNKNOWN :LOG DATE
UWI         .                                         SIHIL-12-ST :UNIQUE WELL ID
XCOORD      .                                            0.000000 :SURFACE X
YCOORD      .                                            0.000000 :SURFACE Y
LAT         .                                            0.000000 :LATITUDE
LON         .                                          -97.488695 :LONGITUDE
ELEV        .M                                             0.0000 :SURFACE ELEV
ELEV_TYPE   .                                                  KB :ELEV TYPE
~CURVE INFORMATION
#MNEMONIC.UNIT        API CODE       : CURVE DESCRIPTION
#------------------------------------------------------------------------------
DEPTH    .M                          : Measured Depth
TVD      .M                          : True Vertical Depth (TVD)
CALI     .inches      UNKNOWN        : CALI:litodensidad:rC:NONE:v0 (auto-composite)
DRHO     .g/cm3       UNKNOWN        : DRHO:litodensidad:rC:NONE:v0 (auto-composite)
DT       .us/ft       UNKNOWN        : DT:sonico:rC:NONE:v0 (auto-composite)
GR       .API         UNKNOWN        : GR:resistivos:rC:NONE:v0 (auto-composite)
GR-LWD   .API         UNKNOWN        : GR-LWD:resistivos-LWD:rC:NONE:v0 (auto-composite)
LLD      .ohm.m       UNKNOWN        : LLD:resistivos:rC:NONE:v0 (auto-composite)
LLD-LWD  .ohm.m       UNKNOWN        : LLD-LWD:resistivos-LWD:rC:NONE:v0 (auto-composite)
LLS      .ohm.m       UNKNOWN        : LLS:resistivos:rC:NONE:v0 (auto-composite)
LLS-LWD  .ohm.m       UNKNOWN        : LLS-LWD:resistivos-LWD:rC:NONE:v0 (auto-composite)
MSFL-LWD .ohm.m       UNKNOWN        : MSFL-LWD:resistivos-LWD:rC:NONE:v0 (auto-composite)
NPHI     .v/v_decimal UNKNOWN        : NPHI:porosidad:rC:NONE:v0 (auto-composite)
PEF      .b/elec      UNKNOWN        : PEF:litodensidad:rC:NONE:v0 (auto-composite)
RHOB     .g/cm3       UNKNOWN        : RHOB:litodensidad:rC:NONE:v0 (auto-composite)
SP       .mv          UNKNOWN        : SP:resistivos:rC:NONE:v0 (auto-composite)
~A     DEPTH         TVD         CALI         DRHO           DT           GR       GR-LWD          LLD      LLD-LWD          LLS      LLS-LWD     MSFL-LWD         NPHI          PEF         RHOB           SP
# ...
   4001.8718   4001.8718       4.6868      -1.1711      61.1130      52.5508    -999.2500    -999.2500    -999.2500    -999.2500    -999.2500    -999.2500       0.1934      15.7276       2.1533    -999.2500
   4002.0242   4002.0242       4.6856      -1.1942      60.0054      49.3450    -999.2500    -999.2500    -999.2500    -999.2500    -999.2500    -999.2500       0.1938      15.9087       2.1213    -999.2500
   4002.1765   4002.1765       4.6860      -1.1929      59.3525      46.9313    -999.2500    -999.2500    -999.2500    -999.2500    -999.2500    -999.2500       0.1929      15.9948       2.1131    -999.2500
   4002.3291   4002.3291       4.6880      -1.1772      58.4798      46.0455    -999.2500    -999.2500    -999.2500    -999.2500    -999.2500    -999.2500       0.1924      15.8488       2.1214    -999.2500
   4002.4814   4002.4814       4.6899      -1.1467      57.6220      46.9313    -999.2500    -999.2500    -999.2500    -999.2500    -999.2500    -999.2500       0.1975      15.2099       2.1483    -999.2500
   4002.6338   4002.6338       4.6837      -1.1276      57.6371      47.2093    -999.2500    -999.2500    -999.2500    -999.2500    -999.2500    -999.2500       0.2000      14.5926       2.1708    -999.2500
   4002.7861   4002.7861       4.6795      -1.1178      58.8200      47.6724    -999.2500    -999.2500    -999.2500    -999.2500    -999.2500    -999.2500       0.1985      14.0772       2.1893    -999.2500
   4002.9387   4002.9387       4.6779      -1.1214      59.8295      48.0039    -999.2500    -999.2500    -999.2500    -999.2500    -999.2500    -999.2500       0.1943      13.9317       2.1851    -999.2500
   4003.0911   4003.0911       4.6773      -1.1434      59.9706      48.9376    -999.2500    -999.2500    -999.2500    -999.2500    -999.2500    -999.2500       0.1918      13.9611       2.1583    -999.2500
   4003.2434   4003.2434       4.6768      -1.1830      60.0035      50.1492    -999.2500    -999.2500    -999.2500    -999.2500    -999.2500    -999.2500       0.1956      14.0865       2.1256    -999.2500
   4003.3958   4003.3958       4.6744      -1.2120      60.6974      50.9131    -999.2500    -999.2500    -999.2500    -999.2500    -999.2500    -999.2500       0.2016      14.1951       2.1167    -999.2500
   4003.5481   4003.5481       4.6758      -1.1995      62.6477      50.7588    -999.2500    -999.2500    -999.2500    -999.2500    -999.2500    -999.2500       0.1997      14.0462       2.1468    -999.2500
   4003.7007   4003.7007       4.6776      -1.1675      64.5014      47.7407    -999.2500    -999.2500    -999.2500    -999.2500    -999.2500    -999.2500       0.1957      13.7515       2.1776    -999.2500
   4003.8530   4003.8530       4.6829      -1.1392      64.8032      47.0378    -999.2500    -999.2500    -999.2500    -999.2500    -999.2500    -999.2500       0.1920      13.4046       2.2007    -999.2500
   4004.0054   4004.0054       4.6795      -1.1309      64.2934      48.0320    -999.2500    -999.2500    -999.2500    -999.2500    -999.2500    -999.2500       0.1855      12.7018       2.2057    -999.2500
   4004.1577   4004.1577       4.6812      -1.1548      63.8570      49.5638    -999.2500    -999.2500    -999.2500    -999.2500    -999.2500    -999.2500       0.1858      13.0533       2.1729    -999.2500
   4004.3103   4004.3103       4.6842      -1.1937      63.9333      52.0447    -999.2500    -999.2500    -999.2500    -999.2500    -999.2500    -999.2500       0.1816      15.1230       2.1347    -999.2500
   4004.4626   4004.4626       4.6848      -1.1912      64.6353      53.0697    -999.2500    -999.2500    -999.2500    -999.2500    -999.2500    -999.2500       0.1825      15.8947       2.1485    -999.2500
   4004.6150   4004.6150       4.6944      -1.1562      64.7497      51.7635    -999.2500    -999.2500    -999.2500    -999.2500    -999.2500    -999.2500       0.1782      15.8499       2.1786    -999.2500
   4004.7673   4004.7673       4.6968      -1.1387      62.5285      48.7435    -999.2500    -999.2500    -999.2500    -999.2500    -999.2500    -999.2500       0.1761      15.5671       2.1872    -999.2500
   4004.9199   4004.9199       4.7052      -1.1467      60.8244      47.3111    -999.2500    -999.2500    -999.2500    -999.2500    -999.2500    -999.2500       0.1715      14.1212       2.1972    -999.2500
   4005.0723   4005.0723       4.7053      -1.1733      60.9372      45.6017    -999.2500    -999.2500    -999.2500    -999.2500    -999.2500    -999.2500       0.1691      12.8303       2.1957    -999.2500
   4005.2246   4005.2246       4.7069      -1.2174      61.8299      45.3899    -999.2500    -999.2500    -999.2500    -999.2500    -999.2500    -999.2500       0.1656      11.7935       2.1917    -999.2500
   4005.3770   4005.3770       4.6977      -1.2461      62.2864      45.0935    -999.2500    -999.2500    -999.2500    -999.2500    -999.2500    -999.2500       0.1672      11.8758       2.1626    -999.2500
   4005.5293   4005.5293       4.6713      -1.2795      62.0645      44.9569    -999.2500    -999.2500    -999.2500    -999.2500    -999.2500    -999.2500       0.1731      11.7714       2.0101    -999.2500
   4005.6819   4005.6819       4.6551      -1.2702      61.0461      47.4693    -999.2500    -999.2500    -999.2500    -999.2500    -999.2500    -999.2500       0.1796      10.6918       1.6904    -999.2500
   4005.8342   4005.8342       4.6878      -1.1048      58.6221      49.2204    -999.2500    -999.2500    -999.2500    -999.2500    -999.2500    -999.2500       0.1895      10.3610       1.8256    -999.2500
   4005.9866   4005.9866       4.7249      -0.7935      56.2171      52.6902    -999.2500    -999.2500    -999.2500    -999.2500    -999.2500    -999.2500       0.2001      11.4252       2.4672    -999.2500
   4006.1389   4006.1389       4.6941      -0.4685      56.1602      55.0246    -999.2500      77.1679    -999.2500      23.0872    -999.2500    -999.2500       0.2109      11.5430       2.8835     170.1118
   4006.2915   4006.2915       4.8025      -0.1039      56.7329      57.6069    -999.2500     130.8892    -999.2500      20.6127    -999.2500    -999.2500       0.2201      10.3941       2.9573     165.7942
   4006.4438   4006.4438       5.0029       0.1406      57.3056      63.1580    -999.2500     130.1199    -999.2500      20.5658    -999.2500    -999.2500       0.2079       8.6625       2.7033     161.0662
   4006.5962   4006.5962       5.4993       0.3076      57.8782      65.7303    -999.2500     137.2801    -999.2500      21.0350    -999.2500    -999.2500       0.1844       6.9949       2.4790     159.4505
   4006.7485   4006.7485       6.1104       0.3935      58.6932      68.7630    -999.2500     131.6491    -999.2500      21.2559    -999.2500    -999.2500       0.1635       6.2684       2.4649     157.1961
   4006.9011   4006.9011       6.3601       0.4515      59.3835      68.7613    -999.2500     132.3393    -999.2500      21.7824    -999.2500    -999.2500       0.1505       5.8931       2.4504     155.5672
   4007.0535   4007.0535       6.4344       0.4669      59.2633      68.5129    -999.2500     119.9260    -999.2500      21.5705    -999.2500    -999.2500       0.1485       5.7884       2.4082     152.8937
   4007.2058   4007.2058       6.5118       0.4728      58.6619      66.5297    -999.2500     123.1789    -999.2500      21.0845    -999.2500    -999.2500       0.1443       5.6471       2.3973     149.8928
   4007.3582   4007.3582       6.5259       0.4642      57.8329      62.5635    -999.2500     117.6017    -999.2500      21.2288    -999.2500    -999.2500       0.1453       5.5063       2.4254     147.5621
   4007.5105   4007.5105       6.5941       0.4418      57.4575      57.3667    -999.2500     123.6654    -999.2500      24.1324    -999.2500    -999.2500       0.1444       5.3686       2.3944     144.5320
   4007.6631   4007.6631       6.5719       0.4440      57.8167      55.6124    -999.2500     133.6197    -999.2500      26.0021    -999.2500    -999.2500       0.1448       5.2433       2.3547     143.9879
