#------------------------------------------------------------------------------
#
#   Created by  : [OpenWorks] Log Export Utility (LEXP)
#   Created on  : 2015-10-01 09:41:14
#   Project     : CANT971
#   User        : R5K
#   Interpreter : PEP
#
#------------------------------------------------------------------------------
~VERSION INFORMATION
VERS. 2.0 : CWLS Log ASCII Standard - version 2.0
WRAP.  NO : One line per depth step
~WELL INFORMATION
#MNEMONIC   .UNIT                                           VALUE :DESCRIPTION
#------------------------------------------------------------------------------
STRT        .M                                          1374.3848 :START DEPTH
STOP        .M                                          3939.4292 :STOP DEPTH
STEP        .M                                             0.1524 :STEP
NULL        .                                           -999.2500 :NULL VALUE
COMP        .                                             UNKNOWN :COMPANY
WELL        .                                         SIHIL-11-ST :WELL
FLD         .                                             UNKNOWN :FIELD
LOC         .                                             UNKNOWN :LOCATION
CNTY        .                                             UNKNOWN :COUNTY
STAT        .                                             UNKNOWN :STATE
CTRY        .                                             UNKNOWN :COUNTRY
SRVC        .                                             UNKNOWN :SERVICE COMPANY
DATE        .                                             UNKNOWN :LOG DATE
UWI         .                                         SIHIL-11-ST :UNIQUE WELL ID
XCOORD      .                                       599653.950000 :SURFACE X
YCOORD      .                                      2147230.550000 :SURFACE Y
LAT         .                                           19.418046 :LATITUDE
LON         .                                          -92.050821 :LONGITUDE
ELEV        .M                                             0.0000 :SURFACE ELEV
ELEV_TYPE   .                                                  KB :ELEV TYPE
~CURVE INFORMATION
#MNEMONIC.UNIT        API CODE       : CURVE DESCRIPTION
#------------------------------------------------------------------------------
DEPTH    .M                          : Measured Depth
TVD      .M                          : True Vertical Depth (TVD)
CALI     .inches      UNKNOWN        : CALI:litodensidad:rC:NONE:v0 (auto-composite)
DRHO     .g/cm3       UNKNOWN        : DRHO:UNKNOWN:rC:NONE:v0 (auto-composite)
DT       .us/ft       UNKNOWN        : DT:UNKNOWN:rC:NONE:v0 (auto-composite)
GR       .API         UNKNOWN        : GR:UNKNOWN:rC:NONE:v0 (auto-composite)
GR-ENT   .API         UNKNOWN        : GR-ENT:registros:rC:NONE:v0 (auto-composite)
GR-LWD   .API         UNKNOWN        : GR-LWD:PETROWORKS:rC:NONE:v1 
LLD-LWD  .ohm.m       UNKNOWN        : LLD-LWD:PETROWORKS:rC:NONE:v1 
LLS-LWD  .ohm.m       UNKNOWN        : LLS-LWD:PETROWORKS:rC:NONE:v1 
MSFL-LWD .ohm.m       UNKNOWN        : MSFL-LWD:PETROWORKS:rC:NONE:v1 
NPHI     .v/v_decimal UNKNOWN        : NPHI:UNKNOWN:rC:NONE:v0 (auto-composite)
NPHI-ENT .v/v_decimal UNKNOWN        : NPHI-ENT:registros:rC:NONE:v0 (auto-composite)
PEF      .b/elec      UNKNOWN        : PEF:UNKNOWN:rC:NONE:v0 (auto-composite)
RHOB     .g/cm3       UNKNOWN        : RHOB:UNKNOWN:rC:NONE:v0 (auto-composite)
SIGM     .cu          UNKNOWN        : SIGM:registros:rC:NONE:v0 (auto-composite)
~A     DEPTH         TVD         CALI         DRHO           DT           GR       GR-ENT       GR-LWD      LLD-LWD      LLS-LWD     MSFL-LWD         NPHI     NPHI-ENT          PEF         RHOB         SIGM
# ...
   3799.3735   3799.3735       6.7097       0.0465      64.6075     126.0202    -999.2500     112.9197       7.8776       6.3592       6.3532       0.1224    -999.2500       4.1284       2.6415    -999.2500
   3799.5259   3799.5259       6.7488       0.0517      65.9247     114.0947    -999.2500     102.5946       6.1527       5.1962       5.3346       0.1352    -999.2500       4.3097       2.6153    -999.2500
   3799.6785   3799.6785       6.8092       0.0611      67.1479      96.3916    -999.2500      88.6952       5.7741       5.0860       5.3005       0.1464    -999.2500       4.4590       2.5900    -999.2500
   3799.8308   3799.8308       6.8145       0.0687      68.6595      87.2281    -999.2500      81.7579       5.7043       5.0991       5.2201       0.1519    -999.2500       4.5748       2.5781    -999.2500
   3799.9832   3799.9832       6.8269       0.0738      70.2176      83.9756    -999.2500      81.7587       5.5762       5.0487       5.0508       0.1565    -999.2500       4.5624       2.5953    -999.2500
   3800.1355   3800.1355       6.7878       0.0788      71.1721      82.0142    -999.2500      84.2747       5.4167       5.0592       5.0458       0.1580    -999.2500       4.4713       2.6135    -999.2500
   3800.2881   3800.2881       6.7819       0.0819      71.2784      81.0927    -999.2500      82.9297       5.4515       5.3536       5.4393       0.1551    -999.2500       4.4085       2.6149    -999.2500
   3800.4404   3800.4404       6.7950       0.0811      70.7908      77.5753    -999.2500      76.9893       5.7809       6.0066       6.2506       0.1560    -999.2500       4.4447       2.6046    -999.2500
   3800.5928   3800.5928       6.8061       0.0739      70.3114      72.3922    -999.2500      68.9277       6.3236       6.7935       7.1361       0.1673    -999.2500       4.5865       2.5827    -999.2500
   3800.7451   3800.7451       6.7719       0.0652      70.1824      69.0965    -999.2500      61.1544       6.8185       7.3414       7.6661       0.1725    -999.2500       4.7104       2.5593    -999.2500
   3800.8975   3800.8975       6.7526       0.0582      70.4760      65.7613    -999.2500      58.8911       7.0599       7.4300       7.7175       0.1707    -999.2500       4.7232       2.5425    -999.2500
   3801.0500   3801.0500       6.7067       0.0533      71.0456      63.7075    -999.2500      62.4959       7.1050       7.2152       7.5282       0.1734    -999.2500       4.6675       2.5342    -999.2500
   3801.2024   3801.2024       6.6878       0.0503      71.4766      64.5900    -999.2500      64.7733       7.0546       6.9818       7.2935       0.1734    -999.2500       4.6231       2.5351    -999.2500
   3801.3547   3801.3547       6.6832       0.0492      71.4446      65.8340    -999.2500      64.3259       6.9223       6.7359       6.9895       0.1792    -999.2500       4.6124       2.5397    -999.2500
   3801.5071   3801.5071       6.6895       0.0492      70.9220      67.7025    -999.2500      63.6237       6.6822       6.3977       6.6116       0.1765    -999.2500       4.5734       2.5442    -999.2500
   3801.6597   3801.6597       6.6942       0.0487      70.1652      71.3929    -999.2500      63.9614       6.4139       6.0572       6.2668       0.1698    -999.2500       4.4735       2.5550    -999.2500
   3801.8120   3801.8120       6.6928       0.0500      69.6356      70.1227    -999.2500      65.7535       6.2506       5.8478       6.0554       0.1710    -999.2500       4.4358       2.5687    -999.2500
   3801.9644   3801.9644       6.6902       0.0517      69.6385      65.8825    -999.2500      67.7998       6.1534       5.7314       5.9368       0.1707    -999.2500       4.4524       2.5833    -999.2500
   3802.1167   3802.1167       6.6900       0.0517      70.1955      65.0003    -999.2500      68.7514       6.0588       5.6675       5.8793       0.1645    -999.2500       4.4638       2.5869    -999.2500
   3802.2693   3802.2693       6.6957       0.0522      71.0760      63.9506    -999.2500      68.8100       6.0183       5.6577       5.8650       0.1597    -999.2500       4.4412       2.5817    -999.2500
   3802.4216   3802.4216       6.7037       0.0542      71.8455      64.1700    -999.2500      69.1311       6.0328       5.6690       5.8551       0.1644    -999.2500       4.4649       2.5707    -999.2500
   3802.5740   3802.5740       6.7076       0.0580      71.9799      66.1451    -999.2500      69.4620       6.0409       5.6922       5.8103       0.1720    -999.2500       4.5530       2.5644    -999.2500
   3802.7263   3802.7263       6.7002       0.0606      71.1824      68.4260    -999.2500      68.7109       6.0090       5.7890       5.7547       0.1694    -999.2500       4.5538       2.5736    -999.2500
   3802.8787   3802.8787       6.6914       0.0620      69.8307      71.1883    -999.2500      68.6450       5.9093       5.9917       5.8136       0.1637    -999.2500       4.4596       2.5841    -999.2500
   3803.0312   3803.0312       6.6935       0.0618      68.5681      70.8583    -999.2500      67.5003       5.7657       6.2952       6.1851       0.1611    -999.2500       4.3597       2.5901    -999.2500
   3803.1836   3803.1836       6.7006       0.0616      67.7049      63.1521    -999.2500      60.7309       5.7522       6.9423       7.2759       0.1660    -999.2500       4.3120       2.6122    -999.2500
   3803.3359   3803.3359       6.6903       0.0603      67.0678      52.9367    -999.2500      47.1779       6.4359       8.6773       9.9966       0.1655    -999.2500       4.2523       2.6475    -999.2500
   3803.4883   3803.4883       6.6698       0.0560      66.4003      43.0720    -999.2500      35.9513       7.9971      11.0061      13.4214       0.1537    -999.2500       4.1803       2.6543    -999.2500
   3803.6409   3803.6409       6.6427       0.0514      65.7693      38.2666    -999.2500      41.1279       8.8708      11.0694      13.1871       0.1397    -999.2500       4.1083       2.6303    -999.2500
   3803.7932   3803.7932       6.6398       0.0473      65.4089      45.5224    -999.2500      54.1507       8.9710       9.8391      10.8767       0.1355    -999.2500       4.0355       2.6037    -999.2500
   3803.9456   3803.9456       6.6424       0.0437      65.4872      57.8987    -999.2500      63.9161       8.5209       8.4120       8.6254       0.1371    -999.2500       4.0182       2.5996    -999.2500
   3804.0979   3804.0979       6.6470       0.0419      65.8590      67.4276    -999.2500      66.5449       7.9464       7.4394       7.4761       0.1455    -999.2500       4.0886       2.6115    -999.2500
   3804.2502   3804.2502       6.6509       0.0397      66.1526      70.6833    -999.2500      66.7825       7.7701       7.2181       7.3152       0.1521    -999.2500       4.1598       2.6220    -999.2500
   3804.4028   3804.4028       6.6513       0.0371      65.9691      71.0302    -999.2500      66.6470       7.8806       7.3152       7.4745       0.1519    -999.2500       4.2078       2.6289    -999.2500
   3804.5552   3804.5552       6.6495       0.0360      65.3173      70.7682    -999.2500      65.6703       8.1066       7.5054       7.6982       0.1499    -999.2500       4.2435       2.6319    -999.2500
   3804.7075   3804.7075       6.6508       0.0367      64.6657      69.2597    -999.2500      65.6405       8.3699       7.7416       7.9292       0.1465    -999.2500       4.2345       2.6310    -999.2500
   3804.8599   3804.8599       6.6520       0.0377      64.4628      66.9879    -999.2500      66.2937       8.6750       8.0593       8.2022       0.1464    -999.2500       4.2160       2.6279    -999.2500
   3805.0125   3805.0125       6.6556       0.0405      64.9537      67.5693    -999.2500      65.5603       8.9786       8.4178       8.5083       0.1433    -999.2500       4.2216       2.6266    -999.2500
   3805.1648   3805.1648       6.6612       0.0451      66.0725      68.7189    -999.2500      65.2364       9.2629       8.8352       8.9307       0.1400    -999.2500       4.2617       2.6319    -999.2500
