#------------------------------------------------------------------------------
#
#   Created by  : [OpenWorks] Log Export Utility (LEXP)
#   Created on  : 2015-10-01 09:42:34
#   Project     : CANT971
#   User        : R5K
#   Interpreter : PEP
#
#------------------------------------------------------------------------------
~VERSION INFORMATION
VERS. 2.0 : CWLS Log ASCII Standard - version 2.0
WRAP.  NO : One line per depth step
~WELL INFORMATION
#MNEMONIC   .UNIT                                           VALUE :DESCRIPTION
#------------------------------------------------------------------------------
STRT        .M                                          3550.1582 :START DEPTH
STOP        .M                                          4164.9399 :STOP DEPTH
STEP        .M                                             0.1524 :STEP
NULL        .                                           -999.2500 :NULL VALUE
COMP        .                                             UNKNOWN :COMPANY
WELL        .                                         SIHIL-12-ST :WELL
FLD         .                                             UNKNOWN :FIELD
LOC         .                                             UNKNOWN :LOCATION
CNTY        .                                             UNKNOWN :COUNTY
STAT        .                                             UNKNOWN :STATE
CTRY        .                                             UNKNOWN :COUNTRY
SRVC        .                                             UNKNOWN :SERVICE COMPANY
DATE        .                                             UNKNOWN :LOG DATE
UWI         .                                         SIHIL-12-ST :UNIQUE WELL ID
XCOORD      .                                            0.000000 :SURFACE X
YCOORD      .                                            0.000000 :SURFACE Y
LAT         .                                            0.000000 :LATITUDE
LON         .                                          -97.488695 :LONGITUDE
ELEV        .M                                             0.0000 :SURFACE ELEV
ELEV_TYPE   .                                                  KB :ELEV TYPE
~CURVE INFORMATION
#MNEMONIC.UNIT        API CODE       : CURVE DESCRIPTION
#------------------------------------------------------------------------------
DEPTH    .M                          : Measured Depth
TVD      .M                          : True Vertical Depth (TVD)
CALI     .inches      UNKNOWN        : CALI:litodensidad:rC:NONE:v0 (auto-composite)
DRHO     .g/cm3       UNKNOWN        : DRHO:litodensidad:rC:NONE:v0 (auto-composite)
DT       .us/ft       UNKNOWN        : DT:sonico:rC:NONE:v0 (auto-composite)
GR       .API         UNKNOWN        : GR:resistivos:rC:NONE:v0 (auto-composite)
GR-LWD   .API         UNKNOWN        : GR-LWD:resistivos-LWD:rC:NONE:v0 (auto-composite)
LLD      .ohm.m       UNKNOWN        : LLD:resistivos:rC:NONE:v0 (auto-composite)
LLD-LWD  .ohm.m       UNKNOWN        : LLD-LWD:resistivos-LWD:rC:NONE:v0 (auto-composite)
LLS      .ohm.m       UNKNOWN        : LLS:resistivos:rC:NONE:v0 (auto-composite)
LLS-LWD  .ohm.m       UNKNOWN        : LLS-LWD:resistivos-LWD:rC:NONE:v0 (auto-composite)
MSFL-LWD .ohm.m       UNKNOWN        : MSFL-LWD:resistivos-LWD:rC:NONE:v0 (auto-composite)
NPHI     .v/v_decimal UNKNOWN        : NPHI:porosidad:rC:NONE:v0 (auto-composite)
PEF      .b/elec      UNKNOWN        : PEF:litodensidad:rC:NONE:v0 (auto-composite)
RHOB     .g/cm3       UNKNOWN        : RHOB:litodensidad:rC:NONE:v0 (auto-composite)
SP       .mv          UNKNOWN        : SP:resistivos:rC:NONE:v0 (auto-composite)
~A     DEPTH         TVD         CALI         DRHO           DT           GR       GR-LWD          LLD      LLD-LWD          LLS      LLS-LWD     MSFL-LWD         NPHI          PEF         RHOB           SP
# ...
   4085.0823   4085.0823       4.5902       0.0670      48.7970      78.0484    -999.2500     151.0502    -999.2500     155.6533    -999.2500    -999.2500       0.0476       3.7520       2.7821     135.2209
   4085.2346   4085.2346       4.5971       0.0799      48.4131      72.1067    -999.2500     105.3923    -999.2500     107.1366    -999.2500    -999.2500       0.0500       3.7508       2.7962     133.3300
   4085.3870   4085.3870       4.6183       0.0807      47.9213      62.7214    -999.2500     134.2657    -999.2500     135.6174    -999.2500    -999.2500       0.0522       3.7507       2.7768     133.7290
   4085.5393   4085.5393       4.6110       0.0814      47.3031      57.2031    -999.2500     127.2246    -999.2500     128.0556    -999.2500    -999.2500       0.0533       3.7169       2.7407     135.4448
   4085.6919   4085.6919       4.5991       0.0830      46.4343      51.8049    -999.2500     116.2945    -999.2500     115.5143    -999.2500    -999.2500       0.0541       3.6761       2.7155     138.4464
   4085.8442   4085.8442       4.5497       0.0680      45.7786      52.5221    -999.2500     131.0103    -999.2500     130.6006    -999.2500    -999.2500       0.0528       3.6545       2.7169     139.6892
   4085.9966   4085.9966       4.5509       0.0508      45.5730      57.1044    -999.2500     143.8874    -999.2500     145.0168    -999.2500    -999.2500       0.0507       3.6103       2.7214     140.3967
   4086.1489   4086.1489       4.5651       0.0642      45.6026      69.1289    -999.2500     113.6412    -999.2500     118.6669    -999.2500    -999.2500       0.0491       3.5600       2.7360     141.2143
   4086.3015   4086.3015       4.5745       0.0829      45.7373      76.5705    -999.2500     119.7796    -999.2500     124.6269    -999.2500    -999.2500       0.0483       3.5983       2.7598     142.5447
   4086.4539   4086.4539       4.6354       0.0845      46.4789      80.6463    -999.2500     212.2768    -999.2500     225.8020    -999.2500    -999.2500       0.0484       3.7216       2.7646     145.1267
   4086.6062   4086.6062       4.6106       0.0994      48.5845      80.8716    -999.2500     140.6506    -999.2500     148.1084    -999.2500    -999.2500       0.0483       3.8373       2.7589     146.6564
   4086.7585   4086.7585       4.6035       0.1237      51.7810      83.9451    -999.2500     144.7465    -999.2500     150.6699    -999.2500    -999.2500       0.0486       3.8257       2.7764     149.8074
   4086.9109   4086.9109       4.5980       0.1397      53.4544      90.4386    -999.2500     268.5060    -999.2500     276.4414    -999.2500    -999.2500       0.0546       3.8492       2.8085     152.5995
   4087.0635   4087.0635       4.5838       0.1239      54.2021     104.0918    -999.2500     280.8531    -999.2500     295.0934    -999.2500    -999.2500       0.0638       3.9506       2.8196     152.8562
   4087.2158   4087.2158       4.7395       0.0917      54.4796     114.0408    -999.2500     176.8393    -999.2500     187.8791    -999.2500    -999.2500       0.0845       3.9025       2.7510     151.7026
   4087.3682   4087.3682       4.6561       0.0872      53.2030     117.2924    -999.2500      74.3243    -999.2500      82.0171    -999.2500    -999.2500       0.0888       3.6131       2.6504     151.2317
   4087.5205   4087.5205       4.6517       0.0975      49.1184     115.2236    -999.2500      33.6241    -999.2500      35.4456    -999.2500    -999.2500       0.0710       3.3924       2.6154     151.9655
   4087.6731   4087.6731       4.6251       0.1030      46.0904     112.5380    -999.2500     122.6151    -999.2500     128.8924    -999.2500    -999.2500       0.0581       3.5238       2.6713     152.4629
   4087.8254   4087.8254       4.5926       0.1196      44.6951     115.3910    -999.2500     260.4598    -999.2500     272.8791    -999.2500    -999.2500       0.0495       3.6589       2.7133     151.6528
   4087.9778   4087.9778       4.6327       0.1326      44.3288     119.1207    -999.2500     152.0067    -999.2500     160.3187    -999.2500    -999.2500       0.0505       3.7028       2.7318     150.2577
   4088.1301   4088.1301       4.6209       0.1404      44.5177     118.2527    -999.2500      66.8178    -999.2500      70.2979    -999.2500    -999.2500       0.0538       3.8089       2.7715     149.2016
   4088.2827   4088.2827       4.5978       0.1316      45.4274     109.3614    -999.2500      63.6114    -999.2500      66.5213    -999.2500    -999.2500       0.0556       3.9416       2.8022     147.9394
   4088.4351   4088.4351       4.5974       0.0912      47.0148      96.6268    -999.2500     105.2274    -999.2500     110.3594    -999.2500    -999.2500       0.0531       4.0546       2.7900     146.5107
   4088.5874   4088.5874       4.5857       0.0418      48.0578      83.9847    -999.2500     162.1836    -999.2500     167.6198    -999.2500    -999.2500       0.0491       4.1259       2.7537     145.2632
   4088.7397   4088.7397       4.6163       0.0623      48.2442      80.1317    -999.2500     197.3528    -999.2500     202.9186    -999.2500    -999.2500       0.0454       4.0265       2.7132     145.2871
   4088.8921   4088.8921       4.6031       0.1409      48.1926      78.9563    -999.2500     161.5645    -999.2500     161.2715    -999.2500    -999.2500       0.0439       3.8907       2.6898     146.0961
   4089.0447   4089.0447       4.5842       0.2275      48.2413      79.3364    -999.2500     186.5893    -999.2500     186.1405    -999.2500    -999.2500       0.0460       3.8746       2.7116     145.6986
   4089.1970   4089.1970       4.5797       0.2921      48.1979      76.7339    -999.2500     275.5017    -999.2500     277.1056    -999.2500    -999.2500       0.0493       3.9502       2.7190     144.7680
   4089.3494   4089.3494       4.6299       0.2988      47.8432      74.8825    -999.2500     162.7234    -999.2500     166.2653    -999.2500    -999.2500       0.0520       4.1233       2.6788     144.6582
   4089.5017   4089.5017       4.6601       0.2604      47.4964      73.0249    -999.2500      80.5723    -999.2500      82.9297    -999.2500    -999.2500       0.0553       4.2718       2.6727     144.7436
   4089.6543   4089.6543       4.6615       0.1962      47.5850      70.3296    -999.2500      64.6926    -999.2500      65.9384    -999.2500    -999.2500       0.0557       4.2387       2.7091     143.3014
   4089.8066   4089.8066       4.6152       0.1392      48.2045      69.7600    -999.2500      95.7190    -999.2500      97.4369    -999.2500    -999.2500       0.0522       3.9474       2.7355     141.8141
   4089.9590   4089.9590       4.6641       0.1665      48.6762      69.7091    -999.2500     139.4909    -999.2500     142.6435    -999.2500    -999.2500       0.0503       3.8044       2.7483     141.0445
   4090.1113   4090.1113       4.6194       0.2055      47.9625      70.0926    -999.2500     138.4748    -999.2500     145.3973    -999.2500    -999.2500       0.0518       3.7005       2.7588     141.3884
   4090.2639   4090.2639       4.5756       0.2004      47.0393      70.0181    -999.2500     108.8285    -999.2500     113.5370    -999.2500    -999.2500       0.0547       3.6271       2.7492     141.4324
   4090.4163   4090.4163       4.6811       0.1953      47.3657      70.1871    -999.2500     102.4325    -999.2500     108.2471    -999.2500    -999.2500       0.0589       3.4060       2.6757     141.0053
   4090.5686   4090.5686       4.7185       0.2007      48.3260      68.6909    -999.2500      62.0475    -999.2500      65.6747    -999.2500    -999.2500       0.0596       3.2926       2.6229     141.4323
   4090.7209   4090.7209       4.6632       0.2178      48.5974      68.1263    -999.2500      94.0600    -999.2500      98.5276    -999.2500    -999.2500       0.0571       3.3808       2.6802     142.9939
   4090.8733   4090.8733       4.6080       0.2170      48.3846      67.2847    -999.2500     139.2749    -999.2500     143.0741    -999.2500    -999.2500       0.0549       3.4829       2.7204     143.9058
