#------------------------------------------------------------------------------
#
#   Created by  : [OpenWorks] Log Export Utility (LEXP)
#   Created on  : 2015-10-01 09:41:14
#   Project     : CANT971
#   User        : R5K
#   Interpreter : PEP
#
#------------------------------------------------------------------------------
~VERSION INFORMATION
VERS. 2.0 : CWLS Log ASCII Standard - version 2.0
WRAP.  NO : One line per depth step
~WELL INFORMATION
#MNEMONIC   .UNIT                                           VALUE :DESCRIPTION
#------------------------------------------------------------------------------
STRT        .M                                          1374.3848 :START DEPTH
STOP        .M                                          3939.4292 :STOP DEPTH
STEP        .M                                             0.1524 :STEP
NULL        .                                           -999.2500 :NULL VALUE
COMP        .                                             UNKNOWN :COMPANY
WELL        .                                         SIHIL-11-ST :WELL
FLD         .                                             UNKNOWN :FIELD
LOC         .                                             UNKNOWN :LOCATION
CNTY        .                                             UNKNOWN :COUNTY
STAT        .                                             UNKNOWN :STATE
CTRY        .                                             UNKNOWN :COUNTRY
SRVC        .                                             UNKNOWN :SERVICE COMPANY
DATE        .                                             UNKNOWN :LOG DATE
UWI         .                                         SIHIL-11-ST :UNIQUE WELL ID
XCOORD      .                                       599653.950000 :SURFACE X
YCOORD      .                                      2147230.550000 :SURFACE Y
LAT         .                                           19.418046 :LATITUDE
LON         .                                          -92.050821 :LONGITUDE
ELEV        .M                                             0.0000 :SURFACE ELEV
ELEV_TYPE   .                                                  KB :ELEV TYPE
~CURVE INFORMATION
#MNEMONIC.UNIT        API CODE       : CURVE DESCRIPTION
#------------------------------------------------------------------------------
DEPTH    .M                          : Measured Depth
TVD      .M                          : True Vertical Depth (TVD)
CALI     .inches      UNKNOWN        : CALI:litodensidad:rC:NONE:v0 (auto-composite)
DRHO     .g/cm3       UNKNOWN        : DRHO:UNKNOWN:rC:NONE:v0 (auto-composite)
DT       .us/ft       UNKNOWN        : DT:UNKNOWN:rC:NONE:v0 (auto-composite)
GR       .API         UNKNOWN        : GR:UNKNOWN:rC:NONE:v0 (auto-composite)
GR-ENT   .API         UNKNOWN        : GR-ENT:registros:rC:NONE:v0 (auto-composite)
GR-LWD   .API         UNKNOWN        : GR-LWD:PETROWORKS:rC:NONE:v1 
LLD-LWD  .ohm.m       UNKNOWN        : LLD-LWD:PETROWORKS:rC:NONE:v1 
LLS-LWD  .ohm.m       UNKNOWN        : LLS-LWD:PETROWORKS:rC:NONE:v1 
MSFL-LWD .ohm.m       UNKNOWN        : MSFL-LWD:PETROWORKS:rC:NONE:v1 
NPHI     .v/v_decimal UNKNOWN        : NPHI:UNKNOWN:rC:NONE:v0 (auto-composite)
NPHI-ENT .v/v_decimal UNKNOWN        : NPHI-ENT:registros:rC:NONE:v0 (auto-composite)
PEF      .b/elec      UNKNOWN        : PEF:UNKNOWN:rC:NONE:v0 (auto-composite)
RHOB     .g/cm3       UNKNOWN        : RHOB:UNKNOWN:rC:NONE:v0 (auto-composite)
SIGM     .cu          UNKNOWN        : SIGM:registros:rC:NONE:v0 (auto-composite)
~A     DEPTH         TVD         CALI         DRHO           DT           GR       GR-ENT       GR-LWD      LLD-LWD      LLS-LWD     MSFL-LWD         NPHI     NPHI-ENT          PEF         RHOB         SIGM
# ...
   3894.4712   3894.4712       6.8646       0.0239      52.6112      75.6401    -999.2500      64.6848      70.1832      67.0272      72.3543       0.1112    -999.2500       4.8424       2.4875    -999.2500
   3894.6235   3894.6235       6.8639       0.0088      52.4610      68.3684    -999.2500      57.9878      69.4213      69.8984      79.8319       0.1260    -999.2500       4.6463       2.5331    -999.2500
   3894.7759   3894.7759       6.6771       0.0018      50.7599      60.7948    -999.2500      51.9236      70.7109      75.7617      94.0375       0.1124    -999.2500       4.2477       2.6342    -999.2500
   3894.9285   3894.9285       6.5365       0.0024      49.4253      55.2462    -999.2500      46.2059      73.7242      81.7132     105.5342       0.0804    -999.2500       3.9518       2.7120    -999.2500
   3895.0808   3895.0808       6.5363       0.0109      49.1326      50.8041    -999.2500      42.9294      76.5888      83.9939     107.5526       0.0692    -999.2500       3.8474       2.7622    -999.2500
   3895.2332   3895.2332       6.5409       0.0203      49.1579      49.2291    -999.2500      44.9812      77.8362      81.9324     100.3095       0.0642    -999.2500       3.8375       2.7875    -999.2500
   3895.3855   3895.3855       6.5380       0.0252      49.2029      54.6740    -999.2500      51.6402      76.5117      76.4317      87.3006       0.0636    -999.2500       3.9199       2.7716    -999.2500
   3895.5381   3895.5381       6.5316       0.0305      49.3135      63.5503    -999.2500      58.6195      72.3501      69.2734      75.1725       0.0653    -999.2500       3.9423       2.7625    -999.2500
   3895.6904   3895.6904       6.5269       0.0351      49.5565      68.7335    -999.2500      63.4467      66.8290      63.5028      70.0996       0.0646    -999.2500       3.8888       2.7657    -999.2500
   3895.8428   3895.8428       6.5427       0.0462      50.0640      70.6958    -999.2500      65.2877      62.9755      61.2436      71.3043       0.0620    -999.2500       3.9197       2.7625    -999.2500
   3895.9951   3895.9951       6.5439       0.0799      50.5787      71.7245    -999.2500      64.3266      61.7548      61.4957      73.6786       0.0598    -999.2500       4.1387       2.7325    -999.2500
   3896.1475   3896.1475       6.5348       0.1245      51.2650      69.5746    -999.2500      62.4563      62.4043      61.9327      72.7143       0.0585    -999.2500       4.5470       2.6556    -999.2500
   3896.3000   3896.3000       6.5661       0.1409      52.1880      66.5707    -999.2500      60.9282      64.1014      61.9229      67.6413       0.0608    -999.2500       4.9693       2.5794    -999.2500
   3896.4524   3896.4524       6.5705       0.1025      52.1273      66.4196    -999.2500      60.8299      64.7009      60.3345      59.7279       0.0675    -999.2500       4.9751       2.5861    -999.2500
   3896.6047   3896.6047       6.5233       0.0546      51.1196      68.0937    -999.2500      63.0569      61.3382      55.1357      52.1656       0.0678    -999.2500       4.4222       2.6787    -999.2500
   3896.7571   3896.7571       6.5150       0.0299      50.3900      70.2886    -999.2500      66.8205      56.2759      49.8164      49.4582       0.0669    -999.2500       3.9342       2.7588    -999.2500
   3896.9097   3896.9097       6.5230       0.0307      49.7458      71.5914    -999.2500      70.4453      53.4683      48.6166      52.2098       0.0686    -999.2500       3.9390       2.7586    -999.2500
   3897.0620   3897.0620       6.5271       0.0328      49.6616      72.4205    -999.2500      73.3583      52.9670      50.8452      57.6517       0.0693    -999.2500       3.9881       2.7571    -999.2500
   3897.2144   3897.2144       6.5367       0.0399      50.6430      76.7100    -999.2500      77.3333      53.0809      53.5995      62.7501       0.0664    -999.2500       3.9651       2.7839    -999.2500
   3897.3667   3897.3667       6.5444       0.0488      52.0418      86.2965    -999.2500      81.0796      53.0481      55.8639      67.2818       0.0612    -999.2500       3.9143       2.8229    -999.2500
   3897.5193   3897.5193       6.5630       0.0521      53.0642      84.5200    -999.2500      77.3812      53.1400      58.3261      73.2422       0.0583    -999.2500       3.8404       2.8467    -999.2500
   3897.6716   3897.6716       6.5773       0.0558      53.4516      64.8526    -999.2500      62.3958      53.9453      61.1916      79.5384       0.0560    -999.2500       3.7311       2.8696    -999.2500
   3897.8240   3897.8240       6.5879       0.0570      53.7198      46.5099    -999.2500      43.7735      55.2642      63.2381      81.7031       0.0571    -999.2500       3.7053       2.8627    -999.2500
   3897.9763   3897.9763       6.5860       0.0541      53.3546      36.6361    -999.2500      35.8622      56.3810      63.1400      79.2212       0.0601    -999.2500       3.7303       2.8337    -999.2500
   3898.1287   3898.1287       6.5826       0.0510      52.1330      38.9696    -999.2500      42.1828      57.3011      61.0487      74.5338       0.0634    -999.2500       3.7726       2.8148    -999.2500
   3898.2812   3898.2812       6.6009       0.0533      51.0958      49.9745    -999.2500      52.8885      57.7488      58.6307      70.0055       0.0643    -999.2500       3.8343       2.8187    -999.2500
   3898.4336   3898.4336       6.6265       0.0552      50.7023      60.4256    -999.2500      60.2482      57.0514      56.7477      66.8794       0.0633    -999.2500       3.9141       2.8098    -999.2500
   3898.5859   3898.5859       6.6244       0.0504      50.2597      65.3294    -999.2500      63.3720      55.0180      55.0748      65.0679       0.0613    -999.2500       3.9719       2.7939    -999.2500
   3898.7383   3898.7383       6.5987       0.0443      49.9579      70.5632    -999.2500      66.8628      53.6529      53.2946      63.2043       0.0593    -999.2500       3.9900       2.7986    -999.2500
   3898.8909   3898.8909       6.5738       0.0419      50.8015      78.0627    -999.2500      73.2754      54.6244      51.5332      60.3749       0.0567    -999.2500       3.9713       2.8210    -999.2500
   3899.0432   3899.0432       6.5718       0.0359      52.4494      82.8827    -999.2500      78.3185      56.5328      50.1200      57.1178       0.0559    -999.2500       3.9434       2.8201    -999.2500
   3899.1956   3899.1956       6.5780       0.0242      53.2526      78.1300    -999.2500      76.6155      57.7623      48.9147      53.2331       0.0567    -999.2500       3.8837       2.7717    -999.2500
   3899.3479   3899.3479       6.5844       0.0217      53.8529      71.2415    -999.2500      71.7300      59.9436      49.2876      49.0741       0.0592    -999.2500       3.8113       2.7288    -999.2500
   3899.5002   3899.5002       6.6163       0.0383      53.9482      75.2731    -999.2500      75.2857      68.9491      54.1973      47.3590       0.0694    -999.2500       3.8451       2.7179    -999.2500
   3899.6528   3899.6528       6.6462       0.0783      54.3571      90.4746    -999.2500      88.2207      78.5360      56.7134      46.9473       0.0898    -999.2500       4.0746       2.7107    -999.2500
   3899.8052   3899.8052       6.8829       0.1036      55.1196      99.4577    -999.2500      98.4528      68.7576      46.9616      40.3506       0.1089    -999.2500       4.3209       2.7112    -999.2500
   3899.9575   3899.9575       6.9563       0.0910      54.6557      98.4651    -999.2500      91.9411      51.5493      36.9868      35.7022       0.1396    -999.2500       4.3945       2.7403    -999.2500
   3900.1099   3900.1099       6.8305       0.0515      52.4675      88.6590    -999.2500      77.0428      53.0050      42.1539      43.9758       0.1562    -999.2500       4.2251       2.7624    -999.2500
   3900.2625   3900.2625       6.6765       0.0145      50.3378      80.4495    -999.2500      70.7777      56.4497      48.7135      52.3589       0.1303    -999.2500       4.0903       2.7550    -999.2500
