#------------------------------------------------------------------------------
#
#   Created by  : [OpenWorks] Log Export Utility (LEXP)
#   Created on  : 2015-10-01 09:42:34
#   Project     : CANT971
#   User        : R5K
#   Interpreter : PEP
#
#------------------------------------------------------------------------------
~VERSION INFORMATION
VERS. 2.0 : CWLS Log ASCII Standard - version 2.0
WRAP.  NO : One line per depth step
~WELL INFORMATION
#MNEMONIC   .UNIT                                           VALUE :DESCRIPTION
#------------------------------------------------------------------------------
STRT        .M                                          3550.1582 :START DEPTH
STOP        .M                                          4164.9399 :STOP DEPTH
STEP        .M                                             0.1524 :STEP
NULL        .                                           -999.2500 :NULL VALUE
COMP        .                                             UNKNOWN :COMPANY
WELL        .                                         SIHIL-12-ST :WELL
FLD         .                                             UNKNOWN :FIELD
LOC         .                                             UNKNOWN :LOCATION
CNTY        .                                             UNKNOWN :COUNTY
STAT        .                                             UNKNOWN :STATE
CTRY        .                                             UNKNOWN :COUNTRY
SRVC        .                                             UNKNOWN :SERVICE COMPANY
DATE        .                                             UNKNOWN :LOG DATE
UWI         .                                         SIHIL-12-ST :UNIQUE WELL ID
XCOORD      .                                            0.000000 :SURFACE X
YCOORD      .                                            0.000000 :SURFACE Y
LAT         .                                            0.000000 :LATITUDE
LON         .                                          -97.488695 :LONGITUDE
ELEV        .M                                             0.0000 :SURFACE ELEV
ELEV_TYPE   .                                                  KB :ELEV TYPE
~CURVE INFORMATION
#MNEMONIC.UNIT        API CODE       : CURVE DESCRIPTION
#------------------------------------------------------------------------------
DEPTH    .M                          : Measured Depth
TVD      .M                          : True Vertical Depth (TVD)
CALI     .inches      UNKNOWN        : CALI:litodensidad:rC:NONE:v0 (auto-composite)
DRHO     .g/cm3       UNKNOWN        : DRHO:litodensidad:rC:NONE:v0 (auto-composite)
DT       .us/ft       UNKNOWN        : DT:sonico:rC:NONE:v0 (auto-composite)
GR       .API         UNKNOWN        : GR:resistivos:rC:NONE:v0 (auto-composite)
GR-LWD   .API         UNKNOWN        : GR-LWD:resistivos-LWD:rC:NONE:v0 (auto-composite)
LLD      .ohm.m       UNKNOWN        : LLD:resistivos:rC:NONE:v0 (auto-composite)
LLD-LWD  .ohm.m       UNKNOWN        : LLD-LWD:resistivos-LWD:rC:NONE:v0 (auto-composite)
LLS      .ohm.m       UNKNOWN        : LLS:resistivos:rC:NONE:v0 (auto-composite)
LLS-LWD  .ohm.m       UNKNOWN        : LLS-LWD:resistivos-LWD:rC:NONE:v0 (auto-composite)
MSFL-LWD .ohm.m       UNKNOWN        : MSFL-LWD:resistivos-LWD:rC:NONE:v0 (auto-composite)
NPHI     .v/v_decimal UNKNOWN        : NPHI:porosidad:rC:NONE:v0 (auto-composite)
PEF      .b/elec      UNKNOWN        : PEF:litodensidad:rC:NONE:v0 (auto-composite)
RHOB     .g/cm3       UNKNOWN        : RHOB:litodensidad:rC:NONE:v0 (auto-composite)
SP       .mv          UNKNOWN        : SP:resistivos:rC:NONE:v0 (auto-composite)
~A     DEPTH         TVD         CALI         DRHO           DT           GR       GR-LWD          LLD      LLD-LWD          LLS      LLS-LWD     MSFL-LWD         NPHI          PEF         RHOB           SP
# ...
   4019.7026   4019.7026       4.6696       0.1149      53.6988      60.1957    -999.2500     133.3899    -999.2500     148.5918    -999.2500    -999.2500       0.0946       3.1952       2.6283     143.9968
   4019.8550   4019.8550       4.6418       0.0787      53.4106      60.1140    -999.2500     154.3761    -999.2500     171.7980    -999.2500    -999.2500       0.0915       3.2268       2.6194     145.0047
   4020.0073   4020.0073       4.6055       0.0514      52.9657      61.0910    -999.2500     159.7643    -999.2500     177.5176    -999.2500    -999.2500       0.0872       3.3120       2.6309     144.9094
   4020.1599   4020.1599       4.6035       0.0453      52.6233      60.0397    -999.2500     143.6843    -999.2500     159.1752    -999.2500    -999.2500       0.0847       3.3426       2.6448     142.5640
   4020.3123   4020.3123       4.6018       0.0354      52.5446      57.1972    -999.2500     149.6959    -999.2500     165.8352    -999.2500    -999.2500       0.0810       3.2837       2.6428     140.4224
   4020.4646   4020.4646       4.5929       0.0425      52.6034      53.8104    -999.2500     167.9786    -999.2500     185.9486    -999.2500    -999.2500       0.0797       3.2589       2.6263     138.1935
   4020.6169   4020.6169       4.6077       0.0932      52.5358      51.5029    -999.2500     181.9746    -999.2500     201.5134    -999.2500    -999.2500       0.0793       3.3627       2.6145     137.5640
   4020.7693   4020.7693       4.6421       0.1258      52.3762      52.9129    -999.2500     168.9717    -999.2500     187.6262    -999.2500    -999.2500       0.0791       3.4829       2.6459     138.0618
   4020.9219   4020.9219       4.6210       0.1035      52.3263      57.1539    -999.2500     141.0716    -999.2500     157.0584    -999.2500    -999.2500       0.0794       3.4522       2.6751     139.4220
   4021.0742   4021.0742       4.6371       0.0701      52.1443      58.8773    -999.2500     152.7299    -999.2500     170.2822    -999.2500    -999.2500       0.0805       3.2651       2.6401     139.9263
   4021.2266   4021.2266       4.7167       0.0997      51.8944      60.4794    -999.2500     193.4616    -999.2500     215.4033    -999.2500    -999.2500       0.0845       3.0820       2.5972     140.2182
   4021.3789   4021.3789       4.6380       0.1531      51.9781      60.2570    -999.2500     183.0821    -999.2500     204.2632    -999.2500    -999.2500       0.0867       3.1129       2.6101     140.0731
   4021.5315   4021.5315       4.6312       0.1956      52.3731      61.1800    -999.2500     162.1917    -999.2500     181.2872    -999.2500    -999.2500       0.0885       3.1814       2.6378     139.6786
   4021.6838   4021.6838       4.6423       0.2064      52.6455      63.8894    -999.2500     131.1229    -999.2500     147.0716    -999.2500    -999.2500       0.0874       3.2268       2.6560     138.6712
   4021.8362   4021.8362       4.6773       0.1918      52.6067      65.5580    -999.2500     140.3481    -999.2500     157.3380    -999.2500    -999.2500       0.0851       3.2387       2.6529     138.2034
   4021.9885   4021.9885       4.6982       0.1760      52.4660      67.9942    -999.2500     157.8906    -999.2500     177.7958    -999.2500    -999.2500       0.0820       3.2700       2.6590     138.6929
   4022.1411   4022.1411       4.6332       0.1513      52.4008      67.7351    -999.2500     143.5957    -999.2500     162.1582    -999.2500    -999.2500       0.0811       3.3322       2.6697     139.5207
   4022.2935   4022.2935       4.5932       0.1182      52.4302      65.7466    -999.2500     133.3680    -999.2500     150.6186    -999.2500    -999.2500       0.0800       3.4102       2.6698     140.3551
   4022.4458   4022.4458       4.5950       0.0995      52.4071      63.1310    -999.2500     140.6032    -999.2500     159.1213    -999.2500    -999.2500       0.0804       3.4609       2.6653     141.2017
   4022.5981   4022.5981       4.5910       0.0926      52.2627      61.6005    -999.2500     137.3945    -999.2500     156.1543    -999.2500    -999.2500       0.0799       3.4943       2.6686     141.5105
   4022.7505   4022.7505       4.5957       0.1012      52.0175      62.6591    -999.2500     115.5808    -999.2500     132.0601    -999.2500    -999.2500       0.0805       3.5025       2.6699     141.9120
   4022.9031   4022.9031       4.5999       0.1177      51.7516      65.0778    -999.2500      93.6814    -999.2500     107.2544    -999.2500    -999.2500       0.0788       3.4995       2.6669     142.0634
   4023.0554   4023.0554       4.5955       0.1324      51.5086      67.4943    -999.2500      91.9509    -999.2500     104.8617    -999.2500    -999.2500       0.0768       3.5245       2.6785     141.9645
   4023.2078   4023.2078       4.6069       0.1162      51.4446      71.3273    -999.2500     125.3729    -999.2500     142.1277    -999.2500    -999.2500       0.0721       3.4954       2.6841     141.6178
   4023.3601   4023.3601       4.5923       0.0798      51.5686      73.4213    -999.2500     122.6977    -999.2500     139.1572    -999.2500    -999.2500       0.0714       3.4082       2.6578     140.7153
   4023.5127   4023.5127       4.6052       0.0384      51.6713      73.4918    -999.2500      98.4405    -999.2500     111.2554    -999.2500    -999.2500       0.0715       3.2867       2.6186     139.0950
   4023.6650   4023.6650       4.6324       0.0429      51.4672      72.2865    -999.2500     101.6554    -999.2500     114.2990    -999.2500    -999.2500       0.0742       3.2122       2.6195     138.4904
   4023.8174   4023.8174       4.6825       0.0664      51.2222      70.6942    -999.2500     110.0335    -999.2500     123.8598    -999.2500    -999.2500       0.0777       3.0830       2.6361     138.5056
   4023.9697   4023.9697       4.7593       0.0666      51.3017      68.8965    -999.2500      94.4995    -999.2500     106.3155    -999.2500    -999.2500       0.0795       3.0144       2.6372     139.6167
   4024.1223   4024.1223       4.6910       0.0638      51.5313      69.4833    -999.2500      98.9235    -999.2500     110.6908    -999.2500    -999.2500       0.0829       2.9094       2.6293     140.8775
   4024.2747   4024.2747       4.6060       0.0801      51.8904      69.9831    -999.2500     123.2549    -999.2500     137.6481    -999.2500    -999.2500       0.0849       2.9052       2.6320     141.3921
   4024.4270   4024.4270       4.6151       0.1080      52.5981      68.4939    -999.2500     127.1005    -999.2500     141.8104    -999.2500    -999.2500       0.0872       3.0273       2.6457     140.5143
   4024.5793   4024.5793       4.6434       0.1048      53.4484      68.1661    -999.2500     122.3216    -999.2500     136.6122    -999.2500    -999.2500       0.0880       3.0791       2.6379     139.4807
   4024.7317   4024.7317       4.6646       0.0881      53.7877      65.2155    -999.2500     122.1068    -999.2500     136.5866    -999.2500    -999.2500       0.0889       2.9938       2.6026     138.0373
   4024.8843   4024.8843       4.6357       0.0752      53.4636      63.5250    -999.2500     103.8852    -999.2500     116.4503    -999.2500    -999.2500       0.0912       2.8285       2.5692     137.6017
   4025.0366   4025.0366       4.6025       0.0689      52.9936      63.6569    -999.2500      89.9391    -999.2500     100.8218    -999.2500    -999.2500       0.0901       2.8837       2.5829     137.6596
   4025.1890   4025.1890       4.5763       0.0512      52.7869      62.7221    -999.2500      83.3381    -999.2500      93.2830    -999.2500    -999.2500       0.0877       3.1222       2.6035     138.2077
   4025.3413   4025.3413       4.5810       0.0427      52.6020      65.5384    -999.2500      84.2645    -999.2500      94.3448    -999.2500    -999.2500       0.0850       3.3369       2.6254     138.7339
   4025.4939   4025.4939       4.6047       0.0472      52.1267      69.7761    -999.2500      76.6670    -999.2500      85.8757    -999.2500    -999.2500       0.0832       3.4701       2.6581     139.9015
