#------------------------------------------------------------------------------
#
#   Created by  : [OpenWorks] Log Export Utility (LEXP)
#   Created on  : 2015-10-01 09:41:14
#   Project     : CANT971
#   User        : R5K
#   Interpreter : PEP
#
#------------------------------------------------------------------------------
~VERSION INFORMATION
VERS. 2.0 : CWLS Log ASCII Standard - version 2.0
WRAP.  NO : One line per depth step
~WELL INFORMATION
#MNEMONIC   .UNIT                                           VALUE :DESCRIPTION
#------------------------------------------------------------------------------
STRT        .M                                          1374.3848 :START DEPTH
STOP        .M                                          3939.4292 :STOP DEPTH
STEP        .M                                             0.1524 :STEP
NULL        .                                           -999.2500 :NULL VALUE
COMP        .                                             UNKNOWN :COMPANY
WELL        .                                         SIHIL-11-ST :WELL
FLD         .                                             UNKNOWN :FIELD
LOC         .                                             UNKNOWN :LOCATION
CNTY        .                                             UNKNOWN :COUNTY
STAT        .                                             UNKNOWN :STATE
CTRY        .                                             UNKNOWN :COUNTRY
SRVC        .                                             UNKNOWN :SERVICE COMPANY
DATE        .                                             UNKNOWN :LOG DATE
UWI         .                                         SIHIL-11-ST :UNIQUE WELL ID
XCOORD      .                                       599653.950000 :SURFACE X
YCOORD      .                                      2147230.550000 :SURFACE Y
LAT         .                                           19.418046 :LATITUDE
LON         .                                          -92.050821 :LONGITUDE
ELEV        .M                                             0.0000 :SURFACE ELEV
ELEV_TYPE   .                                                  KB :ELEV TYPE
~CURVE INFORMATION
#MNEMONIC.UNIT        API CODE       : CURVE DESCRIPTION
#------------------------------------------------------------------------------
DEPTH    .M                          : Measured Depth
TVD      .M                          : True Vertical Depth (TVD)
CALI     .inches      UNKNOWN        : CALI:litodensidad:rC:NONE:v0 (auto-composite)
DRHO     .g/cm3       UNKNOWN        : DRHO:UNKNOWN:rC:NONE:v0 (auto-composite)
DT       .us/ft       UNKNOWN        : DT:UNKNOWN:rC:NONE:v0 (auto-composite)
GR       .API         UNKNOWN        : GR:UNKNOWN:rC:NONE:v0 (auto-composite)
GR-ENT   .API         UNKNOWN        : GR-ENT:registros:rC:NONE:v0 (auto-composite)
GR-LWD   .API         UNKNOWN        : GR-LWD:PETROWORKS:rC:NONE:v1 
LLD-LWD  .ohm.m       UNKNOWN        : LLD-LWD:PETROWORKS:rC:NONE:v1 
LLS-LWD  .ohm.m       UNKNOWN        : LLS-LWD:PETROWORKS:rC:NONE:v1 
MSFL-LWD .ohm.m       UNKNOWN        : MSFL-LWD:PETROWORKS:rC:NONE:v1 
NPHI     .v/v_decimal UNKNOWN        : NPHI:UNKNOWN:rC:NONE:v0 (auto-composite)
NPHI-ENT .v/v_decimal UNKNOWN        : NPHI-ENT:registros:rC:NONE:v0 (auto-composite)
PEF      .b/elec      UNKNOWN        : PEF:UNKNOWN:rC:NONE:v0 (auto-composite)
RHOB     .g/cm3       UNKNOWN        : RHOB:UNKNOWN:rC:NONE:v0 (auto-composite)
SIGM     .cu          UNKNOWN        : SIGM:registros:rC:NONE:v0 (auto-composite)
~A     DEPTH         TVD         CALI         DRHO           DT           GR       GR-ENT       GR-LWD      LLD-LWD      LLS-LWD     MSFL-LWD         NPHI     NPHI-ENT          PEF         RHOB         SIGM
# ...
   3864.7532   3864.7532       6.6098       0.0304      50.8569      66.7878    -999.2500      61.9869      85.4332      77.9325      95.1374       0.0711    -999.2500       3.9567       2.8057    -999.2500
   3864.9055   3864.9055       6.6074       0.0301      52.3151      63.8602    -999.2500      59.0424      85.0006      79.7841      94.7585       0.0694    -999.2500       3.8901       2.7931    -999.2500
   3865.0579   3865.0579       6.6056       0.0293      53.0012      63.6000    -999.2500      56.4510      87.3886      82.7476      95.3844       0.0674    -999.2500       3.8126       2.7916    -999.2500
   3865.2104   3865.2104       6.6032       0.0293      52.5759      66.6881    -999.2500      55.1099      89.8728      85.3535      95.5843       0.0657    -999.2500       3.7810       2.7981    -999.2500
   3865.3628   3865.3628       6.6046       0.0422      51.3460      69.3010    -999.2500      55.1505      91.6618      86.3136      95.7137       0.0644    -999.2500       3.7785       2.8057    -999.2500
   3865.5151   3865.5151       6.6156       0.0590      50.1168      66.3863    -999.2500      56.4949      93.2500      85.5183      96.0684       0.0642    -999.2500       3.8868       2.7933    -999.2500
   3865.6675   3865.6675       6.6276       0.0685      49.4609      60.5243    -999.2500      57.0196      93.2865      84.0932      94.7857       0.0646    -999.2500       4.1378       2.7642    -999.2500
   3865.8201   3865.8201       6.6357       0.0633      49.5113      58.2241    -999.2500      54.9917      92.5890      82.6620      92.8431       0.0674    -999.2500       4.2091       2.7595    -999.2500
   3865.9724   3865.9724       6.6514       0.0573      50.0992      57.6617    -999.2500      53.6582      90.4358      79.8909      91.3477       0.0726    -999.2500       4.0661       2.7834    -999.2500
   3866.1248   3866.1248       6.6455       0.0562      50.9304      58.7961    -999.2500      54.8667      87.7619      77.0589      90.4609       0.0777    -999.2500       3.9660       2.8011    -999.2500
   3866.2771   3866.2771       6.6335       0.0568      51.7415      61.3295    -999.2500      56.9238      86.2938      76.4297      90.4709       0.0868    -999.2500       4.0096       2.7890    -999.2500
   3866.4297   3866.4297       6.6130       0.0584      52.1922      62.2785    -999.2500      58.2493      84.4627      75.8601      89.1837       0.0916    -999.2500       4.1542       2.7579    -999.2500
   3866.5820   3866.5820       6.6033       0.0470      51.8749      59.6265    -999.2500      58.2912      82.6909      73.7628      85.4489       0.0813    -999.2500       4.2451       2.7405    -999.2500
   3866.7344   3866.7344       6.5888       0.0247      50.7108      57.3380    -999.2500      59.2088      81.5122      71.4749      82.6797       0.0725    -999.2500       4.1681       2.7468    -999.2500
   3866.8867   3866.8867       6.5843       0.0179      49.4356      58.3054    -999.2500      62.6200      80.8727      71.0749      83.6212       0.0691    -999.2500       4.0309       2.7697    -999.2500
   3867.0391   3867.0391       6.5912       0.0259      48.8778      60.5218    -999.2500      65.0038      80.8105      72.1200      86.6430       0.0659    -999.2500       4.0587       2.7790    -999.2500
   3867.1917   3867.1917       6.5972       0.0336      49.0459      61.8131    -999.2500      63.8684      80.4388      72.5667      88.8442       0.0655    -999.2500       4.1682       2.7685    -999.2500
   3867.3440   3867.3440       6.5887       0.0373      49.4622      62.4437    -999.2500      61.7072      80.3088      73.0655      90.1315       0.0671    -999.2500       4.1690       2.7622    -999.2500
   3867.4963   3867.4963       6.5774       0.0378      49.7303      63.6891    -999.2500      59.8076      80.5416      73.8455      90.4635       0.0672    -999.2500       4.1101       2.7603    -999.2500
   3867.6487   3867.6487       6.5804       0.0350      49.8506      65.9343    -999.2500      58.5185      80.8774      74.4570      90.1355       0.0677    -999.2500       4.1157       2.7509    -999.2500
   3867.8013   3867.8013       6.5879       0.0320      50.0773      66.6301    -999.2500      58.5631      81.4589      74.9465      89.9927       0.0711    -999.2500       4.1912       2.7460    -999.2500
   3867.9536   3867.9536       6.5881       0.0317      50.6696      65.9233    -999.2500      60.0685      81.9597      75.6162      90.4006       0.0755    -999.2500       4.2172       2.7683    -999.2500
   3868.1060   3868.1060       6.5810       0.0341      51.6910      65.8919    -999.2500      60.5341      82.1615      76.5023      91.3744       0.0775    -999.2500       4.1004       2.8066    -999.2500
   3868.2583   3868.2583       6.5814       0.0370      52.9735      64.3304    -999.2500      58.9010      82.7358      78.0548      93.3334       0.0737    -999.2500       4.0008       2.8339    -999.2500
   3868.4106   3868.4106       6.5904       0.0393      54.0172      63.4698    -999.2500      56.5745      84.6268      80.4879      95.1632       0.0665    -999.2500       4.0665       2.8284    -999.2500
   3868.5632   3868.5632       6.5950       0.0430      54.5399      66.2697    -999.2500      55.8629      86.8842      82.7911      95.6878       0.0599    -999.2500       4.1527       2.8216    -999.2500
   3868.7156   3868.7156       6.5918       0.0438      54.8301      67.9314    -999.2500      56.6727      87.5731      84.1503      96.4676       0.0604    -999.2500       4.1313       2.8267    -999.2500
   3868.8679   3868.8679       6.5911       0.0426      55.1513      66.2170    -999.2500      56.9548      87.1245      84.4605      96.9440       0.0641    -999.2500       4.0844       2.8317    -999.2500
   3869.0203   3869.0203       6.5906       0.0428      55.4552      63.2223    -999.2500      56.4382      86.1122      83.9815      95.9520       0.0630    -999.2500       4.1044       2.8258    -999.2500
   3869.1729   3869.1729       6.5949       0.0433      55.7075      58.7809    -999.2500      55.4087      85.6150      83.3900      94.1755       0.0594    -999.2500       4.1472       2.8165    -999.2500
   3869.3252   3869.3252       6.5943       0.0427      55.8616      58.0437    -999.2500      54.9808      86.4315      83.1497      92.4719       0.0588    -999.2500       4.1240       2.8133    -999.2500
   3869.4775   3869.4775       6.5926       0.0417      55.4182      58.4788    -999.2500      54.9296      86.6119      81.4092      90.0467       0.0586    -999.2500       4.0498       2.8140    -999.2500
   3869.6299   3869.6299       6.5889       0.0406      53.7624      57.7162    -999.2500      54.8270      85.2528      77.9650      86.3879       0.0606    -999.2500       3.9770       2.8134    -999.2500
   3869.7825   3869.7825       6.5920       0.0400      51.3495      57.5466    -999.2500      55.9929      83.2388      75.1060      82.2310       0.0624    -999.2500       3.9519       2.8061    -999.2500
   3869.9348   3869.9348       6.5958       0.0399      49.5850      59.3812    -999.2500      58.2408      79.8254      72.3241      76.5953       0.0632    -999.2500       3.9620       2.7940    -999.2500
   3870.0872   3870.0872       6.6023       0.0391      49.2840      63.1094    -999.2500      59.4203      75.6052      68.5966      70.8586       0.0653    -999.2500       3.9836       2.7861    -999.2500
   3870.2395   3870.2395       6.6043       0.0383      50.2031      64.7135    -999.2500      59.1488      73.1630      66.6541      70.0463       0.0658    -999.2500       3.9734       2.7887    -999.2500
   3870.3918   3870.3918       6.6018       0.0374      51.4582      63.8509    -999.2500      58.8857      72.4454      67.6564      73.2877       0.0653    -999.2500       3.9664       2.7929    -999.2500
   3870.5444   3870.5444       6.5905       0.0356      52.1318      63.1468    -999.2500      57.8773      71.4026      68.7970      77.5753       0.0680    -999.2500       3.9605       2.7900    -999.2500
