#------------------------------------------------------------------------------
#
#   Created by  : [OpenWorks] Log Export Utility (LEXP)
#   Created on  : 2015-10-01 09:42:34
#   Project     : CANT971
#   User        : R5K
#   Interpreter : PEP
#
#------------------------------------------------------------------------------
~VERSION INFORMATION
VERS. 2.0 : CWLS Log ASCII Standard - version 2.0
WRAP.  NO : One line per depth step
~WELL INFORMATION
#MNEMONIC   .UNIT                                           VALUE :DESCRIPTION
#------------------------------------------------------------------------------
STRT        .M                                          3550.1582 :START DEPTH
STOP        .M                                          4164.9399 :STOP DEPTH
STEP        .M                                             0.1524 :STEP
NULL        .                                           -999.2500 :NULL VALUE
COMP        .                                             UNKNOWN :COMPANY
WELL        .                                         SIHIL-12-ST :WELL
FLD         .                                             UNKNOWN :FIELD
LOC         .                                             UNKNOWN :LOCATION
CNTY        .                                             UNKNOWN :COUNTY
STAT        .                                             UNKNOWN :STATE
CTRY        .                                             UNKNOWN :COUNTRY
SRVC        .                                             UNKNOWN :SERVICE COMPANY
DATE        .                                             UNKNOWN :LOG DATE
UWI         .                                         SIHIL-12-ST :UNIQUE WELL ID
XCOORD      .                                            0.000000 :SURFACE X
YCOORD      .                                            0.000000 :SURFACE Y
LAT         .                                            0.000000 :LATITUDE
LON         .                                          -97.488695 :LONGITUDE
ELEV        .M                                             0.0000 :SURFACE ELEV
ELEV_TYPE   .                                                  KB :ELEV TYPE
~CURVE INFORMATION
#MNEMONIC.UNIT        API CODE       : CURVE DESCRIPTION
#------------------------------------------------------------------------------
DEPTH    .M                          : Measured Depth
TVD      .M                          : True Vertical Depth (TVD)
CALI     .inches      UNKNOWN        : CALI:litodensidad:rC:NONE:v0 (auto-composite)
DRHO     .g/cm3       UNKNOWN        : DRHO:litodensidad:rC:NONE:v0 (auto-composite)
DT       .us/ft       UNKNOWN        : DT:sonico:rC:NONE:v0 (auto-composite)
GR       .API         UNKNOWN        : GR:resistivos:rC:NONE:v0 (auto-composite)
GR-LWD   .API         UNKNOWN        : GR-LWD:resistivos-LWD:rC:NONE:v0 (auto-composite)
LLD      .ohm.m       UNKNOWN        : LLD:resistivos:rC:NONE:v0 (auto-composite)
LLD-LWD  .ohm.m       UNKNOWN        : LLD-LWD:resistivos-LWD:rC:NONE:v0 (auto-composite)
LLS      .ohm.m       UNKNOWN        : LLS:resistivos:rC:NONE:v0 (auto-composite)
LLS-LWD  .ohm.m       UNKNOWN        : LLS-LWD:resistivos-LWD:rC:NONE:v0 (auto-composite)
MSFL-LWD .ohm.m       UNKNOWN        : MSFL-LWD:resistivos-LWD:rC:NONE:v0 (auto-composite)
NPHI     .v/v_decimal UNKNOWN        : NPHI:porosidad:rC:NONE:v0 (auto-composite)
PEF      .b/elec      UNKNOWN        : PEF:litodensidad:rC:NONE:v0 (auto-composite)
RHOB     .g/cm3       UNKNOWN        : RHOB:litodensidad:rC:NONE:v0 (auto-composite)
SP       .mv          UNKNOWN        : SP:resistivos:rC:NONE:v0 (auto-composite)
~A     DEPTH         TVD         CALI         DRHO           DT           GR       GR-LWD          LLD      LLD-LWD          LLS      LLS-LWD     MSFL-LWD         NPHI          PEF         RHOB           SP
# ...
   4031.5898   4031.5898       4.6062       0.1075      55.3587      71.0582    -999.2500     112.0260    -999.2500     116.5103    -999.2500    -999.2500       0.1060       3.1097       2.5819     134.6584
   4031.7422   4031.7422       4.5906       0.1339      55.0926      71.3998    -999.2500     105.3190    -999.2500     109.6815    -999.2500    -999.2500       0.1045       3.1510       2.6006     134.0844
   4031.8945   4031.8945       4.5977       0.1607      54.4575      68.6947    -999.2500      88.7515    -999.2500      92.0783    -999.2500    -999.2500       0.1027       3.1495       2.6055     133.3679
   4032.0471   4032.0471       4.6257       0.1304      53.9268      62.7436    -999.2500     114.0909    -999.2500     118.1272    -999.2500    -999.2500       0.1046       3.1381       2.5837     132.8157
   4032.1995   4032.1995       4.5854       0.0886      53.5601      60.3082    -999.2500     129.8457    -999.2500     134.8119    -999.2500    -999.2500       0.1072       3.1489       2.5799     133.1404
   4032.3518   4032.3518       4.6145       0.0638      53.3558      59.1849    -999.2500     109.6914    -999.2500     114.3574    -999.2500    -999.2500       0.1104       3.1283       2.5840     133.9897
   4032.5042   4032.5042       4.5831       0.0275      53.2297      59.8777    -999.2500     106.1531    -999.2500     110.6136    -999.2500    -999.2500       0.1076       3.1725       2.5546     134.4741
   4032.6565   4032.6565       4.5689       0.0228      53.2673      62.7400    -999.2500     109.8867    -999.2500     114.3321    -999.2500    -999.2500       0.1044       3.2812       2.5558     135.0978
   4032.8091   4032.8091       4.5956       0.0375      53.7739      65.5604    -999.2500     112.7154    -999.2500     117.4305    -999.2500    -999.2500       0.0995       3.3246       2.6008     135.2189
   4032.9614   4032.9614       4.5810       0.0405      54.8278      67.3990    -999.2500     112.1611    -999.2500     116.2344    -999.2500    -999.2500       0.0990       3.2365       2.6159     134.4716
   4033.1138   4033.1138       4.6078       0.0349      55.5800      69.9274    -999.2500     117.9355    -999.2500     121.6419    -999.2500    -999.2500       0.0978       3.0940       2.6056     132.7212
   4033.2661   4033.2661       4.6322       0.0383      55.5382      70.3159    -999.2500     107.6307    -999.2500     111.2151    -999.2500    -999.2500       0.0991       3.0411       2.5847     132.3109
   4033.4187   4033.4187       4.6211       0.0627      55.0152      70.5700    -999.2500      96.1114    -999.2500      98.9105    -999.2500    -999.2500       0.1012       3.0901       2.5654     132.8860
   4033.5710   4033.5710       4.5630       0.0879      54.5398      71.4848    -999.2500     101.0194    -999.2500     103.5151    -999.2500    -999.2500       0.1024       3.1682       2.5804     135.4983
   4033.7234   4033.7234       4.6370       0.1245      54.4285      72.0048    -999.2500     127.5170    -999.2500     130.6869    -999.2500    -999.2500       0.1001       3.1864       2.6253     137.3658
   4033.8757   4033.8757       4.6316       0.1127      54.5172      73.2533    -999.2500     106.3283    -999.2500     109.2627    -999.2500    -999.2500       0.0982       3.1568       2.6249     138.7803
   4034.0283   4034.0283       4.6050       0.0763      54.6966      72.8811    -999.2500     129.4265    -999.2500     132.9735    -999.2500    -999.2500       0.0975       3.1716       2.5769     138.5461
   4034.1807   4034.1807       4.6103       0.0545      54.7827      71.1767    -999.2500     115.2942    -999.2500     119.2742    -999.2500    -999.2500       0.0980       3.3311       2.5409     137.4257
   4034.3330   4034.3330       4.6443       0.0824      54.5225      69.0433    -999.2500     130.1446    -999.2500     134.5369    -999.2500    -999.2500       0.0959       3.4537       2.5973     135.1111
   4034.4854   4034.4854       4.6641       0.1396      54.0755      66.2577    -999.2500     117.5410    -999.2500     123.0673    -999.2500    -999.2500       0.0905       3.4697       2.6648     134.5648
   4034.6377   4034.6377       4.6414       0.1600      53.6393      67.2047    -999.2500     103.6182    -999.2500     107.5703    -999.2500    -999.2500       0.0875       3.4875       2.6760     135.1189
   4034.7903   4034.7903       4.6301       0.1373      53.4580      69.8543    -999.2500     139.0676    -999.2500     144.3248    -999.2500    -999.2500       0.0858       3.5448       2.6621     137.4930
   4034.9426   4034.9426       4.6309       0.1238      53.4966      73.8233    -999.2500     115.9650    -999.2500     120.1801    -999.2500    -999.2500       0.0862       3.5911       2.6499     139.3381
   4035.0950   4035.0950       4.5979       0.1270      53.5813      77.2516    -999.2500     105.6854    -999.2500     109.1971    -999.2500    -999.2500       0.0862       3.6308       2.6638     139.6231
   4035.2473   4035.2473       4.7059       0.1078      53.8787      76.1369    -999.2500     101.6034    -999.2500     104.7203    -999.2500    -999.2500       0.0846       3.5329       2.6455     138.0004
   4035.3999   4035.3999       4.8175       0.0818      54.4536      72.7668    -999.2500     115.6277    -999.2500     118.7868    -999.2500    -999.2500       0.0859       3.3191       2.5552     136.0474
   4035.5522   4035.5522       4.9080       0.0960      55.0863      70.5928    -999.2500     124.5635    -999.2500     128.8886    -999.2500    -999.2500       0.0890       3.2014       2.5016     135.1544
   4035.7046   4035.7046       4.7683       0.1662      55.4793      68.8404    -999.2500      78.0024    -999.2500      80.6400    -999.2500    -999.2500       0.0941       3.1488       2.5185     134.8482
   4035.8569   4035.8569       4.7454       0.2012      55.4062      70.2674    -999.2500     135.5964    -999.2500     139.6137    -999.2500    -999.2500       0.0967       3.0804       2.4864     135.4446
   4036.0095   4036.0095       5.1105       0.2197      54.9496      72.5764    -999.2500     130.4532    -999.2500     134.4235    -999.2500    -999.2500       0.1005       3.1072       2.4527     135.9538
   4036.1619   4036.1619       5.2017       0.1956      54.2619      76.2365    -999.2500     122.4541    -999.2500     125.8825    -999.2500    -999.2500       0.0979       3.2662       2.5240     136.5306
   4036.3142   4036.3142       4.8562       0.1287      53.6552      78.4885    -999.2500     144.3522    -999.2500     148.7120    -999.2500    -999.2500       0.0899       3.4004       2.6168     136.5884
   4036.4666   4036.4666       4.6178       0.1037      53.2868      77.6653    -999.2500     124.1175    -999.2500     128.0050    -999.2500    -999.2500       0.0874       3.3439       2.6149     135.9578
   4036.6189   4036.6189       4.6057       0.0910      53.0414      74.3042    -999.2500     117.8364    -999.2500     120.8942    -999.2500    -999.2500       0.0896       3.2446       2.6023     134.7469
   4036.7715   4036.7715       4.6128       0.0829      52.9035      73.1036    -999.2500     124.0236    -999.2500     128.1693    -999.2500    -999.2500       0.0912       3.2535       2.6069     135.3723
   4036.9238   4036.9238       4.6143       0.0705      52.8482      73.7105    -999.2500      87.8645    -999.2500      90.5952    -999.2500    -999.2500       0.0940       3.2226       2.6166     137.0858
   4037.0762   4037.0762       4.6022       0.0766      52.6035      76.2420    -999.2500     101.6662    -999.2500     103.9548    -999.2500    -999.2500       0.0936       3.1730       2.6328     140.0399
   4037.2285   4037.2285       4.6275       0.0804      52.1476      77.9892    -999.2500     113.5684    -999.2500     115.9093    -999.2500    -999.2500       0.0907       3.1888       2.6536     140.0075
   4037.3811   4037.3811       4.7463       0.0653      52.1073      77.3104    -999.2500     116.5435    -999.2500     120.0619    -999.2500    -999.2500       0.0860       3.2120       2.6494     138.5521
