#------------------------------------------------------------------------------
#
#   Created by  : [OpenWorks] Log Export Utility (LEXP)
#   Created on  : 2015-10-01 09:41:14
#   Project     : CANT971
#   User        : R5K
#   Interpreter : PEP
#
#------------------------------------------------------------------------------
~VERSION INFORMATION
VERS. 2.0 : CWLS Log ASCII Standard - version 2.0
WRAP.  NO : One line per depth step
~WELL INFORMATION
#MNEMONIC   .UNIT                                           VALUE :DESCRIPTION
#------------------------------------------------------------------------------
STRT        .M                                          1374.3848 :START DEPTH
STOP        .M                                          3939.4292 :STOP DEPTH
STEP        .M                                             0.1524 :STEP
NULL        .                                           -999.2500 :NULL VALUE
COMP        .                                             UNKNOWN :COMPANY
WELL        .                                         SIHIL-11-ST :WELL
FLD         .                                             UNKNOWN :FIELD
LOC         .                                             UNKNOWN :LOCATION
CNTY        .                                             UNKNOWN :COUNTY
STAT        .                                             UNKNOWN :STATE
CTRY        .                                             UNKNOWN :COUNTRY
SRVC        .                                             UNKNOWN :SERVICE COMPANY
DATE        .                                             UNKNOWN :LOG DATE
UWI         .                                         SIHIL-11-ST :UNIQUE WELL ID
XCOORD      .                                       599653.950000 :SURFACE X
YCOORD      .                                      2147230.550000 :SURFACE Y
LAT         .                                           19.418046 :LATITUDE
LON         .                                          -92.050821 :LONGITUDE
ELEV        .M                                             0.0000 :SURFACE ELEV
ELEV_TYPE   .                                                  KB :ELEV TYPE
~CURVE INFORMATION
#MNEMONIC.UNIT        API CODE       : CURVE DESCRIPTION
#------------------------------------------------------------------------------
DEPTH    .M                          : Measured Depth
TVD      .M                          : True Vertical Depth (TVD)
CALI     .inches      UNKNOWN        : CALI:litodensidad:rC:NONE:v0 (auto-composite)
DRHO     .g/cm3       UNKNOWN        : DRHO:UNKNOWN:rC:NONE:v0 (auto-composite)
DT       .us/ft       UNKNOWN        : DT:UNKNOWN:rC:NONE:v0 (auto-composite)
GR       .API         UNKNOWN        : GR:UNKNOWN:rC:NONE:v0 (auto-composite)
GR-ENT   .API         UNKNOWN        : GR-ENT:registros:rC:NONE:v0 (auto-composite)
GR-LWD   .API         UNKNOWN        : GR-LWD:PETROWORKS:rC:NONE:v1 
LLD-LWD  .ohm.m       UNKNOWN        : LLD-LWD:PETROWORKS:rC:NONE:v1 
LLS-LWD  .ohm.m       UNKNOWN        : LLS-LWD:PETROWORKS:rC:NONE:v1 
MSFL-LWD .ohm.m       UNKNOWN        : MSFL-LWD:PETROWORKS:rC:NONE:v1 
NPHI     .v/v_decimal UNKNOWN        : NPHI:UNKNOWN:rC:NONE:v0 (auto-composite)
NPHI-ENT .v/v_decimal UNKNOWN        : NPHI-ENT:registros:rC:NONE:v0 (auto-composite)
PEF      .b/elec      UNKNOWN        : PEF:UNKNOWN:rC:NONE:v0 (auto-composite)
RHOB     .g/cm3       UNKNOWN        : RHOB:UNKNOWN:rC:NONE:v0 (auto-composite)
SIGM     .cu          UNKNOWN        : SIGM:registros:rC:NONE:v0 (auto-composite)
~A     DEPTH         TVD         CALI         DRHO           DT           GR       GR-ENT       GR-LWD      LLD-LWD      LLS-LWD     MSFL-LWD         NPHI     NPHI-ENT          PEF         RHOB         SIGM
# ...
   3811.2607   3811.2607       6.6157       0.0331      58.5288      54.6158    -999.2500      57.8188      21.3747      20.5458      22.0154       0.1222    -999.2500       3.9030       2.6696    -999.2500
   3811.4131   3811.4131       6.6159       0.0315      58.4719      55.3357    -999.2500      58.2020      21.4359      19.9352      21.0030       0.1219    -999.2500       3.9477       2.6695    -999.2500
   3811.5657   3811.5657       6.6174       0.0292      58.4444      57.9715    -999.2500      58.5295      21.1160      19.1148      19.7140       0.1235    -999.2500       4.0092       2.6681    -999.2500
   3811.7180   3811.7180       6.6178       0.0265      58.6667      60.0908    -999.2500      58.5531      20.4919      18.5139      18.8319       0.1248    -999.2500       3.9594       2.6565    -999.2500
   3811.8704   3811.8704       6.6124       0.0227      59.0505      62.2276    -999.2500      58.8688      20.0811      18.2712      18.5357       0.1261    -999.2500       3.8325       2.6434    -999.2500
   3812.0227   3812.0227       6.6059       0.0212      59.2645      61.6917    -999.2500      59.8389      19.8562      18.2810      18.7161       0.1252    -999.2500       3.7455       2.6502    -999.2500
   3812.1750   3812.1750       6.5971       0.0193      59.1780      59.4971    -999.2500      61.9317      19.8102      18.5435      19.3719       0.1253    -999.2500       3.7292       2.6573    -999.2500
   3812.3276   3812.3276       6.5932       0.0194      59.0388      58.6101    -999.2500      63.4417      20.0137      18.8590      19.8826       0.1270    -999.2500       3.7925       2.6520    -999.2500
   3812.4800   3812.4800       6.5965       0.0238      59.1871      60.4279    -999.2500      63.1961      20.2423      19.0214      19.9467       0.1271    -999.2500       3.8099       2.6488    -999.2500
   3812.6323   3812.6323       6.5971       0.0290      59.7123      62.3908    -999.2500      61.5992      20.3754      19.0457      19.8403       0.1251    -999.2500       3.7722       2.6491    -999.2500
   3812.7847   3812.7847       6.5960       0.0327      60.2220      62.1468    -999.2500      59.5426      20.5019      19.0176      19.6936       0.1237    -999.2500       3.7804       2.6569    -999.2500
   3812.9373   3812.9373       6.5968       0.0352      60.1448      61.1141    -999.2500      57.6439      20.7059      19.0276      19.6149       0.1231    -999.2500       3.8477       2.6677    -999.2500
   3813.0896   3813.0896       6.6004       0.0358      59.4215      60.0052    -999.2500      57.9401      21.0043      19.2628      19.8322       0.1202    -999.2500       3.9035       2.6719    -999.2500
   3813.2419   3813.2419       6.6004       0.0349      58.6202      57.8760    -999.2500      61.5049      21.3043      19.6213      20.1866       0.1180    -999.2500       3.9268       2.6701    -999.2500
   3813.3943   3813.3943       6.6002       0.0333      58.4855      57.8155    -999.2500      63.6828      21.4013      19.8822      20.4556       0.1195    -999.2500       3.9361       2.6656    -999.2500
   3813.5469   3813.5469       6.6043       0.0338      59.0768      60.2675    -999.2500      63.7790      21.4593      20.3581      20.9881       0.1206    -999.2500       3.9408       2.6631    -999.2500
   3813.6992   3813.6992       6.6083       0.0367      59.6940      61.5889    -999.2500      61.8657      21.6550      21.4041      22.1937       0.1185    -999.2500       3.9938       2.6668    -999.2500
   3813.8516   3813.8516       6.6068       0.0401      59.7774      60.6828    -999.2500      61.0912      22.0492      22.5300      23.5705       0.1177    -999.2500       4.0940       2.6736    -999.2500
   3814.0039   3814.0039       6.6042       0.0446      59.1633      60.1063    -999.2500      60.5913      22.4876      23.2298      24.5937       0.1176    -999.2500       4.1440       2.6763    -999.2500
   3814.1562   3814.1562       6.6026       0.0505      58.0305      60.7398    -999.2500      60.2888      22.7677      23.4324      25.0004       0.1165    -999.2500       4.1137       2.6757    -999.2500
   3814.3088   3814.3088       6.6024       0.0532      57.1072      62.6639    -999.2500      60.8190      22.9545      23.2538      24.9337       0.1119    -999.2500       4.0906       2.6780    -999.2500
   3814.4612   3814.4612       6.6113       0.0514      57.0630      68.1112    -999.2500      63.5843      23.0411      22.6281      24.3330       0.1073    -999.2500       4.0977       2.6830    -999.2500
   3814.6135   3814.6135       6.6164       0.0445      57.7670      72.8466    -999.2500      67.3595      23.0580      22.0200      23.6994       0.1061    -999.2500       4.0908       2.6888    -999.2500
   3814.7659   3814.7659       6.6145       0.0365      58.6056      72.6298    -999.2500      67.5580      23.0675      21.5967      23.0802       0.1033    -999.2500       4.0664       2.7002    -999.2500
   3814.9185   3814.9185       6.6085       0.0340      59.2339      69.3928    -999.2500      66.3657      22.9540      21.2746      22.4986       0.1038    -999.2500       4.0295       2.7098    -999.2500
   3815.0708   3815.0708       6.6069       0.0334      59.6307      67.6978    -999.2500      65.0026      22.4736      20.7781      21.7286       0.1054    -999.2500       3.9450       2.7184    -999.2500
   3815.2231   3815.2231       6.6057       0.0332      59.8172      65.8672    -999.2500      63.5848      21.6772      20.2220      21.0115       0.1060    -999.2500       3.8577       2.7144    -999.2500
   3815.3755   3815.3755       6.6012       0.0325      59.9279      63.9880    -999.2500      61.8744      21.7226      20.4836      21.3845       0.1089    -999.2500       3.8018       2.7015    -999.2500
   3815.5281   3815.5281       6.5988       0.0315      60.0814      63.4625    -999.2500      61.0369      22.0145      20.7701      21.6796       0.1117    -999.2500       3.8469       2.6930    -999.2500
   3815.6804   3815.6804       6.5992       0.0308      60.1886      63.1719    -999.2500      60.3598      22.2231      20.9615      21.8370       0.1108    -999.2500       3.9411       2.6871    -999.2500
   3815.8328   3815.8328       6.6020       0.0314      60.1408      64.2985    -999.2500      59.2149      22.6131      21.3611      22.2542       0.1101    -999.2500       4.0048       2.6872    -999.2500
   3815.9851   3815.9851       6.6013       0.0336      60.0463      65.7524    -999.2500      58.3421      23.2901      22.0769      23.0601       0.1090    -999.2500       3.9545       2.6893    -999.2500
   3816.1375   3816.1375       6.5995       0.0356      60.0234      65.4791    -999.2500      60.1389      23.7320      22.4819      23.4738       0.1091    -999.2500       3.8957       2.6808    -999.2500
   3816.2900   3816.2900       6.5958       0.0382      59.9819      64.7813    -999.2500      61.2082      24.1454      22.6992      23.6989       0.1128    -999.2500       3.9421       2.6698    -999.2500
   3816.4424   3816.4424       6.5960       0.0418      59.7728      65.2746    -999.2500      61.1596      24.4689      22.7669      23.7672       0.1151    -999.2500       4.0221       2.6723    -999.2500
   3816.5947   3816.5947       6.6012       0.0438      59.4468      66.4232    -999.2500      60.7164      24.8855      22.8083      23.7055       0.1164    -999.2500       4.0536       2.6804    -999.2500
   3816.7471   3816.7471       6.6130       0.0452      59.1791      66.6976    -999.2500      59.9554      25.3874      22.8889      23.5880       0.1175    -999.2500       4.0548       2.6838    -999.2500
   3816.8997   3816.8997       6.6192       0.0471      59.1078      65.8060    -999.2500      59.2007      25.6540      23.0751      23.7773       0.1185    -999.2500       4.0363       2.6901    -999.2500
   3817.0520   3817.0520       6.6217       0.0482      59.2080      65.4746    -999.2500      59.1106      25.9717      23.3786      24.1110       0.1216    -999.2500       3.9979       2.6955    -999.2500
