#------------------------------------------------------------------------------
#
#   Created by  : [OpenWorks] Log Export Utility (LEXP)
#   Created on  : 2015-10-01 09:42:34
#   Project     : CANT971
#   User        : R5K
#   Interpreter : PEP
#
#------------------------------------------------------------------------------
~VERSION INFORMATION
VERS. 2.0 : CWLS Log ASCII Standard - version 2.0
WRAP.  NO : One line per depth step
~WELL INFORMATION
#MNEMONIC   .UNIT                                           VALUE :DESCRIPTION
#------------------------------------------------------------------------------
STRT        .M                                          3550.1582 :START DEPTH
STOP        .M                                          4164.9399 :STOP DEPTH
STEP        .M                                             0.1524 :STEP
NULL        .                                           -999.2500 :NULL VALUE
COMP        .                                             UNKNOWN :COMPANY
WELL        .                                         SIHIL-12-ST :WELL
FLD         .                                             UNKNOWN :FIELD
LOC         .                                             UNKNOWN :LOCATION
CNTY        .                                             UNKNOWN :COUNTY
STAT        .                                             UNKNOWN :STATE
CTRY        .                                             UNKNOWN :COUNTRY
SRVC        .                                             UNKNOWN :SERVICE COMPANY
DATE        .                                             UNKNOWN :LOG DATE
UWI         .                                         SIHIL-12-ST :UNIQUE WELL ID
XCOORD      .                                            0.000000 :SURFACE X
YCOORD      .                                            0.000000 :SURFACE Y
LAT         .                                            0.000000 :LATITUDE
LON         .                                          -97.488695 :LONGITUDE
ELEV        .M                                             0.0000 :SURFACE ELEV
ELEV_TYPE   .                                                  KB :ELEV TYPE
~CURVE INFORMATION
#MNEMONIC.UNIT        API CODE       : CURVE DESCRIPTION
#------------------------------------------------------------------------------
DEPTH    .M                          : Measured Depth
TVD      .M                          : True Vertical Depth (TVD)
CALI     .inches      UNKNOWN        : CALI:litodensidad:rC:NONE:v0 (auto-composite)
DRHO     .g/cm3       UNKNOWN        : DRHO:litodensidad:rC:NONE:v0 (auto-composite)
DT       .us/ft       UNKNOWN        : DT:sonico:rC:NONE:v0 (auto-composite)
GR       .API         UNKNOWN        : GR:resistivos:rC:NONE:v0 (auto-composite)
GR-LWD   .API         UNKNOWN        : GR-LWD:resistivos-LWD:rC:NONE:v0 (auto-composite)
LLD      .ohm.m       UNKNOWN        : LLD:resistivos:rC:NONE:v0 (auto-composite)
LLD-LWD  .ohm.m       UNKNOWN        : LLD-LWD:resistivos-LWD:rC:NONE:v0 (auto-composite)
LLS      .ohm.m       UNKNOWN        : LLS:resistivos:rC:NONE:v0 (auto-composite)
LLS-LWD  .ohm.m       UNKNOWN        : LLS-LWD:resistivos-LWD:rC:NONE:v0 (auto-composite)
MSFL-LWD .ohm.m       UNKNOWN        : MSFL-LWD:resistivos-LWD:rC:NONE:v0 (auto-composite)
NPHI     .v/v_decimal UNKNOWN        : NPHI:porosidad:rC:NONE:v0 (auto-composite)
PEF      .b/elec      UNKNOWN        : PEF:litodensidad:rC:NONE:v0 (auto-composite)
RHOB     .g/cm3       UNKNOWN        : RHOB:litodensidad:rC:NONE:v0 (auto-composite)
SP       .mv          UNKNOWN        : SP:resistivos:rC:NONE:v0 (auto-composite)
~A     DEPTH         TVD         CALI         DRHO           DT           GR       GR-LWD          LLD      LLD-LWD          LLS      LLS-LWD     MSFL-LWD         NPHI          PEF         RHOB           SP
# ...
   4138.5747   4138.5747       4.5281       0.0621      44.8940     107.7432    -999.2500      70.5158    -999.2500      73.6795    -999.2500    -999.2500       0.0629       4.3833       2.7378     141.0167
   4138.7271   4138.7271       4.5405       0.0605      44.4064     112.9147    -999.2500     154.0103    -999.2500     161.3107    -999.2500    -999.2500       0.0477       4.5480       2.7916     141.4647
   4138.8794   4138.8794       4.5503       0.0502      44.2930     117.6025    -999.2500     274.1992    -999.2500     286.2658    -999.2500    -999.2500       0.0411       4.5389       2.7829     141.1903
   4139.0317   4139.0317       4.5450       0.0636      44.3299     118.0026    -999.2500     312.2815    -999.2500     335.6025    -999.2500    -999.2500       0.0371       4.5659       2.7741     140.5593
   4139.1841   4139.1841       4.5642       0.1192      44.8108     113.6983    -999.2500     211.4635    -999.2500     225.6953    -999.2500    -999.2500       0.0353       4.7583       2.7929     140.6215
   4139.3364   4139.3364       4.5636       0.1632      45.7656     101.5599    -999.2500     161.2300    -999.2500     172.5077    -999.2500    -999.2500       0.0365       4.8646       2.7889     140.3939
   4139.4888   4139.4888       4.5665       0.1759      46.5451      96.5580    -999.2500     225.1089    -999.2500     240.9579    -999.2500    -999.2500       0.0387       4.7377       2.7448     139.5468
   4139.6416   4139.6416       4.5563       0.1564      47.0733      93.9391    -999.2500     206.9258    -999.2500     223.5978    -999.2500    -999.2500       0.0410       4.6756       2.7309     138.6710
   4139.7939   4139.7939       4.5843       0.1260      47.8327      91.1276    -999.2500     103.0363    -999.2500     111.5354    -999.2500    -999.2500       0.0443       4.7761       2.7508     138.6272
   4139.9463   4139.9463       4.5522       0.0977      49.8475      83.8192    -999.2500      87.5675    -999.2500      94.2920    -999.2500    -999.2500       0.0488       4.7635       2.7701     139.0055
   4140.0986   4140.0986       4.5544       0.0815      51.8541      74.8835    -999.2500      87.3255    -999.2500      94.5724    -999.2500    -999.2500       0.0542       4.6490       2.7694     139.0609
   4140.2510   4140.2510       4.5694       0.0774      51.7227      68.3019    -999.2500      91.4027    -999.2500      99.5217    -999.2500    -999.2500       0.0589       4.4156       2.7243     139.2134
   4140.4033   4140.4033       4.5876       0.0766      50.9718      63.7329    -999.2500     142.4122    -999.2500     155.9500    -999.2500    -999.2500       0.0631       4.1413       2.6854     140.4894
   4140.5557   4140.5557       4.6090       0.0790      50.6705      63.2482    -999.2500     100.7851    -999.2500     111.2086    -999.2500    -999.2500       0.0661       4.0713       2.6928     140.8541
   4140.7080   4140.7080       4.5954       0.0774      51.2309      60.9907    -999.2500      96.3674    -999.2500     105.7592    -999.2500    -999.2500       0.0674       4.2178       2.7308     139.3230
   4140.8608   4140.8608       4.6013       0.0763      52.2922      58.4514    -999.2500      89.6376    -999.2500      98.7137    -999.2500    -999.2500       0.0675       4.2404       2.7346     138.7009
   4141.0132   4141.0132       4.5951       0.0882      53.0350      52.2524    -999.2500     141.8246    -999.2500     154.2529    -999.2500    -999.2500       0.0734       3.9932       2.6245     138.3148
   4141.1655   4141.1655       4.5730       0.1067      53.3027      42.1998    -999.2500     386.0666    -999.2500     418.1776    -999.2500    -999.2500       0.0835       3.8995       2.4992     137.2554
   4141.3179   4141.3179       4.5804       0.1323      53.2405      37.4883    -999.2500     396.9004    -999.2500     427.1834    -999.2500    -999.2500       0.1143       4.2146       2.3713     135.9179
   4141.4702   4141.4702       4.6017       0.1369      52.9213      32.1020    -999.2500     362.9403    -999.2500     387.8815    -999.2500    -999.2500       0.1360       4.4924       2.3909     134.8476
   4141.6226   4141.6226       4.5599       0.1344      52.4695      30.8140    -999.2500     306.2409    -999.2500     325.3124    -999.2500    -999.2500       0.1483       4.5644       2.4885     135.3278
   4141.7749   4141.7749       4.5677       0.1242      52.2731      29.2380    -999.2500     198.3468    -999.2500     205.0130    -999.2500    -999.2500       0.1415       4.3118       2.5155     136.8260
   4141.9272   4141.9272       4.5593       0.0969      52.8078      27.6413    -999.2500     202.4709    -999.2500     203.5725    -999.2500    -999.2500       0.1295       3.6606       2.4619     137.2893
   4142.0796   4142.0796       4.5761       0.0837      53.8263      25.3986    -999.2500     282.2317    -999.2500     284.4536    -999.2500    -999.2500       0.1343       3.4207       2.4052     137.0978
   4142.2324   4142.2324       4.5640       0.0698      54.2744      24.5339    -999.2500     313.1921    -999.2500     319.7064    -999.2500    -999.2500       0.1512       3.3343       2.3689     137.1757
   4142.3848   4142.3848       4.6180       0.0496      53.6163      28.4443    -999.2500     393.2976    -999.2500     408.1055    -999.2500    -999.2500       0.1726       3.2716       2.3544     138.2789
   4142.5371   4142.5371       4.6202       0.0405      52.1641      36.5714    -999.2500     326.1368    -999.2500     344.6479    -999.2500    -999.2500       0.1589       3.5212       2.3430     139.6312
   4142.6895   4142.6895       4.6482       0.0556      50.8410      54.8129    -999.2500      96.0065    -999.2500     103.5509    -999.2500    -999.2500       0.1213       4.2425       2.4091     141.9706
   4142.8418   4142.8418       4.6268       0.0802      49.5460      67.9711    -999.2500     100.5894    -999.2500     108.3744    -999.2500    -999.2500       0.0863       4.8256       2.6041     142.6068
   4142.9941   4142.9941       4.5142       0.0869      48.2808      76.0024    -999.2500     178.5118    -999.2500     193.8898    -999.2500    -999.2500       0.0582       5.0284       2.7728     142.4669
   4143.1465   4143.1465       4.5354       0.0752      47.5789      79.2892    -999.2500     160.4857    -999.2500     180.1334    -999.2500    -999.2500       0.0460       4.8711       2.8018     142.3133
   4143.2988   4143.2988       4.5304       0.0601      47.2841      77.1808    -999.2500     147.2228    -999.2500     161.8913    -999.2500    -999.2500       0.0428       4.5888       2.7913     142.4861
   4143.4512   4143.4512       4.7723       0.0392      47.2348      70.6426    -999.2500     124.5184    -999.2500     137.4202    -999.2500    -999.2500       0.0488       4.3308       2.6960     142.1423
   4143.6040   4143.6040       5.0004       0.0349      47.1645      64.9361    -999.2500      62.8223    -999.2500      69.2215    -999.2500    -999.2500       0.0564       4.3941       2.5941     140.9843
   4143.7563   4143.7563       4.9129       0.0645      47.2793      62.9884    -999.2500      98.1836    -999.2500     108.4820    -999.2500    -999.2500       0.0609       4.7289       2.6170     140.5868
   4143.9087   4143.9087       4.6578       0.1046      47.6130      62.0343    -999.2500     264.0695    -999.2500     287.5627    -999.2500    -999.2500       0.0604       4.9882       2.7060 -1000000.0000
   4144.0610   4144.0610       4.5865       0.1007      47.6631      63.5807    -999.2500     133.6313    -999.2500     153.4727    -999.2500    -999.2500       0.0597       4.8607       2.6676    -999.2500
   4144.2134   4144.2134       4.6396       0.0836      47.2078      65.0695    -999.2500      97.3074    -999.2500     106.6494    -999.2500    -999.2500       0.0650       4.6823       2.5358    -999.2500
   4144.3657   4144.3657       4.6130       0.0885      46.7449      65.8073    -999.2500     208.0979    -999.2500     229.8372    -999.2500    -999.2500       0.0732       4.7759       2.4989    -999.2500
