#------------------------------------------------------------------------------
#
#   Created by  : [OpenWorks] Log Export Utility (LEXP)
#   Created on  : 2015-10-01 09:41:14
#   Project     : CANT971
#   User        : R5K
#   Interpreter : PEP
#
#------------------------------------------------------------------------------
~VERSION INFORMATION
VERS. 2.0 : CWLS Log ASCII Standard - version 2.0
WRAP.  NO : One line per depth step
~WELL INFORMATION
#MNEMONIC   .UNIT                                           VALUE :DESCRIPTION
#------------------------------------------------------------------------------
STRT        .M                                          1374.3848 :START DEPTH
STOP        .M                                          3939.4292 :STOP DEPTH
STEP        .M                                             0.1524 :STEP
NULL        .                                           -999.2500 :NULL VALUE
COMP        .                                             UNKNOWN :COMPANY
WELL        .                                         SIHIL-11-ST :WELL
FLD         .                                             UNKNOWN :FIELD
LOC         .                                             UNKNOWN :LOCATION
CNTY        .                                             UNKNOWN :COUNTY
STAT        .                                             UNKNOWN :STATE
CTRY        .                                             UNKNOWN :COUNTRY
SRVC        .                                             UNKNOWN :SERVICE COMPANY
DATE        .                                             UNKNOWN :LOG DATE
UWI         .                                         SIHIL-11-ST :UNIQUE WELL ID
XCOORD      .                                       599653.950000 :SURFACE X
YCOORD      .                                      2147230.550000 :SURFACE Y
LAT         .                                           19.418046 :LATITUDE
LON         .                                          -92.050821 :LONGITUDE
ELEV        .M                                             0.0000 :SURFACE ELEV
ELEV_TYPE   .                                                  KB :ELEV TYPE
~CURVE INFORMATION
#MNEMONIC.UNIT        API CODE       : CURVE DESCRIPTION
#------------------------------------------------------------------------------
DEPTH    .M                          : Measured Depth
TVD      .M                          : True Vertical Depth (TVD)
CALI     .inches      UNKNOWN        : CALI:litodensidad:rC:NONE:v0 (auto-composite)
DRHO     .g/cm3       UNKNOWN        : DRHO:UNKNOWN:rC:NONE:v0 (auto-composite)
DT       .us/ft       UNKNOWN        : DT:UNKNOWN:rC:NONE:v0 (auto-composite)
GR       .API         UNKNOWN        : GR:UNKNOWN:rC:NONE:v0 (auto-composite)
GR-ENT   .API         UNKNOWN        : GR-ENT:registros:rC:NONE:v0 (auto-composite)
GR-LWD   .API         UNKNOWN        : GR-LWD:PETROWORKS:rC:NONE:v1 
LLD-LWD  .ohm.m       UNKNOWN        : LLD-LWD:PETROWORKS:rC:NONE:v1 
LLS-LWD  .ohm.m       UNKNOWN        : LLS-LWD:PETROWORKS:rC:NONE:v1 
MSFL-LWD .ohm.m       UNKNOWN        : MSFL-LWD:PETROWORKS:rC:NONE:v1 
NPHI     .v/v_decimal UNKNOWN        : NPHI:UNKNOWN:rC:NONE:v0 (auto-composite)
NPHI-ENT .v/v_decimal UNKNOWN        : NPHI-ENT:registros:rC:NONE:v0 (auto-composite)
PEF      .b/elec      UNKNOWN        : PEF:UNKNOWN:rC:NONE:v0 (auto-composite)
RHOB     .g/cm3       UNKNOWN        : RHOB:UNKNOWN:rC:NONE:v0 (auto-composite)
SIGM     .cu          UNKNOWN        : SIGM:registros:rC:NONE:v0 (auto-composite)
~A     DEPTH         TVD         CALI         DRHO           DT           GR       GR-ENT       GR-LWD      LLD-LWD      LLS-LWD     MSFL-LWD         NPHI     NPHI-ENT          PEF         RHOB         SIGM
# ...
   3858.8096   3858.8096       6.5958       0.0413      53.8133      55.5948    -999.2500      46.4402     101.7960      78.2049      90.9771       0.0756    -999.2500       4.0375       2.8012    -999.2500
   3858.9619   3858.9619       6.5811       0.0425      54.3502      53.4536    -999.2500      48.9641      89.7373      77.8761      87.4029       0.0710    -999.2500       3.9591       2.8056    -999.2500
   3859.1143   3859.1143       6.5884       0.0403      54.9169      55.0386    -999.2500      53.1411      82.0108      76.7542      83.8799       0.0715    -999.2500       3.9813       2.7913    -999.2500
   3859.2668   3859.2668       6.6007       0.0333      54.8860      59.1736    -999.2500      54.7138      78.6900      76.9818      84.2747       0.0751    -999.2500       4.0482       2.7576    -999.2500
   3859.4192   3859.4192       6.6191       0.0287      54.4252      61.5722    -999.2500      54.6921      78.1013      78.3748      86.5966       0.0768    -999.2500       4.1172       2.7299    -999.2500
   3859.5715   3859.5715       6.6169       0.0253      54.6121      61.4008    -999.2500      57.2250      79.0920      78.4816      87.0116       0.0793    -999.2500       4.1703       2.7069    -999.2500
   3859.7239   3859.7239       6.6042       0.0235      55.9230      60.2731    -999.2500      62.2290      80.3610      77.0716      85.4517       0.0784    -999.2500       4.1795       2.6972    -999.2500
   3859.8765   3859.8765       6.5927       0.0242      57.4548      64.6213    -999.2500      64.3748      78.9424      74.3593      83.4014       0.0766    -999.2500       4.1868       2.6942    -999.2500
   3860.0288   3860.0288       6.5861       0.0282      58.1015      71.8391    -999.2500      63.1270      78.3437      72.2207      83.0998       0.0749    -999.2500       4.1622       2.7116    -999.2500
   3860.1812   3860.1812       6.5805       0.0332      57.6370      73.6035    -999.2500      62.7760      80.7159      71.8992      84.6406       0.0756    -999.2500       4.1281       2.7487    -999.2500
   3860.3335   3860.3335       6.5857       0.0396      56.4165      71.1076    -999.2500      65.3408      83.0556      71.9559      83.9147       0.0750    -999.2500       4.1279       2.7879    -999.2500
   3860.4861   3860.4861       6.5926       0.0458      54.9848      68.4349    -999.2500      66.7889      82.7555      72.5447      82.8070       0.0732    -999.2500       4.1194       2.8118    -999.2500
   3860.6384   3860.6384       6.5933       0.0527      53.5756      69.0063    -999.2500      64.7011      80.6047      73.2884      82.4017       0.0729    -999.2500       4.1233       2.8116    -999.2500
   3860.7908   3860.7908       6.5945       0.0616      52.2713      71.6687    -999.2500      58.6303      80.3857      72.0177      81.8260       0.0748    -999.2500       4.2840       2.7667    -999.2500
   3860.9431   3860.9431       6.6109       0.0599      51.4267      67.3232    -999.2500      52.5347      83.4143      71.2550      83.7138       0.0757    -999.2500       4.5477       2.6977    -999.2500
   3861.0955   3861.0955       6.6195       0.0390      51.3295      57.5129    -999.2500      50.6032      85.5387      74.6723      87.6460       0.0765    -999.2500       4.6433       2.6496    -999.2500
   3861.2480   3861.2480       6.6171       0.0192      51.9321      53.3939    -999.2500      51.9548      84.6095      77.5226      86.8088       0.0768    -999.2500       4.4654       2.6464    -999.2500
   3861.4004   3861.4004       6.6066       0.0120      52.6418      54.1450    -999.2500      53.6866      82.3260      75.6508      82.3436       0.0748    -999.2500       4.2038       2.6698    -999.2500
   3861.5527   3861.5527       6.5989       0.0098      52.7924      54.6844    -999.2500      55.2192      80.6406      71.9645      77.3789       0.0762    -999.2500       4.0822       2.6740    -999.2500
   3861.7051   3861.7051       6.5854       0.0049      52.1760      56.2808    -999.2500      56.3450      81.3861      71.5902      76.6780       0.0827    -999.2500       4.2069       2.6364    -999.2500
   3861.8577   3861.8577       6.5856      -0.0010      51.2709      59.4277    -999.2500      58.7440      82.8934      73.2712      80.7370       0.0892    -999.2500       4.3148       2.6249    -999.2500
   3862.0100   3862.0100       6.5906      -0.0009      50.8509      61.6277    -999.2500      63.5438      82.2463      72.9649      83.3987       0.0855    -999.2500       4.1848       2.6812    -999.2500
   3862.1624   3862.1624       6.5917      -0.0002      51.0438      64.3778    -999.2500      64.4182      80.6359      71.5897      83.0499       0.0766    -999.2500       3.9409       2.7598    -999.2500
   3862.3147   3862.3147       6.5838       0.0045      51.4820      67.2745    -999.2500      59.6651      79.0860      69.7727      80.5047       0.0730    -999.2500       3.8508       2.7985    -999.2500
   3862.4673   3862.4673       6.5814       0.0148      52.0593      67.0784    -999.2500      54.1274      78.5860      69.2823      80.3886       0.0715    -999.2500       3.8646       2.8055    -999.2500
   3862.6196   3862.6196       6.5778       0.0219      52.7591      60.7319    -999.2500      52.5740      78.7707      71.7098      84.4633       0.0676    -999.2500       3.9375       2.7838    -999.2500
   3862.7720   3862.7720       6.5789       0.0343      53.1974      54.8162    -999.2500      54.0867      78.7716      73.8715      87.1406       0.0623    -999.2500       4.0229       2.7758    -999.2500
   3862.9243   3862.9243       6.5790       0.0461      52.9309      55.2778    -999.2500      55.4550      79.2898      74.4606      87.1771       0.0604    -999.2500       4.0548       2.7882    -999.2500
   3863.0767   3863.0767       6.5793       0.0511      52.2154      56.5020    -999.2500      55.4590      79.4201      73.4873      85.6218       0.0613    -999.2500       3.9924       2.8114    -999.2500
   3863.2292   3863.2292       6.5802       0.0481      51.5804      57.3937    -999.2500      56.6379      78.6369      71.7287      84.1211       0.0629    -999.2500       3.8430       2.8335    -999.2500
   3863.3816   3863.3816       6.5848       0.0450      51.0191      60.8552    -999.2500      60.8198      79.2081      71.6132      84.6750       0.0651    -999.2500       3.7680       2.8283    -999.2500
   3863.5339   3863.5339       6.5897       0.0436      50.3999      64.6089    -999.2500      64.7989      82.0282      73.4947      86.8936       0.0665    -999.2500       3.7571       2.8098    -999.2500
   3863.6863   3863.6863       6.5907       0.0370      49.8625      61.8580    -999.2500      65.7700      84.6700      75.4683      89.0552       0.0663    -999.2500       3.7301       2.8003    -999.2500
   3863.8389   3863.8389       6.5871       0.0301      49.4523      59.8221    -999.2500      64.4772      85.4215      77.2447      92.3385       0.0663    -999.2500       3.7390       2.7949    -999.2500
   3863.9912   3863.9912       6.5877       0.0427      49.0743      65.0732    -999.2500      62.4176      85.3793      79.2868      96.1278       0.0663    -999.2500       3.8931       2.7679    -999.2500
   3864.1436   3864.1436       6.5946       0.0651      48.7849      70.2012    -999.2500      60.5634      85.8663      80.6565      97.7636       0.0662    -999.2500       4.1983       2.7123    -999.2500
   3864.2959   3864.2959       6.6006       0.0681      48.6812      70.6985    -999.2500      60.4775      86.0553      80.9148      98.7846       0.0663    -999.2500       4.4889       2.6871    -999.2500
   3864.4485   3864.4485       6.6027       0.0534      48.8454      70.6789    -999.2500      61.8275      86.7449      80.2822      99.5938       0.0674    -999.2500       4.4683       2.7324    -999.2500
   3864.6008   3864.6008       6.6064       0.0397      49.5018      70.1525    -999.2500      62.9844      87.0489      78.6880      98.2025       0.0695    -999.2500       4.1963       2.7905    -999.2500
