#------------------------------------------------------------------------------
#
#   Created by  : [OpenWorks] Log Export Utility (LEXP)
#   Created on  : 2015-10-01 09:41:14
#   Project     : CANT971
#   User        : R5K
#   Interpreter : PEP
#
#------------------------------------------------------------------------------
~VERSION INFORMATION
VERS. 2.0 : CWLS Log ASCII Standard - version 2.0
WRAP.  NO : One line per depth step
~WELL INFORMATION
#MNEMONIC   .UNIT                                           VALUE :DESCRIPTION
#------------------------------------------------------------------------------
STRT        .M                                          1374.3848 :START DEPTH
STOP        .M                                          3939.4292 :STOP DEPTH
STEP        .M                                             0.1524 :STEP
NULL        .                                           -999.2500 :NULL VALUE
COMP        .                                             UNKNOWN :COMPANY
WELL        .                                         SIHIL-11-ST :WELL
FLD         .                                             UNKNOWN :FIELD
LOC         .                                             UNKNOWN :LOCATION
CNTY        .                                             UNKNOWN :COUNTY
STAT        .                                             UNKNOWN :STATE
CTRY        .                                             UNKNOWN :COUNTRY
SRVC        .                                             UNKNOWN :SERVICE COMPANY
DATE        .                                             UNKNOWN :LOG DATE
UWI         .                                         SIHIL-11-ST :UNIQUE WELL ID
XCOORD      .                                       599653.950000 :SURFACE X
YCOORD      .                                      2147230.550000 :SURFACE Y
LAT         .                                           19.418046 :LATITUDE
LON         .                                          -92.050821 :LONGITUDE
ELEV        .M                                             0.0000 :SURFACE ELEV
ELEV_TYPE   .                                                  KB :ELEV TYPE
~CURVE INFORMATION
#MNEMONIC.UNIT        API CODE       : CURVE DESCRIPTION
#------------------------------------------------------------------------------
DEPTH    .M                          : Measured Depth
TVD      .M                          : True Vertical Depth (TVD)
CALI     .inches      UNKNOWN        : CALI:litodensidad:rC:NONE:v0 (auto-composite)
DRHO     .g/cm3       UNKNOWN        : DRHO:UNKNOWN:rC:NONE:v0 (auto-composite)
DT       .us/ft       UNKNOWN        : DT:UNKNOWN:rC:NONE:v0 (auto-composite)
GR       .API         UNKNOWN        : GR:UNKNOWN:rC:NONE:v0 (auto-composite)
GR-ENT   .API         UNKNOWN        : GR-ENT:registros:rC:NONE:v0 (auto-composite)
GR-LWD   .API         UNKNOWN        : GR-LWD:PETROWORKS:rC:NONE:v1 
LLD-LWD  .ohm.m       UNKNOWN        : LLD-LWD:PETROWORKS:rC:NONE:v1 
LLS-LWD  .ohm.m       UNKNOWN        : LLS-LWD:PETROWORKS:rC:NONE:v1 
MSFL-LWD .ohm.m       UNKNOWN        : MSFL-LWD:PETROWORKS:rC:NONE:v1 
NPHI     .v/v_decimal UNKNOWN        : NPHI:UNKNOWN:rC:NONE:v0 (auto-composite)
NPHI-ENT .v/v_decimal UNKNOWN        : NPHI-ENT:registros:rC:NONE:v0 (auto-composite)
PEF      .b/elec      UNKNOWN        : PEF:UNKNOWN:rC:NONE:v0 (auto-composite)
RHOB     .g/cm3       UNKNOWN        : RHOB:UNKNOWN:rC:NONE:v0 (auto-composite)
SIGM     .cu          UNKNOWN        : SIGM:registros:rC:NONE:v0 (auto-composite)
~A     DEPTH         TVD         CALI         DRHO           DT           GR       GR-ENT       GR-LWD      LLD-LWD      LLS-LWD     MSFL-LWD         NPHI     NPHI-ENT          PEF         RHOB         SIGM
# ...
   3924.1892   3924.1892       7.6643       0.1289      42.3889      70.2956    -999.2500    -999.2500      94.9611      91.7432     100.6784       0.1710    -999.2500       6.0153       2.2769    -999.2500
   3924.3416   3924.3416       7.3673       0.0846      42.1295      56.0239    -999.2500    -999.2500      95.1194      80.6839      97.7143       0.2369    -999.2500       6.2917       2.2156    -999.2500
   3924.4939   3924.4939       6.9299       0.0267      41.8365      49.4088    -999.2500    -999.2500     101.2680      82.2516      98.8941       0.2823    -999.2500       5.8503       2.2232    -999.2500
   3924.6465   3924.6465       6.6753       0.0177      41.2222      54.0824    -999.2500    -999.2500     106.6226      84.9305      98.7468       0.2621    -999.2500       5.3265       2.3129    -999.2500
   3924.7988   3924.7988       6.5530       0.0337      41.1918      62.2831    -999.2500    -999.2500     106.9924      84.9079      93.7117       0.2097    -999.2500       4.8165       2.5057    -999.2500
   3924.9512   3924.9512       6.5761       0.0436      41.2911      63.6029    -999.2500    -999.2500     100.0809      78.2149      80.9487       0.1505    -999.2500       4.4185       2.6601    -999.2500
   3925.1035   3925.1035       6.5775       0.0474      42.0003      59.8167    -999.2500    -999.2500      93.2192      71.4605      70.0007       0.1195    -999.2500       4.1910       2.7372    -999.2500
   3925.2559   3925.2559       6.5207       0.0375      42.8924      52.8233    -999.2500    -999.2500      91.9028      70.1916      70.0536       0.0998    -999.2500       3.9718       2.7754    -999.2500
   3925.4084   3925.4084       6.4343       0.0267      42.4011      52.7532    -999.2500    -999.2500      92.5472      70.7225      74.7108       0.0976    -999.2500       3.8480       2.7700    -999.2500
   3925.5608   3925.5608       6.4197       0.0211      41.4556      64.8972    -999.2500    -999.2500      94.5508      73.2375      81.0916       0.0937    -999.2500       3.8321       2.7566    -999.2500
   3925.7131   3925.7131       6.4137       0.0189      39.6578      80.0840    -999.2500    -999.2500      94.3133      75.5569      82.5825       0.0796    -999.2500       3.8766       2.7662    -999.2500
   3925.8655   3925.8655       6.4074       0.0202      39.4801      90.9671    -999.2500    -999.2500    -999.2500    -999.2500    -999.2500       0.0632    -999.2500       3.8649       2.8013    -999.2500
   3926.0181   3926.0181       6.4030       0.0242      40.8664      89.3933    -999.2500    -999.2500    -999.2500    -999.2500    -999.2500       0.0580    -999.2500       3.8467       2.8116    -999.2500
   3926.1704   3926.1704       6.4027       0.0260      41.7590      85.3375    -999.2500    -999.2500    -999.2500    -999.2500    -999.2500       0.0538    -999.2500       3.8418       2.8119    -999.2500
   3926.3228   3926.3228       6.3988       0.0243      42.7214      84.5644    -999.2500    -999.2500    -999.2500    -999.2500    -999.2500       0.0537    -999.2500       3.8046       2.8138    -999.2500
   3926.4751   3926.4751       6.3975       0.0208      43.7608      86.4164    -999.2500    -999.2500    -999.2500    -999.2500    -999.2500       0.0557    -999.2500       3.7506       2.8002    -999.2500
   3926.6277   3926.6277       6.3943       0.0174      44.3258      86.6488    -999.2500    -999.2500    -999.2500    -999.2500    -999.2500       0.0585    -999.2500       3.7631       2.7808    -999.2500
   3926.7800   3926.7800       6.3929       0.0142      44.3865      84.3829    -999.2500    -999.2500    -999.2500    -999.2500    -999.2500       0.0624    -999.2500       3.8213       2.7738    -999.2500
   3926.9324   3926.9324       6.3890       0.0119      44.4860      82.6961    -999.2500    -999.2500    -999.2500    -999.2500    -999.2500       0.0627    -999.2500       3.9027       2.7827    -999.2500
   3927.0847   3927.0847       6.3868       0.0114      44.8288      81.3147    -999.2500    -999.2500    -999.2500    -999.2500    -999.2500       0.0589    -999.2500       3.9765       2.7906    -999.2500
   3927.2371   3927.2371       6.3894       0.0122      45.4121      79.5789    -999.2500    -999.2500    -999.2500    -999.2500    -999.2500       0.0548    -999.2500       4.0004       2.7896    -999.2500
   3927.3896   3927.3896       6.3927       0.0142      45.6406      81.4779    -999.2500    -999.2500    -999.2500    -999.2500    -999.2500       0.0535    -999.2500       3.9574       2.7865    -999.2500
   3927.5420   3927.5420       6.3916       0.0177      45.9754      85.1116    -999.2500    -999.2500    -999.2500    -999.2500    -999.2500       0.0536    -999.2500       3.9232       2.7856    -999.2500
   3927.6943   3927.6943       6.3918       0.0228      46.7410      84.6970    -999.2500    -999.2500    -999.2500    -999.2500    -999.2500       0.0557    -999.2500       3.9209       2.7845    -999.2500
   3927.8467   3927.8467       6.3916       0.0271      47.5642      83.0161    -999.2500    -999.2500    -999.2500    -999.2500    -999.2500       0.0586    -999.2500       3.9094       2.7874    -999.2500
   3927.9993   3927.9993       6.3929       0.0297      47.4222      84.9124    -999.2500    -999.2500    -999.2500    -999.2500    -999.2500       0.0594    -999.2500       3.8806       2.7941    -999.2500
   3928.1516   3928.1516       6.3947       0.0276      47.0792      86.2560    -999.2500    -999.2500    -999.2500    -999.2500    -999.2500       0.0590    -999.2500       3.8708       2.7937    -999.2500
   3928.3040   3928.3040       6.4014       0.0205      46.6439      83.8754    -999.2500    -999.2500    -999.2500    -999.2500    -999.2500       0.0580    -999.2500       3.8396       2.7944    -999.2500
   3928.4563   3928.4563       6.4009       0.0126      46.4347      80.5550    -999.2500    -999.2500    -999.2500    -999.2500    -999.2500       0.0576    -999.2500       3.7604       2.8046    -999.2500
   3928.6089   3928.6089       6.3980       0.0109      47.2844      79.5942    -999.2500    -999.2500    -999.2500    -999.2500    -999.2500       0.0568    -999.2500       3.7732       2.8137    -999.2500
   3928.7612   3928.7612       6.3984       0.0132      47.6067      79.9483    -999.2500    -999.2500    -999.2500    -999.2500    -999.2500       0.0569    -999.2500       3.8738       2.8164    -999.2500
   3928.9136   3928.9136       6.4032       0.0187      47.8039      82.0210    -999.2500    -999.2500    -999.2500    -999.2500    -999.2500       0.0604    -999.2500       3.8939       2.8123    -999.2500
   3929.0659   3929.0659       6.4029       0.0227      46.9468      83.1664    -999.2500    -999.2500    -999.2500    -999.2500    -999.2500       0.0649    -999.2500       3.8328       2.8089    -999.2500
   3929.2183   3929.2183       6.4047       0.0219      44.7202      83.0426    -999.2500    -999.2500    -999.2500    -999.2500    -999.2500       0.0643    -999.2500       3.7887       2.8139    -999.2500
   3929.3708   3929.3708       6.4030       0.0258      43.9531      83.5150    -999.2500    -999.2500    -999.2500    -999.2500    -999.2500       0.0584    -999.2500       3.7794       2.8287    -999.2500
   3929.5232   3929.5232       6.3949       0.0358      43.1381    -999.2500    -999.2500    -999.2500    -999.2500    -999.2500    -999.2500       0.0542    -999.2500       3.8405       2.8290    -999.2500
   3929.6755   3929.6755       6.3900       0.0439      42.3852    -999.2500    -999.2500    -999.2500    -999.2500    -999.2500    -999.2500       0.0530    -999.2500       4.0758       2.7765    -999.2500
   3929.8279   3929.8279       6.3869       0.0468      42.3824    -999.2500    -999.2500    -999.2500    -999.2500    -999.2500    -999.2500       0.0552    -999.2500       4.5529       2.6666    -999.2500
   3929.9805   3929.9805       6.3864       0.0388      42.8540    -999.2500    -999.2500    -999.2500    -999.2500    -999.2500    -999.2500       0.0582    -999.2500       4.9537       2.5930    -999.2500
