#------------------------------------------------------------------------------
#
#   Created by  : [OpenWorks] Log Export Utility (LEXP)
#   Created on  : 2015-10-01 09:42:34
#   Project     : CANT971
#   User        : R5K
#   Interpreter : PEP
#
#------------------------------------------------------------------------------
~VERSION INFORMATION
VERS. 2.0 : CWLS Log ASCII Standard - version 2.0
WRAP.  NO : One line per depth step
~WELL INFORMATION
#MNEMONIC   .UNIT                                           VALUE :DESCRIPTION
#------------------------------------------------------------------------------
STRT        .M                                          3550.1582 :START DEPTH
STOP        .M                                          4164.9399 :STOP DEPTH
STEP        .M                                             0.1524 :STEP
NULL        .                                           -999.2500 :NULL VALUE
COMP        .                                             UNKNOWN :COMPANY
WELL        .                                         SIHIL-12-ST :WELL
FLD         .                                             UNKNOWN :FIELD
LOC         .                                             UNKNOWN :LOCATION
CNTY        .                                             UNKNOWN :COUNTY
STAT        .                                             UNKNOWN :STATE
CTRY        .                                             UNKNOWN :COUNTRY
SRVC        .                                             UNKNOWN :SERVICE COMPANY
DATE        .                                             UNKNOWN :LOG DATE
UWI         .                                         SIHIL-12-ST :UNIQUE WELL ID
XCOORD      .                                            0.000000 :SURFACE X
YCOORD      .                                            0.000000 :SURFACE Y
LAT         .                                            0.000000 :LATITUDE
LON         .                                          -97.488695 :LONGITUDE
ELEV        .M                                             0.0000 :SURFACE ELEV
ELEV_TYPE   .                                                  KB :ELEV TYPE
~CURVE INFORMATION
#MNEMONIC.UNIT        API CODE       : CURVE DESCRIPTION
#------------------------------------------------------------------------------
DEPTH    .M                          : Measured Depth
TVD      .M                          : True Vertical Depth (TVD)
CALI     .inches      UNKNOWN        : CALI:litodensidad:rC:NONE:v0 (auto-composite)
DRHO     .g/cm3       UNKNOWN        : DRHO:litodensidad:rC:NONE:v0 (auto-composite)
DT       .us/ft       UNKNOWN        : DT:sonico:rC:NONE:v0 (auto-composite)
GR       .API         UNKNOWN        : GR:resistivos:rC:NONE:v0 (auto-composite)
GR-LWD   .API         UNKNOWN        : GR-LWD:resistivos-LWD:rC:NONE:v0 (auto-composite)
LLD      .ohm.m       UNKNOWN        : LLD:resistivos:rC:NONE:v0 (auto-composite)
LLD-LWD  .ohm.m       UNKNOWN        : LLD-LWD:resistivos-LWD:rC:NONE:v0 (auto-composite)
LLS      .ohm.m       UNKNOWN        : LLS:resistivos:rC:NONE:v0 (auto-composite)
LLS-LWD  .ohm.m       UNKNOWN        : LLS-LWD:resistivos-LWD:rC:NONE:v0 (auto-composite)
MSFL-LWD .ohm.m       UNKNOWN        : MSFL-LWD:resistivos-LWD:rC:NONE:v0 (auto-composite)
NPHI     .v/v_decimal UNKNOWN        : NPHI:porosidad:rC:NONE:v0 (auto-composite)
PEF      .b/elec      UNKNOWN        : PEF:litodensidad:rC:NONE:v0 (auto-composite)
RHOB     .g/cm3       UNKNOWN        : RHOB:litodensidad:rC:NONE:v0 (auto-composite)
SP       .mv          UNKNOWN        : SP:resistivos:rC:NONE:v0 (auto-composite)
~A     DEPTH         TVD         CALI         DRHO           DT           GR       GR-LWD          LLD      LLD-LWD          LLS      LLS-LWD     MSFL-LWD         NPHI          PEF         RHOB           SP
# ...
   4096.9692   4096.9692       4.6022       0.0689      51.8332      86.1238    -999.2500     512.7275    -999.2500     544.2080    -999.2500    -999.2500       0.0464       4.0479       2.7907     149.1612
   4097.1216   4097.1216       4.6104       0.0404      52.0748      86.7579    -999.2500     165.3821    -999.2500     177.0800    -999.2500    -999.2500       0.0496       3.9890       2.7803     149.2644
   4097.2744   4097.2744       4.6098       0.0480      51.4871      86.1902    -999.2500     135.5560    -999.2500     144.6072    -999.2500    -999.2500       0.0505       3.9992       2.7881     150.0309
   4097.4268   4097.4268       4.6359       0.0763      50.2640      85.2496    -999.2500     107.4428    -999.2500     114.4881    -999.2500    -999.2500       0.0501       4.0296       2.7863     151.0981
   4097.5791   4097.5791       4.6014       0.0789      48.6069      86.6691    -999.2500      81.1044    -999.2500      87.6533    -999.2500    -999.2500       0.0496       4.0078       2.7727     150.7400
   4097.7314   4097.7314       4.5786       0.0666      47.3477      86.1400    -999.2500      65.8875    -999.2500      70.7767    -999.2500    -999.2500       0.0502       3.9783       2.7555     150.0455
   4097.8838   4097.8838       4.6164       0.0546      46.9837      84.1492    -999.2500      71.4033    -999.2500      77.7092    -999.2500    -999.2500       0.0541       3.8786       2.7079     149.6198
   4098.0361   4098.0361       4.6056       0.0804      47.1649      78.8936    -999.2500      88.4665    -999.2500      96.6986    -999.2500    -999.2500       0.0597       3.7511       2.6647     149.0460
   4098.1885   4098.1885       4.6009       0.1270      47.5968      71.9942    -999.2500      84.2316    -999.2500      92.4904    -999.2500    -999.2500       0.0646       3.7312       2.6671     147.9928
   4098.3408   4098.3408       4.6662       0.1584      48.3905      69.1621    -999.2500      92.6853    -999.2500     102.1891    -999.2500    -999.2500       0.0613       3.8274       2.7161     146.8021
   4098.4932   4098.4932       4.6607       0.1783      49.2065      69.9300    -999.2500      94.6575    -999.2500     104.3091    -999.2500    -999.2500       0.0536       3.8613       2.7584     146.2743
   4098.6460   4098.6460       4.6399       0.1719      49.1851      76.3394    -999.2500     122.0718    -999.2500     134.2999    -999.2500    -999.2500       0.0491       3.7992       2.7653     146.3616
   4098.7983   4098.7983       4.6569       0.1577      48.5019      81.9887    -999.2500     149.8410    -999.2500     164.4809    -999.2500    -999.2500       0.0473       3.7663       2.7684     146.5622
   4098.9507   4098.9507       4.6270       0.1310      47.8580      82.1873    -999.2500     154.8580    -999.2500     168.0362    -999.2500    -999.2500       0.0481       3.7540       2.7640     147.1150
   4099.1030   4099.1030       4.6292       0.1008      47.5788      80.9932    -999.2500     162.4611    -999.2500     174.2819    -999.2500    -999.2500       0.0489       3.6622       2.7263     149.0147
   4099.2554   4099.2554       4.6083       0.1094      47.5619      80.9945    -999.2500     140.1808    -999.2500     149.6012    -999.2500    -999.2500       0.0496       3.6056       2.6994     149.3344
   4099.4077   4099.4077       4.5988       0.1801      47.5827      85.1169    -999.2500     208.9957    -999.2500     220.7798    -999.2500    -999.2500       0.0513       3.6889       2.7521     148.5916
   4099.5601   4099.5601       4.5931       0.2140      47.4239      91.6183    -999.2500     223.4894    -999.2500     242.5438    -999.2500    -999.2500       0.0499       3.6886       2.7793     146.9028
   4099.7124   4099.7124       4.5849       0.2436      46.8039      94.8577    -999.2500     159.8922    -999.2500     173.1655    -999.2500    -999.2500       0.0469       3.6043       2.7589     146.3419
   4099.8652   4099.8652       4.5890       0.2509      45.7173      93.2042    -999.2500     163.4424    -999.2500     176.8767    -999.2500    -999.2500       0.0445       3.6101       2.7435     145.3452
   4100.0176   4100.0176       4.6033       0.2289      44.8915      88.8954    -999.2500     158.3470    -999.2500     170.7164    -999.2500    -999.2500       0.0434       3.7155       2.7517     143.9924
   4100.1699   4100.1699       4.6190       0.1913      44.6899      82.4344    -999.2500     141.3916    -999.2500     154.6520    -999.2500    -999.2500       0.0431       3.8073       2.7812     144.5227
   4100.3223   4100.3223       4.6200       0.1118      45.1009      78.3469    -999.2500      96.6229    -999.2500     106.3917    -999.2500    -999.2500       0.0435       3.8432       2.7907     146.9695
   4100.4746   4100.4746       4.6316       0.0783      45.9662      78.8057    -999.2500      91.5510    -999.2500     101.2187    -999.2500    -999.2500       0.0441       3.7279       2.7444     149.3223
   4100.6270   4100.6270       4.5440       0.0744      46.7286      84.2594    -999.2500      85.8970    -999.2500      94.9550    -999.2500    -999.2500       0.0445       3.6217       2.7088     150.2169
   4100.7793   4100.7793       4.5779       0.0941      47.0704      91.2905    -999.2500      92.5293    -999.2500     102.3923    -999.2500    -999.2500       0.0449       3.7991       2.7528     150.7566
   4100.9316   4100.9316       4.5838       0.1214      47.3089      97.7273    -999.2500     138.9353    -999.2500     152.0870    -999.2500    -999.2500       0.0438       4.0718       2.7981     151.5413
   4101.0840   4101.0840       4.5985       0.1547      47.6112     101.9843    -999.2500     430.6058    -999.2500     468.3292    -999.2500    -999.2500       0.0411       4.2167       2.8208     151.0140
   4101.2368   4101.2368       4.5997       0.1632      47.8404      97.4602    -999.2500     519.8414    -999.2500     573.0941    -999.2500    -999.2500       0.0395       4.0655       2.8141     148.8880
   4101.3892   4101.3892       4.6044       0.1497      48.0256      87.9948    -999.2500     158.0009    -999.2500     175.5119    -999.2500    -999.2500       0.0397       3.8076       2.7934     147.5486
   4101.5415   4101.5415       4.5958       0.1290      48.4080      79.6883    -999.2500     168.0126    -999.2500     186.1715    -999.2500    -999.2500       0.0413       3.6710       2.7745     148.5330
   4101.6938   4101.6938       4.5885       0.1135      48.7774      68.2167    -999.2500     154.0390    -999.2500     170.8683    -999.2500    -999.2500       0.0423       3.6701       2.7769     149.4281
   4101.8462   4101.8462       4.6019       0.1011      48.6169      64.6598    -999.2500     189.6984    -999.2500     207.6062    -999.2500    -999.2500       0.0410       3.7877       2.7969     149.0366
   4101.9985   4101.9985       4.6329       0.0929      47.8834      62.6419    -999.2500     326.1458    -999.2500     352.7143    -999.2500    -999.2500       0.0397       3.9365       2.8170     148.6087
   4102.1509   4102.1509       4.5886       0.0993      47.2348      61.7410    -999.2500     251.0248    -999.2500     276.1101    -999.2500    -999.2500       0.0407       4.0340       2.8372     148.5314
   4102.3032   4102.3032       4.6011       0.1061      46.9522      63.8495    -999.2500     188.1181    -999.2500     204.9147    -999.2500    -999.2500       0.0429       3.9941       2.8478     148.5076
   4102.4556   4102.4556       4.5632       0.1013      46.9365      66.8607    -999.2500     153.1165    -999.2500     169.0172    -999.2500    -999.2500       0.0448       3.8658       2.8402     147.7421
   4102.6084   4102.6084       4.5568       0.0754      46.9951      70.4934    -999.2500     131.9730    -999.2500     146.2946    -999.2500    -999.2500       0.0448       3.8072       2.8190     147.5638
   4102.7607   4102.7607       4.5661       0.0652      46.9889      71.2631    -999.2500      87.3477    -999.2500      97.1629    -999.2500    -999.2500       0.0442       3.8734       2.8161     148.1552
