#------------------------------------------------------------------------------
#
#   Created by  : [OpenWorks] Log Export Utility (LEXP)
#   Created on  : 2015-10-01 09:42:34
#   Project     : CANT971
#   User        : R5K
#   Interpreter : PEP
#
#------------------------------------------------------------------------------
~VERSION INFORMATION
VERS. 2.0 : CWLS Log ASCII Standard - version 2.0
WRAP.  NO : One line per depth step
~WELL INFORMATION
#MNEMONIC   .UNIT                                           VALUE :DESCRIPTION
#------------------------------------------------------------------------------
STRT        .M                                          3550.1582 :START DEPTH
STOP        .M                                          4164.9399 :STOP DEPTH
STEP        .M                                             0.1524 :STEP
NULL        .                                           -999.2500 :NULL VALUE
COMP        .                                             UNKNOWN :COMPANY
WELL        .                                         SIHIL-12-ST :WELL
FLD         .                                             UNKNOWN :FIELD
LOC         .                                             UNKNOWN :LOCATION
CNTY        .                                             UNKNOWN :COUNTY
STAT        .                                             UNKNOWN :STATE
CTRY        .                                             UNKNOWN :COUNTRY
SRVC        .                                             UNKNOWN :SERVICE COMPANY
DATE        .                                             UNKNOWN :LOG DATE
UWI         .                                         SIHIL-12-ST :UNIQUE WELL ID
XCOORD      .                                            0.000000 :SURFACE X
YCOORD      .                                            0.000000 :SURFACE Y
LAT         .                                            0.000000 :LATITUDE
LON         .                                          -97.488695 :LONGITUDE
ELEV        .M                                             0.0000 :SURFACE ELEV
ELEV_TYPE   .                                                  KB :ELEV TYPE
~CURVE INFORMATION
#MNEMONIC.UNIT        API CODE       : CURVE DESCRIPTION
#------------------------------------------------------------------------------
DEPTH    .M                          : Measured Depth
TVD      .M                          : True Vertical Depth (TVD)
CALI     .inches      UNKNOWN        : CALI:litodensidad:rC:NONE:v0 (auto-composite)
DRHO     .g/cm3       UNKNOWN        : DRHO:litodensidad:rC:NONE:v0 (auto-composite)
DT       .us/ft       UNKNOWN        : DT:sonico:rC:NONE:v0 (auto-composite)
GR       .API         UNKNOWN        : GR:resistivos:rC:NONE:v0 (auto-composite)
GR-LWD   .API         UNKNOWN        : GR-LWD:resistivos-LWD:rC:NONE:v0 (auto-composite)
LLD      .ohm.m       UNKNOWN        : LLD:resistivos:rC:NONE:v0 (auto-composite)
LLD-LWD  .ohm.m       UNKNOWN        : LLD-LWD:resistivos-LWD:rC:NONE:v0 (auto-composite)
LLS      .ohm.m       UNKNOWN        : LLS:resistivos:rC:NONE:v0 (auto-composite)
LLS-LWD  .ohm.m       UNKNOWN        : LLS-LWD:resistivos-LWD:rC:NONE:v0 (auto-composite)
MSFL-LWD .ohm.m       UNKNOWN        : MSFL-LWD:resistivos-LWD:rC:NONE:v0 (auto-composite)
NPHI     .v/v_decimal UNKNOWN        : NPHI:porosidad:rC:NONE:v0 (auto-composite)
PEF      .b/elec      UNKNOWN        : PEF:litodensidad:rC:NONE:v0 (auto-composite)
RHOB     .g/cm3       UNKNOWN        : RHOB:litodensidad:rC:NONE:v0 (auto-composite)
SP       .mv          UNKNOWN        : SP:resistivos:rC:NONE:v0 (auto-composite)
~A     DEPTH         TVD         CALI         DRHO           DT           GR       GR-LWD          LLD      LLD-LWD          LLS      LLS-LWD     MSFL-LWD         NPHI          PEF         RHOB           SP
# ...
   4013.7590   4013.7590       4.5886       0.0855      53.6618      74.0251    -999.2500      32.2186    -999.2500      35.5956    -999.2500    -999.2500       0.0913       3.1980       2.6757     152.1441
   4013.9114   4013.9114       4.6284       0.0670      53.5809      72.9371    -999.2500      30.6187    -999.2500      34.0732    -999.2500    -999.2500       0.0941       3.1675       2.6654     152.3490
   4014.0637   4014.0637       4.6427       0.0864      53.5858      70.5733    -999.2500      28.5071    -999.2500      31.9265    -999.2500    -999.2500       0.0926       3.1653       2.6490     151.8223
   4014.2163   4014.2163       4.5840       0.1640      53.6107      67.7952    -999.2500      28.5216    -999.2500      32.0649    -999.2500    -999.2500       0.0887       3.1723       2.6459     151.0142
   4014.3687   4014.3687       4.5644       0.1991      53.7743      63.5508    -999.2500      29.1380    -999.2500      32.9301    -999.2500    -999.2500       0.0872       3.1317       2.6566     149.3412
   4014.5210   4014.5210       4.5849       0.1971      53.9683      61.3784    -999.2500      28.6125    -999.2500      32.4324    -999.2500    -999.2500       0.0872       3.1238       2.6774     147.5663
   4014.6733   4014.6733       4.6834       0.1679      53.9862      59.9377    -999.2500      29.6588    -999.2500      33.4217    -999.2500    -999.2500       0.0871       3.2273       2.6826     145.9139
   4014.8257   4014.8257       4.6396       0.1037      53.8522      60.1893    -999.2500      32.3716    -999.2500      36.4058    -999.2500    -999.2500       0.0887       3.3756       2.6726     145.2601
   4014.9783   4014.9783       4.6129       0.0723      53.7068      61.9009    -999.2500      32.5595    -999.2500      36.6892    -999.2500    -999.2500       0.0882       3.3668       2.6619     145.4981
   4015.1306   4015.1306       4.5944       0.0608      53.4026      64.9152    -999.2500      31.3399    -999.2500      35.2507    -999.2500    -999.2500       0.0878       3.3532       2.6553     145.8979
   4015.2830   4015.2830       4.5859       0.0644      52.9387      66.3467    -999.2500      32.3793    -999.2500      36.4228    -999.2500    -999.2500       0.0866       3.3556       2.6512     146.0622
   4015.4353   4015.4353       4.5861       0.0604      52.6660      67.6603    -999.2500      35.3687    -999.2500      39.7147    -999.2500    -999.2500       0.0869       3.3031       2.6430     146.2344
   4015.5879   4015.5879       4.5861       0.0503      52.6679      68.1121    -999.2500      38.9633    -999.2500      43.7949    -999.2500    -999.2500       0.0873       3.2210       2.6361     146.5810
   4015.7402   4015.7402       4.5901       0.0449      52.9317      68.2168    -999.2500      41.0856    -999.2500      46.1971    -999.2500    -999.2500       0.0884       3.1612       2.6264     146.5483
   4015.8926   4015.8926       4.5831       0.0503      53.2915      70.1048    -999.2500      41.5589    -999.2500      46.8012    -999.2500    -999.2500       0.0892       3.1722       2.6219     145.4719
   4016.0449   4016.0449       4.5925       0.0748      53.5100      69.9078    -999.2500      42.5436    -999.2500      47.9443    -999.2500    -999.2500       0.0910       3.2627       2.6330     144.4229
   4016.1975   4016.1975       4.6501       0.1074      53.5545      69.3972    -999.2500      39.4483    -999.2500      44.5636    -999.2500    -999.2500       0.0925       3.2787       2.6428     143.6220
   4016.3499   4016.3499       4.7284       0.1299      53.4538      66.1287    -999.2500      43.7954    -999.2500      49.3796    -999.2500    -999.2500       0.0909       3.2379       2.6552     143.5598
   4016.5022   4016.5022       4.7327       0.1302      53.1783      62.4284    -999.2500      47.0613    -999.2500      53.2069    -999.2500    -999.2500       0.0871       3.2315       2.6633     143.8349
   4016.6545   4016.6545       4.6315       0.1137      52.8820      62.2732    -999.2500      46.3796    -999.2500      52.5656    -999.2500    -999.2500       0.0851       3.1971       2.6607     144.2039
   4016.8069   4016.8069       4.5667       0.1028      52.9782      63.7899    -999.2500      46.1288    -999.2500      52.3639    -999.2500    -999.2500       0.0842       3.1183       2.6614     144.5174
   4016.9595   4016.9595       4.6494       0.1104      53.1571      66.6707    -999.2500      45.5329    -999.2500      51.7275    -999.2500    -999.2500       0.0833       3.0916       2.6630     144.7355
   4017.1118   4017.1118       4.6880       0.1231      53.1000      68.3013    -999.2500      48.6900    -999.2500      55.2985    -999.2500    -999.2500       0.0807       3.0120       2.6541     144.7809
   4017.2642   4017.2642       4.6719       0.1272      52.9929      67.0628    -999.2500      53.6718    -999.2500      61.0099    -999.2500    -999.2500       0.0791       3.0256       2.6519     144.4162
   4017.4165   4017.4165       4.5964       0.1329      53.0019      65.6905    -999.2500      56.2116    -999.2500      64.1150    -999.2500    -999.2500       0.0791       3.2094       2.6741     143.2733
   4017.5691   4017.5691       4.5841       0.1271      52.8862      64.1389    -999.2500      55.7498    -999.2500      63.6723    -999.2500    -999.2500       0.0789       3.2567       2.6905     142.3932
   4017.7214   4017.7214       4.5818       0.1000      52.5775      62.0281    -999.2500      56.8126    -999.2500      64.9747    -999.2500    -999.2500       0.0803       3.2148       2.6858     141.4784
   4017.8738   4017.8738       4.5878       0.0918      52.3916      60.7298    -999.2500      58.3256    -999.2500      66.8446    -999.2500    -999.2500       0.0800       3.2769       2.6785     141.0262
   4018.0261   4018.0261       4.6021       0.1009      52.4805      58.6104    -999.2500      61.8312    -999.2500      70.7497    -999.2500    -999.2500       0.0806       3.3937       2.6681     141.1746
   4018.1787   4018.1787       4.6195       0.1135      52.7394      60.2390    -999.2500      65.3329    -999.2500      75.0288    -999.2500    -999.2500       0.0811       3.3411       2.6608     142.3142
   4018.3311   4018.3311       4.6331       0.1179      53.0502      62.3742    -999.2500      63.9702    -999.2500      73.4256    -999.2500    -999.2500       0.0831       3.2426       2.6610     143.7686
   4018.4834   4018.4834       4.6306       0.0954      53.3833      64.4182    -999.2500      62.4984    -999.2500      71.7368    -999.2500    -999.2500       0.0864       3.1622       2.6571     145.2334
   4018.6357   4018.6357       4.6815       0.0759      53.5260      66.6750    -999.2500      68.3775    -999.2500      78.1158    -999.2500    -999.2500       0.0890       3.1751       2.6358     145.1036
   4018.7881   4018.7881       4.7403       0.0856      53.2719      65.8887    -999.2500      75.3057    -999.2500      85.8325    -999.2500    -999.2500       0.0911       3.2175       2.6149     143.6125
   4018.9407   4018.9407       4.7363       0.1233      52.9904      65.5574    -999.2500      83.6550    -999.2500      95.0008    -999.2500    -999.2500       0.0936       3.2316       2.6200     141.5937
   4019.0930   4019.0930       4.6241       0.1648      52.9647      64.7525    -999.2500     107.1843    -999.2500     120.9891    -999.2500    -999.2500       0.0945       3.2653       2.6418     139.8527
   4019.2454   4019.2454       4.5933       0.1809      53.1652      64.1373    -999.2500     110.3224    -999.2500     124.2510    -999.2500    -999.2500       0.0951       3.2297       2.6382     139.5180
   4019.3977   4019.3977       4.6847       0.1831      53.4092      62.3053    -999.2500     113.1820    -999.2500     126.8931    -999.2500    -999.2500       0.0959       3.1383       2.6216     139.8957
   4019.5503   4019.5503       4.6970       0.1592      53.6485      60.6532    -999.2500     120.2334    -999.2500     134.6762    -999.2500    -999.2500       0.0958       3.1449       2.6272     141.2926
