#------------------------------------------------------------------------------
#
#   Created by  : [OpenWorks] Log Export Utility (LEXP)
#   Created on  : 2015-10-01 09:42:34
#   Project     : CANT971
#   User        : R5K
#   Interpreter : PEP
#
#------------------------------------------------------------------------------
~VERSION INFORMATION
VERS. 2.0 : CWLS Log ASCII Standard - version 2.0
WRAP.  NO : One line per depth step
~WELL INFORMATION
#MNEMONIC   .UNIT                                           VALUE :DESCRIPTION
#------------------------------------------------------------------------------
STRT        .M                                          3550.1582 :START DEPTH
STOP        .M                                          4164.9399 :STOP DEPTH
STEP        .M                                             0.1524 :STEP
NULL        .                                           -999.2500 :NULL VALUE
COMP        .                                             UNKNOWN :COMPANY
WELL        .                                         SIHIL-12-ST :WELL
FLD         .                                             UNKNOWN :FIELD
LOC         .                                             UNKNOWN :LOCATION
CNTY        .                                             UNKNOWN :COUNTY
STAT        .                                             UNKNOWN :STATE
CTRY        .                                             UNKNOWN :COUNTRY
SRVC        .                                             UNKNOWN :SERVICE COMPANY
DATE        .                                             UNKNOWN :LOG DATE
UWI         .                                         SIHIL-12-ST :UNIQUE WELL ID
XCOORD      .                                            0.000000 :SURFACE X
YCOORD      .                                            0.000000 :SURFACE Y
LAT         .                                            0.000000 :LATITUDE
LON         .                                          -97.488695 :LONGITUDE
ELEV        .M                                             0.0000 :SURFACE ELEV
ELEV_TYPE   .                                                  KB :ELEV TYPE
~CURVE INFORMATION
#MNEMONIC.UNIT        API CODE       : CURVE DESCRIPTION
#------------------------------------------------------------------------------
DEPTH    .M                          : Measured Depth
TVD      .M                          : True Vertical Depth (TVD)
CALI     .inches      UNKNOWN        : CALI:litodensidad:rC:NONE:v0 (auto-composite)
DRHO     .g/cm3       UNKNOWN        : DRHO:litodensidad:rC:NONE:v0 (auto-composite)
DT       .us/ft       UNKNOWN        : DT:sonico:rC:NONE:v0 (auto-composite)
GR       .API         UNKNOWN        : GR:resistivos:rC:NONE:v0 (auto-composite)
GR-LWD   .API         UNKNOWN        : GR-LWD:resistivos-LWD:rC:NONE:v0 (auto-composite)
LLD      .ohm.m       UNKNOWN        : LLD:resistivos:rC:NONE:v0 (auto-composite)
LLD-LWD  .ohm.m       UNKNOWN        : LLD-LWD:resistivos-LWD:rC:NONE:v0 (auto-composite)
LLS      .ohm.m       UNKNOWN        : LLS:resistivos:rC:NONE:v0 (auto-composite)
LLS-LWD  .ohm.m       UNKNOWN        : LLS-LWD:resistivos-LWD:rC:NONE:v0 (auto-composite)
MSFL-LWD .ohm.m       UNKNOWN        : MSFL-LWD:resistivos-LWD:rC:NONE:v0 (auto-composite)
NPHI     .v/v_decimal UNKNOWN        : NPHI:porosidad:rC:NONE:v0 (auto-composite)
PEF      .b/elec      UNKNOWN        : PEF:litodensidad:rC:NONE:v0 (auto-composite)
RHOB     .g/cm3       UNKNOWN        : RHOB:litodensidad:rC:NONE:v0 (auto-composite)
SP       .mv          UNKNOWN        : SP:resistivos:rC:NONE:v0 (auto-composite)
~A     DEPTH         TVD         CALI         DRHO           DT           GR       GR-LWD          LLD      LLD-LWD          LLS      LLS-LWD     MSFL-LWD         NPHI          PEF         RHOB           SP
# ...
   4043.4771   4043.4771       4.5622       0.0817      56.8300      61.7173    -999.2500      95.8119    -999.2500      95.7606    -999.2500    -999.2500       0.1108       2.9940       2.5839     134.4312
   4043.6294   4043.6294       4.5753       0.0679      55.5074      63.0466    -999.2500      92.5215    -999.2500      92.5725    -999.2500    -999.2500       0.1198       3.0067       2.5673     134.9721
   4043.7817   4043.7817       4.5896       0.0677      54.7638      64.0104    -999.2500      92.0913    -999.2500      92.6202    -999.2500    -999.2500       0.1229       2.9795       2.5489     136.3494
   4043.9341   4043.9341       4.5937       0.0754      54.9107      62.5278    -999.2500      79.0646    -999.2500      79.8925    -999.2500    -999.2500       0.1156       2.9928       2.5351     136.9987
   4044.0867   4044.0867       4.5780       0.0935      55.0415      60.3870    -999.2500      73.5286    -999.2500      74.2466    -999.2500    -999.2500       0.1071       3.0041       2.5048     136.9735
   4044.2390   4044.2390       4.6178       0.1061      54.4945      58.6146    -999.2500     114.4278    -999.2500     115.2975    -999.2500    -999.2500       0.1071       2.9822       2.4615     135.6695
   4044.3914   4044.3914       4.6394       0.1154      54.1980      57.9929    -999.2500      91.2653    -999.2500      92.0635    -999.2500    -999.2500       0.1076       2.9819       2.4382     134.8696
   4044.5437   4044.5437       4.6280       0.1500      54.6119      60.4969    -999.2500      84.8348    -999.2500      85.0697    -999.2500    -999.2500       0.1043       3.0861       2.4940     134.5279
   4044.6963   4044.6963       4.6293       0.1801      54.9193      63.9143    -999.2500      99.5933    -999.2500      98.9689    -999.2500    -999.2500       0.1007       3.2218       2.5641     134.3637
   4044.8486   4044.8486       4.6566       0.1394      54.6819      66.2308    -999.2500     106.1364    -999.2500     106.0319    -999.2500    -999.2500       0.0999       3.2677       2.5828     134.6017
   4045.0010   4045.0010       4.7141       0.0807      54.3189      67.4587    -999.2500      88.9606    -999.2500      88.1037    -999.2500    -999.2500       0.0981       3.2605       2.5711     135.0856
   4045.1533   4045.1533       4.6895       0.0631      54.3556      67.7208    -999.2500     116.1915    -999.2500     114.9263    -999.2500    -999.2500       0.0956       3.2957       2.5698     134.9326
   4045.3059   4045.3059       4.6227       0.0715      54.7333      67.5530    -999.2500     109.7887    -999.2500     108.8924    -999.2500    -999.2500       0.0946       3.4483       2.6109     134.2001
   4045.4583   4045.4583       4.5977       0.0766      55.1174      67.9703    -999.2500     106.7406    -999.2500     105.2485    -999.2500    -999.2500       0.0958       3.4374       2.6290     133.3968
   4045.6106   4045.6106       4.5731       0.0834      55.3437      68.6754    -999.2500     111.9578    -999.2500     111.3176    -999.2500    -999.2500       0.1007       3.3323       2.6220     133.4389
   4045.7629   4045.7629       4.6405       0.0798      55.3196      67.9667    -999.2500      78.0718    -999.2500      78.1023    -999.2500    -999.2500       0.1023       3.3346       2.6007     135.0552
   4045.9153   4045.9153       4.6148       0.0654      54.8199      66.6150    -999.2500      88.9384    -999.2500      89.0619    -999.2500    -999.2500       0.0986       3.4358       2.5933     136.7175
   4046.0679   4046.0679       4.6491       0.0715      53.9941      65.2164    -999.2500     121.0319    -999.2500     121.9376    -999.2500    -999.2500       0.0943       3.5286       2.6227     137.3753
   4046.2202   4046.2202       4.6202       0.0768      53.6962      64.9659    -999.2500     142.3392    -999.2500     143.9485    -999.2500    -999.2500       0.0884       3.5512       2.6286     136.6143
   4046.3726   4046.3726       4.6249       0.0558      54.1945      65.0819    -999.2500     112.7501    -999.2500     115.0333    -999.2500    -999.2500       0.0867       3.4488       2.5708     135.6344
   4046.5249   4046.5249       4.6138       0.0427      54.9644      63.1342    -999.2500      95.6431    -999.2500      97.5399    -999.2500    -999.2500       0.0865       3.3021       2.5149     134.4798
   4046.6775   4046.6775       4.6646       0.0659      55.8666      62.5072    -999.2500      95.5249    -999.2500      98.0484    -999.2500    -999.2500       0.0910       3.3140       2.5648     134.4972
   4046.8298   4046.8298       4.6542       0.0834      57.1015      61.1363    -999.2500      79.6520    -999.2500      81.6432    -999.2500    -999.2500       0.0974       3.3847       2.6418     134.9293
   4046.9822   4046.9822       4.6184       0.0803      58.2768      61.5469    -999.2500      64.0568    -999.2500      65.8197    -999.2500    -999.2500       0.1056       3.4350       2.6645     135.5552
   4047.1345   4047.1345       5.1025       0.0772      58.3858      62.9910    -999.2500      63.9760    -999.2500      64.7757    -999.2500    -999.2500       0.1117       3.4892       2.5103     135.7801
   4047.2871   4047.2871       5.6829       0.0989      57.6255      65.9318    -999.2500      85.1088    -999.2500      86.9872    -999.2500    -999.2500       0.1159       3.5209       2.3117     135.6340
   4047.4395   4047.4395       5.4167       0.1584      56.6928      68.3773    -999.2500      78.4305    -999.2500      79.6189    -999.2500    -999.2500       0.1072       3.4049       2.3785     135.5238
   4047.5918   4047.5918       4.8459       0.2110      55.8660      70.2851    -999.2500     111.0553    -999.2500     112.7472    -999.2500    -999.2500       0.0960       3.3160       2.5160     136.0558
   4047.7441   4047.7441       4.6460       0.2223      55.3865      73.3182    -999.2500      89.0042    -999.2500      91.9937    -999.2500    -999.2500       0.0938       3.3594       2.5790     136.8854
   4047.8965   4047.8965       4.5701       0.2262      55.3065      75.2570    -999.2500      80.5027    -999.2500      82.4381    -999.2500    -999.2500       0.0948       3.4460       2.6433     136.9427
   4048.0491   4048.0491       4.5689       0.2021      55.2772      76.0588    -999.2500      97.5899    -999.2500     100.0806    -999.2500    -999.2500       0.0947       3.5360       2.6790     136.1413
   4048.2014   4048.2014       4.5515       0.1646      55.1601      76.7499    -999.2500     133.5129    -999.2500     137.1446    -999.2500    -999.2500       0.0936       3.5533       2.6826     135.3885
   4048.3538   4048.3538       4.5615       0.1487      55.0655      76.4195    -999.2500      96.3964    -999.2500      99.2977    -999.2500    -999.2500       0.0946       3.5032       2.6694     135.0356
   4048.5061   4048.5061       4.6562       0.1381      55.1245      74.7111    -999.2500      80.6280    -999.2500      82.1099    -999.2500    -999.2500       0.0975       3.4794       2.6694     135.5019
   4048.6587   4048.6587       4.7040       0.1070      55.6842      73.8880    -999.2500     102.4221    -999.2500     104.3134    -999.2500    -999.2500       0.1000       3.5406       2.6663     136.5540
   4048.8110   4048.8110       4.8566       0.0306      56.4107      73.1579    -999.2500      98.0519    -999.2500     100.5218    -999.2500    -999.2500       0.1016       3.6573       2.6060     138.2854
   4048.9634   4048.9634       4.7406       0.0073      56.6284      73.7914    -999.2500      98.1705    -999.2500     100.5455    -999.2500    -999.2500       0.0987       3.6204       2.5568     138.6181
   4049.1157   4049.1157       4.6287       0.0236      56.1382      76.2834    -999.2500      95.7366    -999.2500      98.1961    -999.2500    -999.2500       0.0951       3.3298       2.5163     138.4127
   4049.2683   4049.2683       4.6263       0.0610      54.8219      78.9197    -999.2500     129.6588    -999.2500     132.5200    -999.2500    -999.2500       0.0947       3.1401       2.5306     137.4468
