#------------------------------------------------------------------------------
#
#   Created by  : [OpenWorks] Log Export Utility (LEXP)
#   Created on  : 2015-10-01 09:41:14
#   Project     : CANT971
#   User        : R5K
#   Interpreter : PEP
#
#------------------------------------------------------------------------------
~VERSION INFORMATION
VERS. 2.0 : CWLS Log ASCII Standard - version 2.0
WRAP.  NO : One line per depth step
~WELL INFORMATION
#MNEMONIC   .UNIT                                           VALUE :DESCRIPTION
#------------------------------------------------------------------------------
STRT        .M                                          1374.3848 :START DEPTH
STOP        .M                                          3939.4292 :STOP DEPTH
STEP        .M                                             0.1524 :STEP
NULL        .                                           -999.2500 :NULL VALUE
COMP        .                                             UNKNOWN :COMPANY
WELL        .                                         SIHIL-11-ST :WELL
FLD         .                                             UNKNOWN :FIELD
LOC         .                                             UNKNOWN :LOCATION
CNTY        .                                             UNKNOWN :COUNTY
STAT        .                                             UNKNOWN :STATE
CTRY        .                                             UNKNOWN :COUNTRY
SRVC        .                                             UNKNOWN :SERVICE COMPANY
DATE        .                                             UNKNOWN :LOG DATE
UWI         .                                         SIHIL-11-ST :UNIQUE WELL ID
XCOORD      .                                       599653.950000 :SURFACE X
YCOORD      .                                      2147230.550000 :SURFACE Y
LAT         .                                           19.418046 :LATITUDE
LON         .                                          -92.050821 :LONGITUDE
ELEV        .M                                             0.0000 :SURFACE ELEV
ELEV_TYPE   .                                                  KB :ELEV TYPE
~CURVE INFORMATION
#MNEMONIC.UNIT        API CODE       : CURVE DESCRIPTION
#------------------------------------------------------------------------------
DEPTH    .M                          : Measured Depth
TVD      .M                          : True Vertical Depth (TVD)
CALI     .inches      UNKNOWN        : CALI:litodensidad:rC:NONE:v0 (auto-composite)
DRHO     .g/cm3       UNKNOWN        : DRHO:UNKNOWN:rC:NONE:v0 (auto-composite)
DT       .us/ft       UNKNOWN        : DT:UNKNOWN:rC:NONE:v0 (auto-composite)
GR       .API         UNKNOWN        : GR:UNKNOWN:rC:NONE:v0 (auto-composite)
GR-ENT   .API         UNKNOWN        : GR-ENT:registros:rC:NONE:v0 (auto-composite)
GR-LWD   .API         UNKNOWN        : GR-LWD:PETROWORKS:rC:NONE:v1 
LLD-LWD  .ohm.m       UNKNOWN        : LLD-LWD:PETROWORKS:rC:NONE:v1 
LLS-LWD  .ohm.m       UNKNOWN        : LLS-LWD:PETROWORKS:rC:NONE:v1 
MSFL-LWD .ohm.m       UNKNOWN        : MSFL-LWD:PETROWORKS:rC:NONE:v1 
NPHI     .v/v_decimal UNKNOWN        : NPHI:UNKNOWN:rC:NONE:v0 (auto-composite)
NPHI-ENT .v/v_decimal UNKNOWN        : NPHI-ENT:registros:rC:NONE:v0 (auto-composite)
PEF      .b/elec      UNKNOWN        : PEF:UNKNOWN:rC:NONE:v0 (auto-composite)
RHOB     .g/cm3       UNKNOWN        : RHOB:UNKNOWN:rC:NONE:v0 (auto-composite)
SIGM     .cu          UNKNOWN        : SIGM:registros:rC:NONE:v0 (auto-composite)
~A     DEPTH         TVD         CALI         DRHO           DT           GR       GR-ENT       GR-LWD      LLD-LWD      LLS-LWD     MSFL-LWD         NPHI     NPHI-ENT          PEF         RHOB         SIGM
# ...
   3781.5427   3781.5427    -999.2500    -999.2500      70.5164    -999.2500    -999.2500      33.7423    -999.2500    -999.2500    -999.2500    -999.2500    -999.2500    -999.2500    -999.2500    -999.2500
   3781.6951   3781.6951    -999.2500    -999.2500      71.4142    -999.2500    -999.2500      34.7549    -999.2500    -999.2500    -999.2500    -999.2500    -999.2500    -999.2500    -999.2500    -999.2500
   3781.8477   3781.8477    -999.2500    -999.2500      71.6536    -999.2500    -999.2500      37.0528    -999.2500    -999.2500    -999.2500    -999.2500    -999.2500    -999.2500    -999.2500    -999.2500
   3782.0000   3782.0000       6.6333    -999.2500      71.7882    -999.2500    -999.2500      38.9775    -999.2500    -999.2500    -999.2500    -999.2500    -999.2500    -999.2500    -999.2500    -999.2500
   3782.1523   3782.1523       6.6244      -1.0359      71.2483      45.0399    -999.2500      40.1347    -999.2500    -999.2500    -999.2500       0.1950    -999.2500       7.1810       2.2581    -999.2500
   3782.3047   3782.3047       6.6169      -0.8987      70.0713      45.5868    -999.2500      40.4218    -999.2500    -999.2500    -999.2500       0.2027    -999.2500       7.3797       2.3086    -999.2500
   3782.4573   3782.4573       6.6303      -0.5720      69.9949      48.8248    -999.2500      40.5159    -999.2500    -999.2500    -999.2500       0.2105    -999.2500       7.6647       2.3679    -999.2500
   3782.6096   3782.6096       6.6852      -0.2435      70.5066      54.9144    -999.2500      46.5207    -999.2500    -999.2500    -999.2500       0.2163    -999.2500       7.8016       2.3916    -999.2500
   3782.7620   3782.7620       6.8818       0.0344      73.9875      64.3281    -999.2500      63.1542    -999.2500    -999.2500    -999.2500       0.2328    -999.2500       7.9575       2.3494    -999.2500
   3782.9143   3782.9143       7.0654       0.1070      79.2493      72.0467    -999.2500      74.4516    -999.2500    -999.2500    -999.2500       0.2249    -999.2500       8.2586       2.3189    -999.2500
   3783.0667   3783.0667       7.3262       0.1956      79.3197      79.7108    -999.2500      75.7330    -999.2500    -999.2500    -999.2500       0.2096    -999.2500       8.6995       2.3466    -999.2500
   3783.2192   3783.2192       7.6287       0.2962      78.9238      79.8913    -999.2500      76.6969    -999.2500    -999.2500    -999.2500       0.2024    -999.2500       8.7482       2.3962    -999.2500
   3783.3716   3783.3716       8.0800       0.4086      75.2322      74.6353    -999.2500      75.5199    -999.2500    -999.2500    -999.2500       0.1916    -999.2500       8.3921       2.4637    -999.2500
   3783.5239   3783.5239       8.3968       0.4565      67.5981      69.5802    -999.2500      73.0051    -999.2500    -999.2500    -999.2500       0.1830    -999.2500       7.7807       2.5190    -999.2500
   3783.6763   3783.6763       8.6432       0.4820      64.8281      68.4028    -999.2500      68.8269    -999.2500    -999.2500    -999.2500       0.1838    -999.2500       6.9978       2.5737    -999.2500
   3783.8289   3783.8289       8.7306       0.4480      64.1385      70.4147    -999.2500      63.8669    -999.2500    -999.2500       4.0611       0.1884    -999.2500       6.2547       2.6236    -999.2500
   3783.9812   3783.9812       8.0004       0.3170      63.5729      73.0933    -999.2500      64.2301    -999.2500    -999.2500       3.6019       0.1970    -999.2500       5.5246       2.6778    -999.2500
   3784.1335   3784.1335       7.3195       0.1591      63.5824      76.0386    -999.2500      70.7324       4.0424       3.2516       3.1245       0.1948    -999.2500       4.6832       2.7110    -999.2500
   3784.2859   3784.2859       6.8420       0.0671      63.9499      80.2818    -999.2500      77.6034       3.4444       2.9415       2.7828       0.1800    -999.2500       4.0759       2.6978    -999.2500
   3784.4385   3784.4385       6.7279       0.0336      63.5570      84.6254    -999.2500      81.0636       2.8557       2.8708       2.8548       0.1696    -999.2500       3.7244       2.6919    -999.2500
   3784.5908   3784.5908       6.6884       0.0495      62.8359      84.4273    -999.2500      81.4763       2.7424       3.3027       3.6760       0.1529    -999.2500       3.6099       2.7081    -999.2500
   3784.7432   3784.7432       6.6740       0.0887      60.9540      80.9203    -999.2500      78.1364       3.1988       4.2331       5.3771       0.1321    -999.2500       3.6239       2.7076    -999.2500
   3784.8955   3784.8955       6.6794       0.1531      59.1214      76.9878    -999.2500      71.4515       4.0837       5.0443       6.7462       0.1163    -999.2500       3.5973       2.7091    -999.2500
   3785.0479   3785.0479       6.6952       0.2136      59.4216      76.0403    -999.2500      65.7720       4.9798       5.2084       6.5869       0.1086    -999.2500       3.4501       2.7501    -999.2500
   3785.2004   3785.2004       6.7009       0.2467      59.9172      81.0724    -999.2500      68.0484       5.2250       4.6460       5.1242       0.1202    -999.2500       3.4865       2.7859    -999.2500
   3785.3528   3785.3528       6.7181       0.2666      62.4484      87.8058    -999.2500      79.5967       4.4792       3.7005       3.6615       0.1474    -999.2500       3.7768       2.7741    -999.2500
   3785.5051   3785.5051       6.7221       0.2792      68.3977      85.0600    -999.2500      87.1823       3.6453       3.1383       3.0815       0.1661    -999.2500       4.0308       2.7206    -999.2500
   3785.6575   3785.6575       6.7106       0.3137      72.2833      76.3838    -999.2500      83.3681       3.4550       3.3263       3.4013       0.1846    -999.2500       4.3374       2.6562    -999.2500
   3785.8101   3785.8101       6.7656       0.3481      74.6166      69.9033    -999.2500      73.3512       3.9190       4.1017       4.2311       0.1901    -999.2500       4.6697       2.6091    -999.2500
   3785.9624   3785.9624       6.9989       0.3474      75.4372      65.8442    -999.2500      68.1243       4.6389       4.9259       4.9608       0.1986    -999.2500       5.0035       2.5576    -999.2500
   3786.1147   3786.1147       7.0512       0.2980      75.5461      68.0610    -999.2500      69.8711       5.1357       5.2542       5.1853       0.2026    -999.2500       4.8674       2.5724    -999.2500
   3786.2671   3786.2671       6.7824       0.2415      75.2184      70.3138    -999.2500      70.0734       5.4744       5.4066       5.3238       0.2008    -999.2500       4.5041       2.6286    -999.2500
   3786.4197   3786.4197       6.6686       0.2269      74.2532      69.0175    -999.2500      69.3270       5.6582       5.4998       5.4897       0.1889    -999.2500       4.3121       2.6675    -999.2500
   3786.5720   3786.5720       6.6839       0.2229      72.7419      66.3905    -999.2500      71.3283       5.6835       5.5326       5.6511       0.1736    -999.2500       4.1719       2.6905    -999.2500
   3786.7244   3786.7244       6.7065       0.2171      71.1343      69.8096    -999.2500      78.7724       5.8064       5.6480       5.8592       0.1642    -999.2500       4.1477       2.6833    -999.2500
   3786.8767   3786.8767       6.7227       0.2024      69.8753      81.1193    -999.2500      87.4611       5.9706       5.7225       5.8186       0.1571    -999.2500       4.1844       2.6733    -999.2500
   3787.0291   3787.0291       6.7298       0.1814      69.2014      87.3270    -999.2500      85.7094       5.8186       5.5402       5.4317       0.1579    -999.2500       4.1984       2.6689    -999.2500
   3787.1816   3787.1816       6.7223       0.1513      69.1595      76.8061    -999.2500      74.1000       5.4711       5.1969       5.0912       0.1631    -999.2500       4.1399       2.6751    -999.2500
   3787.3340   3787.3340       6.7421       0.1160      69.4977      61.9921    -999.2500      60.1248       5.1278       4.9431       5.1657       0.1622    -999.2500       4.0775       2.6943    -999.2500
