#------------------------------------------------------------------------------
#
#   Created by  : [OpenWorks] Log Export Utility (LEXP)
#   Created on  : 2015-10-01 09:42:34
#   Project     : CANT971
#   User        : R5K
#   Interpreter : PEP
#
#------------------------------------------------------------------------------
~VERSION INFORMATION
VERS. 2.0 : CWLS Log ASCII Standard - version 2.0
WRAP.  NO : One line per depth step
~WELL INFORMATION
#MNEMONIC   .UNIT                                           VALUE :DESCRIPTION
#------------------------------------------------------------------------------
STRT        .M                                          3550.1582 :START DEPTH
STOP        .M                                          4164.9399 :STOP DEPTH
STEP        .M                                             0.1524 :STEP
NULL        .                                           -999.2500 :NULL VALUE
COMP        .                                             UNKNOWN :COMPANY
WELL        .                                         SIHIL-12-ST :WELL
FLD         .                                             UNKNOWN :FIELD
LOC         .                                             UNKNOWN :LOCATION
CNTY        .                                             UNKNOWN :COUNTY
STAT        .                                             UNKNOWN :STATE
CTRY        .                                             UNKNOWN :COUNTRY
SRVC        .                                             UNKNOWN :SERVICE COMPANY
DATE        .                                             UNKNOWN :LOG DATE
UWI         .                                         SIHIL-12-ST :UNIQUE WELL ID
XCOORD      .                                            0.000000 :SURFACE X
YCOORD      .                                            0.000000 :SURFACE Y
LAT         .                                            0.000000 :LATITUDE
LON         .                                          -97.488695 :LONGITUDE
ELEV        .M                                             0.0000 :SURFACE ELEV
ELEV_TYPE   .                                                  KB :ELEV TYPE
~CURVE INFORMATION
#MNEMONIC.UNIT        API CODE       : CURVE DESCRIPTION
#------------------------------------------------------------------------------
DEPTH    .M                          : Measured Depth
TVD      .M                          : True Vertical Depth (TVD)
CALI     .inches      UNKNOWN        : CALI:litodensidad:rC:NONE:v0 (auto-composite)
DRHO     .g/cm3       UNKNOWN        : DRHO:litodensidad:rC:NONE:v0 (auto-composite)
DT       .us/ft       UNKNOWN        : DT:sonico:rC:NONE:v0 (auto-composite)
GR       .API         UNKNOWN        : GR:resistivos:rC:NONE:v0 (auto-composite)
GR-LWD   .API         UNKNOWN        : GR-LWD:resistivos-LWD:rC:NONE:v0 (auto-composite)
LLD      .ohm.m       UNKNOWN        : LLD:resistivos:rC:NONE:v0 (auto-composite)
LLD-LWD  .ohm.m       UNKNOWN        : LLD-LWD:resistivos-LWD:rC:NONE:v0 (auto-composite)
LLS      .ohm.m       UNKNOWN        : LLS:resistivos:rC:NONE:v0 (auto-composite)
LLS-LWD  .ohm.m       UNKNOWN        : LLS-LWD:resistivos-LWD:rC:NONE:v0 (auto-composite)
MSFL-LWD .ohm.m       UNKNOWN        : MSFL-LWD:resistivos-LWD:rC:NONE:v0 (auto-composite)
NPHI     .v/v_decimal UNKNOWN        : NPHI:porosidad:rC:NONE:v0 (auto-composite)
PEF      .b/elec      UNKNOWN        : PEF:litodensidad:rC:NONE:v0 (auto-composite)
RHOB     .g/cm3       UNKNOWN        : RHOB:litodensidad:rC:NONE:v0 (auto-composite)
SP       .mv          UNKNOWN        : SP:resistivos:rC:NONE:v0 (auto-composite)
~A     DEPTH         TVD         CALI         DRHO           DT           GR       GR-LWD          LLD      LLD-LWD          LLS      LLS-LWD     MSFL-LWD         NPHI          PEF         RHOB           SP
# ...
   4150.4619   4150.4619       4.6065       0.1026      48.9738      53.6248    -999.2500      93.7167    -999.2500     102.7258    -999.2500    -999.2500       0.0535       4.6995       2.7126    -999.2500
   4150.6143   4150.6143       4.6388       0.0767      48.1356      55.1200    -999.2500      78.2694    -999.2500      86.8214    -999.2500    -999.2500       0.0672       4.6849       2.7267    -999.2500
   4150.7666   4150.7666       4.6202       0.0793      47.4537      58.5582    -999.2500     111.2195    -999.2500     122.5244    -999.2500    -999.2500       0.0682       4.8225       2.7267    -999.2500
   4150.9189   4150.9189       4.6111       0.0889      47.0672      62.5875    -999.2500     115.9000    -999.2500     131.3080    -999.2500    -999.2500       0.0594       5.1867       2.7219    -999.2500
   4151.0713   4151.0713       4.6969       0.0985      46.7185      70.4827    -999.2500      95.2680    -999.2500     105.3222    -999.2500    -999.2500       0.0543       5.5388       2.7324    -999.2500
   4151.2236   4151.2236       4.5574       0.1105      46.3699      78.1992    -999.2500     121.1392    -999.2500     135.2742    -999.2500    -999.2500       0.0481       5.9727       2.7942    -999.2500
   4151.3760   4151.3760       4.5667       0.1065      46.0212      92.4430    -999.2500     157.6394    -999.2500     176.8216    -999.2500    -999.2500       0.0435       5.9903       2.8273    -999.2500
   4151.5288   4151.5288       4.5625       0.0970      45.6799     103.0111    -999.2500     138.2787    -999.2500     155.5115    -999.2500    -999.2500       0.0397       5.9193       2.8351    -999.2500
   4151.6812   4151.6812       4.5384       0.0892      45.6530     113.8631    -999.2500      65.1868    -999.2500      72.7701    -999.2500    -999.2500       0.0380       5.8435       2.8184    -999.2500
   4151.8335   4151.8335       4.5498       0.0873      45.9733     114.9227    -999.2500      77.7560    -999.2500      86.4272    -999.2500    -999.2500       0.0396       5.7997       2.8001    -999.2500
   4151.9858   4151.9858       4.5678       0.0833      46.3183     106.1788    -999.2500      75.0421    -999.2500      82.9566    -999.2500    -999.2500       0.0414       5.7883       2.7808    -999.2500
   4152.1382   4152.1382       4.5608       0.0782      46.4473      99.1677    -999.2500     111.9041    -999.2500     123.1841    -999.2500    -999.2500       0.0407       5.8169       2.7706    -999.2500
   4152.2905   4152.2905       4.5515       0.0708      46.5915      93.9098    -999.2500     237.9508    -999.2500     259.9822    -999.2500    -999.2500       0.0382       5.6996       2.7843    -999.2500
   4152.4429   4152.4429       4.5683       0.0573      47.0532      94.3297    -999.2500     247.7440    -999.2500     271.4378    -999.2500    -999.2500       0.0369       5.2971       2.8001    -999.2500
   4152.5952   4152.5952       4.5768       0.0454      47.3276      95.7367    -999.2500     108.8794    -999.2500     114.6982    -999.2500    -999.2500       0.0391       4.9566       2.7729    -999.2500
   4152.7480   4152.7480       4.7628       0.0275      47.1938      93.4689    -999.2500     110.2818    -999.2500     115.9535    -999.2500    -999.2500       0.0463       5.2799       2.6460    -999.2500
   4152.9004   4152.9004       5.1146       0.0072      47.4423      86.3814    -999.2500      52.9431    -999.2500      54.1950    -999.2500    -999.2500       0.0548       5.8581       2.5307    -999.2500
   4153.0527   4153.0527       5.4756       0.0213      47.6910      80.9397    -999.2500      66.7575    -999.2500      66.5783    -999.2500    -999.2500       0.0605       5.9112       2.5802    -999.2500
   4153.2051   4153.2051       4.9154       0.0677      47.6930      77.5637    -999.2500     129.6206    -999.2500     127.9078    -999.2500    -999.2500       0.0548       5.4214       2.7379    -999.2500
   4153.3574   4153.3574       4.6681       0.0791      47.6133      79.5426    -999.2500     125.7661    -999.2500     124.8077    -999.2500    -999.2500       0.0477       5.4211       2.7530    -999.2500
   4153.5098   4153.5098       4.5022       0.0877      47.5006      83.8781    -999.2500     119.3873    -999.2500     120.4490    -999.2500    -999.2500       0.0408       5.8876       2.7210    -999.2500
   4153.6621   4153.6621       4.5110       0.0945      46.9873      92.3430    -999.2500      80.9055    -999.2500      82.7731    -999.2500    -999.2500       0.0424       6.0847       2.7179    -999.2500
   4153.8145   4153.8145       4.5265       0.1047      46.2885      95.7838    -999.2500      84.5631    -999.2500      86.7023    -999.2500    -999.2500       0.0441       6.2035       2.7533    -999.2500
   4153.9668   4153.9668       4.5116       0.1041      46.1266      94.0753    -999.2500     226.9216    -999.2500     230.1932    -999.2500    -999.2500       0.0423       6.1233       2.7782    -999.2500
   4154.1196   4154.1196       4.5263       0.0778      46.4089      92.3942    -999.2500     223.2706    -999.2500     222.4580    -999.2500    -999.2500       0.0377       5.6323       2.7794    -999.2500
   4154.2720   4154.2720       4.5463       0.0565      46.6720      89.6123    -999.2500     287.4727    -999.2500     277.3315    -999.2500    -999.2500       0.0358       5.2853       2.7707    -999.2500
   4154.4243   4154.4243       4.5323       0.0500      46.6867      89.3050    -999.2500     203.1473    -999.2500     194.1349    -999.2500    -999.2500       0.0355       5.1625       2.7572    -999.2500
   4154.5767   4154.5767       4.5406       0.0615      46.4414      87.2568    -999.2500      53.0346    -999.2500      49.9663    -999.2500    -999.2500       0.0366       5.3614       2.7504    -999.2500
   4154.7290   4154.7290       4.5527       0.0630      46.2087      83.0424    -999.2500      87.5724    -999.2500      79.4111    -999.2500    -999.2500       0.0385       5.5249       2.7486    -999.2500
   4154.8813   4154.8813       4.5516       0.0468      46.3999      78.2559    -999.2500     160.2635    -999.2500     142.2626    -999.2500    -999.2500       0.0413       5.4379       2.7511    -999.2500
   4155.0337   4155.0337       4.5071       0.0390      46.8221      76.6370    -999.2500     132.5859    -999.2500     121.2596    -999.2500    -999.2500       0.0431       5.1892       2.7507    -999.2500
   4155.1860   4155.1860       4.4900       0.0397      47.0574      76.7298    -999.2500     103.1778    -999.2500      96.8248    -999.2500    -999.2500       0.0443       4.9926       2.7467    -999.2500
   4155.3384   4155.3384       4.4663       0.0401      47.1692      75.8025    -999.2500      92.5971    -999.2500      89.0953    -999.2500    -999.2500       0.0444       4.9885       2.7547    -999.2500
   4155.4912   4155.4912       4.4447       0.0400      47.2581      72.4366    -999.2500 -1000000.0000    -999.2500 -1000000.0000    -999.2500    -999.2500       0.0445       5.0428       2.7677    -999.2500
   4155.6436   4155.6436       4.4375       0.0484      47.1969      70.2026    -999.2500    -999.2500    -999.2500    -999.2500    -999.2500    -999.2500       0.0444       5.3707       2.7766    -999.2500
   4155.7959   4155.7959       4.4299       0.0600      47.1418      69.9741    -999.2500    -999.2500    -999.2500    -999.2500    -999.2500    -999.2500       0.0445       5.9169       2.7945    -999.2500
   4155.9482   4155.9482       4.4331       0.0542      47.2527      73.4143    -999.2500    -999.2500    -999.2500    -999.2500    -999.2500    -999.2500       0.0448       6.0710       2.8171    -999.2500
   4156.1006   4156.1006       4.4320       0.0395      47.3581      78.3736    -999.2500    -999.2500    -999.2500    -999.2500    -999.2500    -999.2500       0.0445       5.8356       2.8282    -999.2500
   4156.2529   4156.2529       4.4260       0.0327      47.3673      78.3285    -999.2500    -999.2500    -999.2500    -999.2500    -999.2500    -999.2500       0.0447       5.5562       2.8181    -999.2500
