#------------------------------------------------------------------------------
#
#   Created by  : [OpenWorks] Log Export Utility (LEXP)
#   Created on  : 2015-10-01 09:42:34
#   Project     : CANT971
#   User        : R5K
#   Interpreter : PEP
#
#------------------------------------------------------------------------------
~VERSION INFORMATION
VERS. 2.0 : CWLS Log ASCII Standard - version 2.0
WRAP.  NO : One line per depth step
~WELL INFORMATION
#MNEMONIC   .UNIT                                           VALUE :DESCRIPTION
#------------------------------------------------------------------------------
STRT        .M                                          3550.1582 :START DEPTH
STOP        .M                                          4164.9399 :STOP DEPTH
STEP        .M                                             0.1524 :STEP
NULL        .                                           -999.2500 :NULL VALUE
COMP        .                                             UNKNOWN :COMPANY
WELL        .                                         SIHIL-12-ST :WELL
FLD         .                                             UNKNOWN :FIELD
LOC         .                                             UNKNOWN :LOCATION
CNTY        .                                             UNKNOWN :COUNTY
STAT        .                                             UNKNOWN :STATE
CTRY        .                                             UNKNOWN :COUNTRY
SRVC        .                                             UNKNOWN :SERVICE COMPANY
DATE        .                                             UNKNOWN :LOG DATE
UWI         .                                         SIHIL-12-ST :UNIQUE WELL ID
XCOORD      .                                            0.000000 :SURFACE X
YCOORD      .                                            0.000000 :SURFACE Y
LAT         .                                            0.000000 :LATITUDE
LON         .                                          -97.488695 :LONGITUDE
ELEV        .M                                             0.0000 :SURFACE ELEV
ELEV_TYPE   .                                                  KB :ELEV TYPE
~CURVE INFORMATION
#MNEMONIC.UNIT        API CODE       : CURVE DESCRIPTION
#------------------------------------------------------------------------------
DEPTH    .M                          : Measured Depth
TVD      .M                          : True Vertical Depth (TVD)
CALI     .inches      UNKNOWN        : CALI:litodensidad:rC:NONE:v0 (auto-composite)
DRHO     .g/cm3       UNKNOWN        : DRHO:litodensidad:rC:NONE:v0 (auto-composite)
DT       .us/ft       UNKNOWN        : DT:sonico:rC:NONE:v0 (auto-composite)
GR       .API         UNKNOWN        : GR:resistivos:rC:NONE:v0 (auto-composite)
GR-LWD   .API         UNKNOWN        : GR-LWD:resistivos-LWD:rC:NONE:v0 (auto-composite)
LLD      .ohm.m       UNKNOWN        : LLD:resistivos:rC:NONE:v0 (auto-composite)
LLD-LWD  .ohm.m       UNKNOWN        : LLD-LWD:resistivos-LWD:rC:NONE:v0 (auto-composite)
LLS      .ohm.m       UNKNOWN        : LLS:resistivos:rC:NONE:v0 (auto-composite)
LLS-LWD  .ohm.m       UNKNOWN        : LLS-LWD:resistivos-LWD:rC:NONE:v0 (auto-composite)
MSFL-LWD .ohm.m       UNKNOWN        : MSFL-LWD:resistivos-LWD:rC:NONE:v0 (auto-composite)
NPHI     .v/v_decimal UNKNOWN        : NPHI:porosidad:rC:NONE:v0 (auto-composite)
PEF      .b/elec      UNKNOWN        : PEF:litodensidad:rC:NONE:v0 (auto-composite)
RHOB     .g/cm3       UNKNOWN        : RHOB:litodensidad:rC:NONE:v0 (auto-composite)
SP       .mv          UNKNOWN        : SP:resistivos:rC:NONE:v0 (auto-composite)
~A     DEPTH         TVD         CALI         DRHO           DT           GR       GR-LWD          LLD      LLD-LWD          LLS      LLS-LWD     MSFL-LWD         NPHI          PEF         RHOB           SP
# ...
   4120.7437   4120.7437       8.3194       0.0481      49.3509      72.2831    -999.2500     151.7685    -999.2500     147.0783    -999.2500    -999.2500       0.2134       6.5506       1.6958     141.7252
   4120.8960   4120.8960       8.4493       0.0334      48.6184      68.3747    -999.2500      56.7531    -999.2500      54.2711    -999.2500    -999.2500       0.2186       6.2083       1.8209     142.1958
   4121.0488   4121.0488       8.7001       0.0329      47.5778      68.4599    -999.2500      40.1652    -999.2500      33.8579    -999.2500    -999.2500       0.1262       5.2478       2.1487     144.3880
   4121.2012   4121.2012       7.1093       0.0604      45.9565      71.0034    -999.2500      51.4156    -999.2500      42.2464    -999.2500    -999.2500       0.0694       4.5409       2.4786     146.2595
   4121.3535   4121.3535       5.9003       0.0861      44.5196      76.3048    -999.2500     126.9396    -999.2500     107.5425    -999.2500    -999.2500       0.0571       4.4169       2.6767     146.7058
   4121.5059   4121.5059       4.6068       0.0723      44.3240      79.3325    -999.2500      99.2832    -999.2500      87.2424    -999.2500    -999.2500       0.0511       4.3112       2.8067     146.9692
   4121.6582   4121.6582       4.5948       0.0622      44.8225      82.5778    -999.2500      83.7311    -999.2500      72.8438    -999.2500    -999.2500       0.0468       4.2489       2.8003     148.6333
   4121.8105   4121.8105       4.6164       0.1000      45.2798      86.2637    -999.2500     139.7753    -999.2500     121.5171    -999.2500    -999.2500       0.0401       4.3919       2.7909     150.7638
   4121.9629   4121.9629       4.6171       0.1378      45.5174      88.6491    -999.2500     201.5682    -999.2500     176.9899    -999.2500    -999.2500       0.0383       4.5504       2.7814     151.5408
   4122.1152   4122.1152       4.6791       0.1905      45.4915      87.0216    -999.2500     147.2175    -999.2500     129.0518    -999.2500    -999.2500       0.0369       4.5957       2.7694     151.6753
   4122.2676   4122.2676       4.7365       0.2135      44.9453      85.8117    -999.2500     235.7803    -999.2500     201.4190    -999.2500    -999.2500       0.0365       4.5036       2.7803     151.9421
   4122.4204   4122.4204       4.5906       0.2252      44.5906      85.7623    -999.2500     375.9929    -999.2500     314.3019    -999.2500    -999.2500       0.0363       4.3677       2.8053     151.7647
   4122.5728   4122.5728       4.5592       0.2115      44.8088      89.1369    -999.2500     338.2263    -999.2500     273.5468    -999.2500    -999.2500       0.0375       4.2663       2.8221     151.4626
   4122.7251   4122.7251       4.6008       0.1545      45.2443      94.5763    -999.2500     272.5384    -999.2500     219.1134    -999.2500    -999.2500       0.0391       4.0785       2.8356     152.2863
   4122.8774   4122.8774       4.5564       0.1186      45.6387      98.7547    -999.2500     491.9672    -999.2500     387.1980    -999.2500    -999.2500       0.0391       3.9911       2.7916     154.4857
   4123.0298   4123.0298       4.5499       0.1058      45.9749      98.1218    -999.2500     473.0421    -999.2500     377.8762    -999.2500    -999.2500       0.0379       3.8560       2.6790     154.5518
   4123.1821   4123.1821       4.5869       0.1328      46.4562      91.2899    -999.2500     241.8517    -999.2500     197.9354    -999.2500    -999.2500       0.0371       3.7537       2.5849     151.1629
   4123.3345   4123.3345       4.5782       0.1671      47.0135      83.8711    -999.2500     186.6292    -999.2500     161.0357    -999.2500    -999.2500       0.0393       3.8601       2.6681     149.1583
   4123.4868   4123.4868       4.6030       0.1566      47.4465      75.9277    -999.2500     159.9762    -999.2500     142.0850    -999.2500    -999.2500       0.0432       3.8889       2.7772     148.2353
   4123.6392   4123.6392       4.6165       0.1051      47.7315      69.6660    -999.2500     185.7864    -999.2500     168.4110    -999.2500    -999.2500       0.0467       3.7354       2.7577     148.7917
   4123.7920   4123.7920       4.6138       0.0901      48.2419      68.5954    -999.2500     283.2359    -999.2500     253.3283    -999.2500    -999.2500       0.0511       3.7299       2.7119     148.9090
   4123.9443   4123.9443       4.5726       0.1259      49.9854      75.1680    -999.2500     682.0091    -999.2500     607.1463    -999.2500    -999.2500       0.0627       3.8860       2.6813     147.0003
   4124.0967   4124.0967       4.7156       0.1427      52.0370      78.4817    -999.2500     253.4367    -999.2500     230.1543    -999.2500    -999.2500       0.0861       4.0046       2.5700     145.3684
   4124.2490   4124.2490       5.7459       0.1063      52.6950      81.3666    -999.2500      79.2280    -999.2500      69.6690    -999.2500    -999.2500       0.1278       4.3967       2.2659     143.9748
   4124.4014   4124.4014       6.3678       0.0771      53.0058      84.8285    -999.2500      73.1146    -999.2500      62.8760    -999.2500    -999.2500       0.1740       4.8267       2.1210     143.9808
   4124.5537   4124.5537       6.1550       0.0796      51.8391      89.3206    -999.2500      30.5923    -999.2500      26.8305    -999.2500    -999.2500       0.1821       4.7053       2.3679     144.3742
   4124.7061   4124.7061       4.5803       0.0660      47.9258     100.0018    -999.2500      48.3751    -999.2500      42.0385    -999.2500    -999.2500       0.0932       4.1633       2.7388     144.3630
   4124.8584   4124.8584       4.5845       0.0609      46.0277     104.7269    -999.2500     184.8330    -999.2500     153.5727    -999.2500    -999.2500       0.0634       4.0978       2.7802     143.3047
   4125.0112   4125.0112       4.6255       0.0794      45.4906     102.7946    -999.2500     199.9205    -999.2500     164.7820    -999.2500    -999.2500       0.0442       4.1211       2.7796     142.3743
   4125.1636   4125.1636       4.5853       0.0793      45.1347      92.7306    -999.2500     169.0774    -999.2500     131.8935    -999.2500    -999.2500       0.0462       4.0239       2.7499     141.0512
   4125.3159   4125.3159       4.5585       0.0698      45.0771      83.9846    -999.2500     247.9261    -999.2500     191.4959    -999.2500    -999.2500       0.0494       3.8590       2.7245     140.0307
   4125.4683   4125.4683       4.5692       0.0720      45.2776      75.1484    -999.2500     216.6696    -999.2500     168.6218    -999.2500    -999.2500       0.0498       3.8323       2.7415     138.6373
   4125.6206   4125.6206       4.5700       0.0797      45.0788      73.5284    -999.2500     137.9451    -999.2500     115.5336    -999.2500    -999.2500       0.0520       3.7691       2.7042     138.9816
   4125.7729   4125.7729       4.6062       0.0950      44.7767      72.2914    -999.2500      97.6103    -999.2500      86.3716    -999.2500    -999.2500       0.0547       3.7100       2.6261     141.1171
   4125.9253   4125.9253       4.6968       0.1608      44.8991      70.6040    -999.2500     107.1520    -999.2500      93.4821    -999.2500    -999.2500       0.0567       3.7598       2.5846     143.5284
   4126.0776   4126.0776       4.7045       0.2019      45.7312      69.1615    -999.2500     111.7639    -999.2500      94.4032    -999.2500    -999.2500       0.0565       3.8296       2.6295     146.8196
   4126.2300   4126.2300       4.6442       0.2180      46.7601      69.8952    -999.2500     108.8363    -999.2500      93.6953    -999.2500    -999.2500       0.0544       3.8777       2.6843     156.3191
   4126.3828   4126.3828       4.5836       0.2069      47.3393      75.3374    -999.2500     162.7363    -999.2500     144.6797    -999.2500    -999.2500       0.0574       3.9543       2.7249     162.6992
   4126.5352   4126.5352       4.6027       0.2054      47.6004     101.0731    -999.2500     149.4612    -999.2500     142.3534    -999.2500    -999.2500       0.0632       3.9658       2.6821     170.9250
