#------------------------------------------------------------------------------
#
#   Created by  : [OpenWorks] Log Export Utility (LEXP)
#   Created on  : 2015-10-01 09:42:34
#   Project     : CANT971
#   User        : R5K
#   Interpreter : PEP
#
#------------------------------------------------------------------------------
~VERSION INFORMATION
VERS. 2.0 : CWLS Log ASCII Standard - version 2.0
WRAP.  NO : One line per depth step
~WELL INFORMATION
#MNEMONIC   .UNIT                                           VALUE :DESCRIPTION
#------------------------------------------------------------------------------
STRT        .M                                          3550.1582 :START DEPTH
STOP        .M                                          4164.9399 :STOP DEPTH
STEP        .M                                             0.1524 :STEP
NULL        .                                           -999.2500 :NULL VALUE
COMP        .                                             UNKNOWN :COMPANY
WELL        .                                         SIHIL-12-ST :WELL
FLD         .                                             UNKNOWN :FIELD
LOC         .                                             UNKNOWN :LOCATION
CNTY        .                                             UNKNOWN :COUNTY
STAT        .                                             UNKNOWN :STATE
CTRY        .                                             UNKNOWN :COUNTRY
SRVC        .                                             UNKNOWN :SERVICE COMPANY
DATE        .                                             UNKNOWN :LOG DATE
UWI         .                                         SIHIL-12-ST :UNIQUE WELL ID
XCOORD      .                                            0.000000 :SURFACE X
YCOORD      .                                            0.000000 :SURFACE Y
LAT         .                                            0.000000 :LATITUDE
LON         .                                          -97.488695 :LONGITUDE
ELEV        .M                                             0.0000 :SURFACE ELEV
ELEV_TYPE   .                                                  KB :ELEV TYPE
~CURVE INFORMATION
#MNEMONIC.UNIT        API CODE       : CURVE DESCRIPTION
#------------------------------------------------------------------------------
DEPTH    .M                          : Measured Depth
TVD      .M                          : True Vertical Depth (TVD)
CALI     .inches      UNKNOWN        : CALI:litodensidad:rC:NONE:v0 (auto-composite)
DRHO     .g/cm3       UNKNOWN        : DRHO:litodensidad:rC:NONE:v0 (auto-composite)
DT       .us/ft       UNKNOWN        : DT:sonico:rC:NONE:v0 (auto-composite)
GR       .API         UNKNOWN        : GR:resistivos:rC:NONE:v0 (auto-composite)
GR-LWD   .API         UNKNOWN        : GR-LWD:resistivos-LWD:rC:NONE:v0 (auto-composite)
LLD      .ohm.m       UNKNOWN        : LLD:resistivos:rC:NONE:v0 (auto-composite)
LLD-LWD  .ohm.m       UNKNOWN        : LLD-LWD:resistivos-LWD:rC:NONE:v0 (auto-composite)
LLS      .ohm.m       UNKNOWN        : LLS:resistivos:rC:NONE:v0 (auto-composite)
LLS-LWD  .ohm.m       UNKNOWN        : LLS-LWD:resistivos-LWD:rC:NONE:v0 (auto-composite)
MSFL-LWD .ohm.m       UNKNOWN        : MSFL-LWD:resistivos-LWD:rC:NONE:v0 (auto-composite)
NPHI     .v/v_decimal UNKNOWN        : NPHI:porosidad:rC:NONE:v0 (auto-composite)
PEF      .b/elec      UNKNOWN        : PEF:litodensidad:rC:NONE:v0 (auto-composite)
RHOB     .g/cm3       UNKNOWN        : RHOB:litodensidad:rC:NONE:v0 (auto-composite)
SP       .mv          UNKNOWN        : SP:resistivos:rC:NONE:v0 (auto-composite)
~A     DEPTH         TVD         CALI         DRHO           DT           GR       GR-LWD          LLD      LLD-LWD          LLS      LLS-LWD     MSFL-LWD         NPHI          PEF         RHOB           SP
# ...
   4055.3643   4055.3643       4.6635       0.1258      54.9621      67.2199    -999.2500     179.8421    -999.2500     188.0587    -999.2500    -999.2500       0.0766       3.6483       2.6915     141.8122
   4055.5166   4055.5166       4.6015       0.1132      55.4393      70.3177    -999.2500     100.3942    -999.2500     105.1178    -999.2500    -999.2500       0.0806       3.6297       2.6781     141.0847
   4055.6689   4055.6689       4.5938       0.1065      55.9503      72.3483    -999.2500      87.1633    -999.2500      90.1440    -999.2500    -999.2500       0.0824       3.6266       2.6765     139.0074
   4055.8213   4055.8213       4.5615       0.0778      55.4843      72.6310    -999.2500      90.1986    -999.2500      92.9258    -999.2500    -999.2500       0.0775       3.6353       2.6786     137.1151
   4055.9739   4055.9739       4.5846       0.0539      53.5043      71.1139    -999.2500     110.8564    -999.2500     114.0653    -999.2500    -999.2500       0.0727       3.7111       2.6814     136.3500
   4056.1262   4056.1262       4.5526       0.0406      51.2382      68.8318    -999.2500     162.8401    -999.2500     170.5630    -999.2500    -999.2500       0.0696       3.7978       2.6857     136.3324
   4056.2786   4056.2786       4.5856       0.0455      48.7625      67.4885    -999.2500      99.5634    -999.2500     104.1574    -999.2500    -999.2500       0.0711       3.6605       2.6535     137.0146
   4056.4309   4056.4309       4.5873       0.0499      46.6676      67.6665    -999.2500      87.8223    -999.2500      91.9814    -999.2500    -999.2500       0.0722       3.4388       2.5945     138.3839
   4056.5835   4056.5835       4.6349       0.0535      45.9818      67.7659    -999.2500      60.9865    -999.2500      64.3427    -999.2500    -999.2500       0.0723       3.3767       2.5802     140.3144
   4056.7358   4056.7358       4.6251       0.0596      46.3120      68.9047    -999.2500     141.2133    -999.2500     146.6181    -999.2500    -999.2500       0.0712       3.6136       2.6598     140.5965
   4056.8882   4056.8882       4.6108       0.0751      46.7673      72.0159    -999.2500     626.2207    -999.2500     680.9356    -999.2500    -999.2500       0.0683       3.8265       2.7340     139.4103
   4057.0405   4057.0405       4.5927       0.1026      47.6180      74.6119    -999.2500     195.9383    -999.2500     211.7852    -999.2500    -999.2500       0.0655       3.7646       2.7191     138.0379
   4057.1931   4057.1931       4.5944       0.1278      49.5578      77.1121    -999.2500     104.2173    -999.2500     110.6342    -999.2500    -999.2500       0.0633       3.6797       2.6912     136.6296
   4057.3455   4057.3455       4.6174       0.1442      52.6594      79.5323    -999.2500      80.9155    -999.2500      85.4427    -999.2500    -999.2500       0.0675       3.7146       2.6943     134.2320
   4057.4978   4057.4978       4.5782       0.1617      56.0044      80.1032    -999.2500     105.7728    -999.2500     112.0560    -999.2500    -999.2500       0.0710       3.6788       2.6852     134.0072
   4057.6501   4057.6501       4.5553       0.1644      57.9225      77.0716    -999.2500      82.2099    -999.2500      87.9648    -999.2500    -999.2500       0.0715       3.4592       2.6260     135.8018
   4057.8025   4057.8025       4.5363       0.1664      58.2277      73.9862    -999.2500      69.2541    -999.2500      74.0272    -999.2500    -999.2500       0.0714       3.3537       2.5768     138.0778
   4057.9551   4057.9551       4.5551       0.1630      57.0393      70.3089    -999.2500      88.4833    -999.2500      93.4390    -999.2500    -999.2500       0.0724       3.4654       2.5726     140.2662
   4058.1074   4058.1074       4.5719       0.1095      55.6144      68.9644    -999.2500     112.3119    -999.2500     118.5213    -999.2500    -999.2500       0.0721       3.6283       2.5885     141.1188
   4058.2598   4058.2598       4.5785       0.0756      54.4935      70.9141    -999.2500     123.2951    -999.2500     131.0845    -999.2500    -999.2500       0.0723       3.6494       2.6175     139.6368
   4058.4121   4058.4121       4.5645       0.0695      53.8402      77.6223    -999.2500     110.3549    -999.2500     117.9032    -999.2500    -999.2500       0.0726       3.6064       2.6643     137.8805
   4058.5647   4058.5647       4.5644       0.0844      54.0296      80.5099    -999.2500     106.9681    -999.2500     113.2642    -999.2500    -999.2500       0.0719       3.6397       2.6846     137.5466
   4058.7170   4058.7170       4.6410       0.0994      54.0449      80.1868    -999.2500     143.1620    -999.2500     151.6752    -999.2500    -999.2500       0.0704       3.8651       2.7321     138.0080
   4058.8694   4058.8694       4.6196       0.0860      52.0976      76.4570    -999.2500      99.8002    -999.2500     105.3578    -999.2500    -999.2500       0.0712       3.9628       2.7394     138.5380
   4059.0217   4059.0217       4.5424       0.0453      49.6614      72.8525    -999.2500     144.2649    -999.2500     150.3491    -999.2500    -999.2500       0.0765       3.8583       2.6952     138.4199
   4059.1743   4059.1743       4.6633       0.0329      48.7340      70.8142    -999.2500     163.7127    -999.2500     170.3860    -999.2500    -999.2500       0.0771       3.7126       2.6777     138.5560
   4059.3267   4059.3267       4.6539       0.0353      48.6952      70.4813    -999.2500     181.0082    -999.2500     187.6807    -999.2500    -999.2500       0.0716       3.6342       2.7007     140.1306
   4059.4790   4059.4790       4.6389       0.0376      49.9414      70.9769    -999.2500     174.4414    -999.2500     181.6361    -999.2500    -999.2500       0.0661       3.6125       2.6968     141.8581
   4059.6313   4059.6313       4.5912       0.0557      53.4128      72.7693    -999.2500     128.6980    -999.2500     133.7581    -999.2500    -999.2500       0.0631       3.4215       2.6264     142.6290
   4059.7837   4059.7837       4.7423       0.1006      56.2215      73.0851    -999.2500     116.2150    -999.2500     121.9929    -999.2500    -999.2500       0.0637       3.1772       2.5441     140.9613
   4059.9363   4059.9363       4.7137       0.1036      57.5351      74.6446    -999.2500     100.7962    -999.2500     105.3724    -999.2500    -999.2500       0.0680       3.2514       2.5832     137.4106
   4060.0886   4060.0886       4.6931       0.0561      58.6228      75.6682    -999.2500     134.3254    -999.2500     141.0720    -999.2500    -999.2500       0.0715       3.4450       2.6625     136.0560
   4060.2410   4060.2410       4.5978       0.0239      58.4705      74.3085    -999.2500     147.1054    -999.2500     155.0865    -999.2500    -999.2500       0.0682       3.5809       2.7031     135.7968
   4060.3933   4060.3933       4.6435       0.0313      56.7515      72.0506    -999.2500     168.9281    -999.2500     179.6165    -999.2500    -999.2500       0.0626       3.6606       2.7244     137.1447
   4060.5459   4060.5459       4.6489       0.0817      54.8487      70.3850    -999.2500     163.5896    -999.2500     174.7702    -999.2500    -999.2500       0.0599       3.6279       2.7145     138.7898
   4060.6982   4060.6982       4.6418       0.1354      53.7831      68.9570    -999.2500     114.1726    -999.2500     122.8392    -999.2500    -999.2500       0.0610       3.5947       2.7098     140.5050
   4060.8506   4060.8506       4.5886       0.1414      53.6704      69.5350    -999.2500      95.6759    -999.2500     101.8321    -999.2500    -999.2500       0.0634       3.5704       2.7073     140.7248
   4061.0029   4061.0029       4.6141       0.1268      53.7137      70.8742    -999.2500     100.9871    -999.2500     106.4444    -999.2500    -999.2500       0.0668       3.5672       2.7052     140.5132
   4061.1555   4061.1555       4.6073       0.1120      53.4611      72.2389    -999.2500     179.4105    -999.2500     187.2312    -999.2500    -999.2500       0.0688       3.6163       2.7215     139.3266
