#------------------------------------------------------------------------------
#
#   Created by  : [OpenWorks] Log Export Utility (LEXP)
#   Created on  : 2015-10-01 09:41:14
#   Project     : CANT971
#   User        : R5K
#   Interpreter : PEP
#
#------------------------------------------------------------------------------
~VERSION INFORMATION
VERS. 2.0 : CWLS Log ASCII Standard - version 2.0
WRAP.  NO : One line per depth step
~WELL INFORMATION
#MNEMONIC   .UNIT                                           VALUE :DESCRIPTION
#------------------------------------------------------------------------------
STRT        .M                                          1374.3848 :START DEPTH
STOP        .M                                          3939.4292 :STOP DEPTH
STEP        .M                                             0.1524 :STEP
NULL        .                                           -999.2500 :NULL VALUE
COMP        .                                             UNKNOWN :COMPANY
WELL        .                                         SIHIL-11-ST :WELL
FLD         .                                             UNKNOWN :FIELD
LOC         .                                             UNKNOWN :LOCATION
CNTY        .                                             UNKNOWN :COUNTY
STAT        .                                             UNKNOWN :STATE
CTRY        .                                             UNKNOWN :COUNTRY
SRVC        .                                             UNKNOWN :SERVICE COMPANY
DATE        .                                             UNKNOWN :LOG DATE
UWI         .                                         SIHIL-11-ST :UNIQUE WELL ID
XCOORD      .                                       599653.950000 :SURFACE X
YCOORD      .                                      2147230.550000 :SURFACE Y
LAT         .                                           19.418046 :LATITUDE
LON         .                                          -92.050821 :LONGITUDE
ELEV        .M                                             0.0000 :SURFACE ELEV
ELEV_TYPE   .                                                  KB :ELEV TYPE
~CURVE INFORMATION
#MNEMONIC.UNIT        API CODE       : CURVE DESCRIPTION
#------------------------------------------------------------------------------
DEPTH    .M                          : Measured Depth
TVD      .M                          : True Vertical Depth (TVD)
CALI     .inches      UNKNOWN        : CALI:litodensidad:rC:NONE:v0 (auto-composite)
DRHO     .g/cm3       UNKNOWN        : DRHO:UNKNOWN:rC:NONE:v0 (auto-composite)
DT       .us/ft       UNKNOWN        : DT:UNKNOWN:rC:NONE:v0 (auto-composite)
GR       .API         UNKNOWN        : GR:UNKNOWN:rC:NONE:v0 (auto-composite)
GR-ENT   .API         UNKNOWN        : GR-ENT:registros:rC:NONE:v0 (auto-composite)
GR-LWD   .API         UNKNOWN        : GR-LWD:PETROWORKS:rC:NONE:v1 
LLD-LWD  .ohm.m       UNKNOWN        : LLD-LWD:PETROWORKS:rC:NONE:v1 
LLS-LWD  .ohm.m       UNKNOWN        : LLS-LWD:PETROWORKS:rC:NONE:v1 
MSFL-LWD .ohm.m       UNKNOWN        : MSFL-LWD:PETROWORKS:rC:NONE:v1 
NPHI     .v/v_decimal UNKNOWN        : NPHI:UNKNOWN:rC:NONE:v0 (auto-composite)
NPHI-ENT .v/v_decimal UNKNOWN        : NPHI-ENT:registros:rC:NONE:v0 (auto-composite)
PEF      .b/elec      UNKNOWN        : PEF:UNKNOWN:rC:NONE:v0 (auto-composite)
RHOB     .g/cm3       UNKNOWN        : RHOB:UNKNOWN:rC:NONE:v0 (auto-composite)
SIGM     .cu          UNKNOWN        : SIGM:registros:rC:NONE:v0 (auto-composite)
~A     DEPTH         TVD         CALI         DRHO           DT           GR       GR-ENT       GR-LWD      LLD-LWD      LLS-LWD     MSFL-LWD         NPHI     NPHI-ENT          PEF         RHOB         SIGM
# ...
   3876.6404   3876.6404       6.5871       0.0647      50.3718      71.0029    -999.2500      60.1059      85.3192      77.8564      90.9118       0.0617    -999.2500       4.0726       2.7709    -999.2500
   3876.7927   3876.7927       6.5881       0.0643      50.8410      69.0679    -999.2500      53.9609      82.8937      75.9866      88.9489       0.0643    -999.2500       4.1417       2.7410    -999.2500
   3876.9451   3876.9451       6.5782       0.0540      51.2041      63.3957    -999.2500      52.9621      79.4439      74.1951      91.5314       0.0684    -999.2500       4.2195       2.7082    -999.2500
   3877.0977   3877.0977       6.5716       0.0418      51.4797      57.4470    -999.2500      56.2090      79.7493      75.2704      98.0245       0.0684    -999.2500       4.4165       2.6524    -999.2500
   3877.2500   3877.2500       6.5862       0.0283      52.0469      56.7063    -999.2500      60.3371      82.6246      77.9590     102.9587       0.0659    -999.2500       4.6091       2.5975    -999.2500
   3877.4023   3877.4023       6.5981       0.0123      53.0150      60.8453    -999.2500      60.8995      82.9397      78.0915      99.2602       0.0637    -999.2500       4.5586       2.5936    -999.2500
   3877.5547   3877.5547       6.5960       0.0034      53.8623      63.6396    -999.2500      58.9733      79.0756      74.5260      88.6773       0.0638    -999.2500       4.2603       2.6599    -999.2500
   3877.7073   3877.7073       6.6230       0.0128      53.5608      61.3399    -999.2500      58.3394      75.3273      71.1888      81.2662       0.0642    -999.2500       4.1004       2.7169    -999.2500
   3877.8596   3877.8596       6.7131       0.0278      51.9995      58.4991    -999.2500      58.1796      74.3967      69.8097      79.0396       0.0655    -999.2500       4.1141       2.7310    -999.2500
   3878.0120   3878.0120       6.7408       0.0419      50.9940      59.7605    -999.2500      58.3400      75.7085      69.5780      79.2372       0.0698    -999.2500       4.1591       2.7294    -999.2500
   3878.1643   3878.1643       6.6894       0.0581      51.6430      61.1267    -999.2500      59.8676      75.9457      68.6383      78.7261       0.0741    -999.2500       4.1311       2.7513    -999.2500
   3878.3167   3878.3167       6.6219       0.0601      52.9585      63.3560    -999.2500      62.2420      72.6646      65.4780      74.9726       0.0706    -999.2500       4.1031       2.7606    -999.2500
   3878.4692   3878.4692       6.6200       0.0547      53.8821      69.7461    -999.2500      63.7318      67.9026      61.8267      69.8002       0.0678    -999.2500       4.0723       2.7510    -999.2500
   3878.6216   3878.6216       6.5957       0.0495      54.2629      73.0378    -999.2500      63.5152      63.2698      58.6565      65.6320       0.0670    -999.2500       4.0288       2.7448    -999.2500
   3878.7739   3878.7739       6.5800       0.0449      54.3970      74.5773    -999.2500      62.3050      59.7836      54.4402      61.5164       0.0678    -999.2500       4.0072       2.7575    -999.2500
   3878.9263   3878.9263       6.5779       0.0405      54.4777      73.3344    -999.2500      62.5833      62.3184      49.0560      55.3740       0.0705    -999.2500       4.0213       2.7756    -999.2500
   3879.0789   3879.0789       6.5696       0.0353      54.6775      69.2678    -999.2500      66.1453      77.4846      44.5499      47.7643       0.0779    -999.2500       4.0199       2.7880    -999.2500
   3879.2312   3879.2312       6.5657       0.0329      55.2981      65.6460    -999.2500      68.6725      92.1055      39.7217      41.4458       0.0888    -999.2500       3.9759       2.7970    -999.2500
   3879.3835   3879.3835       6.5628       0.0302      56.1313      67.1538    -999.2500      67.6088      94.5733      32.9456      34.1175       0.0949    -999.2500       3.9060       2.7948    -999.2500
   3879.5359   3879.5359       6.5680       0.0255      56.4220      69.0309    -999.2500      67.8188     114.5261      25.9698      24.6264       0.0958    -999.2500       3.8805       2.7819    -999.2500
   3879.6885   3879.6885       6.5743       0.0225      55.9407      70.8640    -999.2500      73.6744     218.4721      20.7833      14.9815       0.0927    -999.2500       3.9391       2.7643    -999.2500
   3879.8408   3879.8408       6.5757       0.0182      55.1846      78.1202    -999.2500      81.6307     349.7073      16.8998       9.8687       0.0933    -999.2500       3.9935       2.7298    -999.2500
   3879.9932   3879.9932       6.5792       0.0136      54.4335      89.6142    -999.2500      81.4695     274.1484      15.8341      12.5990       0.0980    -999.2500       3.9514       2.6892    -999.2500
   3880.1455   3880.1455       6.5708       0.0134      53.2509      94.0706    -999.2500      75.5862     157.1573      20.5503      20.7260       0.1035    -999.2500       3.8879       2.6954    -999.2500
   3880.2979   3880.2979       6.5580       0.0185      51.9013      84.8953    -999.2500      67.0465      73.2839      30.7810      34.3847       0.0929    -999.2500       3.9012       2.7462    -999.2500
   3880.4504   3880.4504       6.5503       0.0240      51.3119      71.0157    -999.2500      57.9223      54.8647      47.2522      54.3907       0.0746    -999.2500       3.9324       2.7788    -999.2500
   3880.6028   3880.6028       6.5535       0.0260      51.5735      62.0616    -999.2500      54.8443      66.4587      59.1191      66.4142       0.0670    -999.2500       3.9252       2.7868    -999.2500
   3880.7551   3880.7551       6.5564       0.0257      52.2162      60.1416    -999.2500      55.1237      71.4764      61.2018      66.8693       0.0663    -999.2500       3.9238       2.7827    -999.2500
   3880.9075   3880.9075       6.5600       0.0234      52.2249      62.7584    -999.2500      57.2691      71.8754      60.1359      65.5678       0.0672    -999.2500       3.9684       2.7670    -999.2500
   3881.0601   3881.0601       6.5630       0.0148      51.1245      67.8103    -999.2500      64.3659      72.2331      61.5390      67.3847       0.0683    -999.2500       3.9698       2.7547    -999.2500
   3881.2124   3881.2124       6.5566       0.0078      49.7456      75.4331    -999.2500      72.2727      73.9854      66.4157      73.0814       0.0664    -999.2500       3.8433       2.7660    -999.2500
   3881.3647   3881.3647       6.5493       0.0072      48.6750      81.6337    -999.2500      72.7566      75.4899      70.2647      78.4653       0.0609    -999.2500       3.6747       2.7823    -999.2500
   3881.5171   3881.5171       6.5460       0.0133      48.0790      79.5635    -999.2500      70.4545      76.6899      73.0409      83.6960       0.0579    -999.2500       3.6311       2.7889    -999.2500
   3881.6697   3881.6697       6.5462       0.0239      48.1747      76.4216    -999.2500      69.1069      78.4377      76.2880      90.0200       0.0580    -999.2500       3.6575       2.8016    -999.2500
   3881.8220   3881.8220       6.5507       0.0348      48.8080      75.1104    -999.2500      68.9967      80.2574      78.2677      95.1050       0.0585    -999.2500       3.7221       2.8154    -999.2500
   3881.9744   3881.9744       6.5512       0.0481      49.4147      73.4310    -999.2500      69.7893      81.5695      78.9301      99.3120       0.0586    -999.2500       3.7891       2.8313    -999.2500
   3882.1267   3882.1267       6.5614       0.0549      49.5829      77.5794    -999.2500      72.7325      82.6495      80.4258     104.1179       0.0583    -999.2500       3.8208       2.8416    -999.2500
   3882.2791   3882.2791       6.5855       0.0571      49.5582      84.6580    -999.2500      75.2883      83.5800      82.8226     106.3524       0.0571    -999.2500       3.9003       2.8328    -999.2500
   3882.4316   3882.4316       6.6002       0.0524      49.7671      85.7931    -999.2500      74.3625      83.8846      83.4776     104.6202       0.0560    -999.2500       4.0017       2.8071    -999.2500
