#------------------------------------------------------------------------------
#
#   Created by  : [OpenWorks] Log Export Utility (LEXP)
#   Created on  : 2015-10-01 09:42:34
#   Project     : CANT971
#   User        : R5K
#   Interpreter : PEP
#
#------------------------------------------------------------------------------
~VERSION INFORMATION
VERS. 2.0 : CWLS Log ASCII Standard - version 2.0
WRAP.  NO : One line per depth step
~WELL INFORMATION
#MNEMONIC   .UNIT                                           VALUE :DESCRIPTION
#------------------------------------------------------------------------------
STRT        .M                                          3550.1582 :START DEPTH
STOP        .M                                          4164.9399 :STOP DEPTH
STEP        .M                                             0.1524 :STEP
NULL        .                                           -999.2500 :NULL VALUE
COMP        .                                             UNKNOWN :COMPANY
WELL        .                                         SIHIL-12-ST :WELL
FLD         .                                             UNKNOWN :FIELD
LOC         .                                             UNKNOWN :LOCATION
CNTY        .                                             UNKNOWN :COUNTY
STAT        .                                             UNKNOWN :STATE
CTRY        .                                             UNKNOWN :COUNTRY
SRVC        .                                             UNKNOWN :SERVICE COMPANY
DATE        .                                             UNKNOWN :LOG DATE
UWI         .                                         SIHIL-12-ST :UNIQUE WELL ID
XCOORD      .                                            0.000000 :SURFACE X
YCOORD      .                                            0.000000 :SURFACE Y
LAT         .                                            0.000000 :LATITUDE
LON         .                                          -97.488695 :LONGITUDE
ELEV        .M                                             0.0000 :SURFACE ELEV
ELEV_TYPE   .                                                  KB :ELEV TYPE
~CURVE INFORMATION
#MNEMONIC.UNIT        API CODE       : CURVE DESCRIPTION
#------------------------------------------------------------------------------
DEPTH    .M                          : Measured Depth
TVD      .M                          : True Vertical Depth (TVD)
CALI     .inches      UNKNOWN        : CALI:litodensidad:rC:NONE:v0 (auto-composite)
DRHO     .g/cm3       UNKNOWN        : DRHO:litodensidad:rC:NONE:v0 (auto-composite)
DT       .us/ft       UNKNOWN        : DT:sonico:rC:NONE:v0 (auto-composite)
GR       .API         UNKNOWN        : GR:resistivos:rC:NONE:v0 (auto-composite)
GR-LWD   .API         UNKNOWN        : GR-LWD:resistivos-LWD:rC:NONE:v0 (auto-composite)
LLD      .ohm.m       UNKNOWN        : LLD:resistivos:rC:NONE:v0 (auto-composite)
LLD-LWD  .ohm.m       UNKNOWN        : LLD-LWD:resistivos-LWD:rC:NONE:v0 (auto-composite)
LLS      .ohm.m       UNKNOWN        : LLS:resistivos:rC:NONE:v0 (auto-composite)
LLS-LWD  .ohm.m       UNKNOWN        : LLS-LWD:resistivos-LWD:rC:NONE:v0 (auto-composite)
MSFL-LWD .ohm.m       UNKNOWN        : MSFL-LWD:resistivos-LWD:rC:NONE:v0 (auto-composite)
NPHI     .v/v_decimal UNKNOWN        : NPHI:porosidad:rC:NONE:v0 (auto-composite)
PEF      .b/elec      UNKNOWN        : PEF:litodensidad:rC:NONE:v0 (auto-composite)
RHOB     .g/cm3       UNKNOWN        : RHOB:litodensidad:rC:NONE:v0 (auto-composite)
SP       .mv          UNKNOWN        : SP:resistivos:rC:NONE:v0 (auto-composite)
~A     DEPTH         TVD         CALI         DRHO           DT           GR       GR-LWD          LLD      LLD-LWD          LLS      LLS-LWD     MSFL-LWD         NPHI          PEF         RHOB           SP
# ...
   4126.6875   4126.6875       4.6247       0.2321      47.8001     121.1309    -999.2500     113.4121    -999.2500     113.8602    -999.2500    -999.2500       0.0719       3.8879       2.6033     171.5219
   4126.8398   4126.8398       4.9421       0.2391      47.8253     140.2924    -999.2500      46.4764    -999.2500      47.9165    -999.2500    -999.2500       0.0758       3.9144       2.6784     168.3463
   4126.9922   4126.9922       4.9594       0.1870      47.5047     150.1485    -999.2500      10.7038    -999.2500      10.7946    -999.2500    -999.2500       0.0770       4.0135       2.8057     162.7424
   4127.1445   4127.1445       4.6421       0.1210      46.8955     141.7675    -999.2500      19.8335    -999.2500      19.7378    -999.2500    -999.2500       0.0641       3.9965       2.8090     159.1794
   4127.2969   4127.2969       4.5649       0.0968      46.2536     115.1109    -999.2500     334.4256    -999.2500     336.2285    -999.2500    -999.2500       0.0512       3.9177       2.7795     154.6929
   4127.4492   4127.4492       4.5763       0.1076      45.7678      99.1349    -999.2500     235.1415    -999.2500     243.5642    -999.2500    -999.2500       0.0476       3.9019       2.7879     153.0182
   4127.6016   4127.6016       4.5850       0.1027      45.4654      77.6756    -999.2500     219.0317    -999.2500     224.3207    -999.2500    -999.2500       0.0481       3.9180       2.7966     148.6255
   4127.7544   4127.7544       4.5755       0.0884      45.4393      74.0808    -999.2500     225.7073    -999.2500     231.8188    -999.2500    -999.2500       0.0472       3.9515       2.7885     146.6547
   4127.9067   4127.9067       4.5687       0.0772      45.4628      74.5288    -999.2500     195.7443    -999.2500     203.4504    -999.2500    -999.2500       0.0449       4.0379       2.7772     144.7836
   4128.0591   4128.0591       4.5686       0.0744      45.7884      76.6148    -999.2500     126.4993    -999.2500     128.7636    -999.2500    -999.2500       0.0446       3.9992       2.7610     144.3362
   4128.2114   4128.2114       4.5276       0.0627      47.0110      78.1018    -999.2500     275.9928    -999.2500     274.3616    -999.2500    -999.2500       0.0481       3.6983       2.6896     143.8765
   4128.3638   4128.3638       4.5509       0.0607      49.3837      69.9085    -999.2500     248.7864    -999.2500     233.9242    -999.2500    -999.2500       0.0529       3.4978       2.6555     143.5856
   4128.5161   4128.5161       4.5830       0.0728      51.2036      59.4358    -999.2500     289.7403    -999.2500     255.3649    -999.2500    -999.2500       0.0627       3.3358       2.6562     142.6292
   4128.6685   4128.6685       4.5845       0.0836      51.4746      46.6579    -999.2500     439.0267    -999.2500     379.7335    -999.2500    -999.2500       0.0691       3.3664       2.6639     140.1582
   4128.8208   4128.8208       4.6315       0.1007      50.5253      43.5377    -999.2500     938.0456    -999.2500     817.2822    -999.2500    -999.2500       0.0714       3.5937       2.5883     138.7210
   4128.9736   4128.9736       5.0411       0.1110      48.8735      47.6603    -999.2500     668.9888    -999.2500     600.8362    -999.2500    -999.2500       0.0669       3.7554       2.5201     139.1920
   4129.1260   4129.1260       5.0402       0.1484      47.4024      54.7334    -999.2500     425.0660    -999.2500     382.1227    -999.2500    -999.2500       0.0554       3.9357       2.6173     140.5821
   4129.2783   4129.2783       4.9935       0.1649      46.5624      65.5733    -999.2500     263.4693    -999.2500     239.8341    -999.2500    -999.2500       0.0514       4.0104       2.7623     140.9401
   4129.4307   4129.4307       4.6038       0.1523      46.5602      74.5407    -999.2500     277.1800    -999.2500     249.4367    -999.2500    -999.2500       0.0484       4.0481       2.8414     140.8588
   4129.5830   4129.5830       4.5891       0.1364      46.9430      80.2523    -999.2500    1037.2552    -999.2500     936.6117    -999.2500    -999.2500       0.0461       3.9425       2.8154     141.2515
   4129.7354   4129.7354       4.5757       0.1644      47.1123      86.2022    -999.2500     188.9658    -999.2500     183.4757    -999.2500    -999.2500       0.0449       3.8072       2.7887     141.3310
   4129.8877   4129.8877       4.5113       0.1803      47.1720      88.9398    -999.2500      60.8435    -999.2500      60.1487    -999.2500    -999.2500       0.0469       3.7645       2.7895     141.0523
   4130.0400   4130.0400       4.5603       0.1232      47.4235      91.5807    -999.2500      93.9403    -999.2500      95.0140    -999.2500    -999.2500       0.0498       3.7475       2.7257     141.1381
   4130.1924   4130.1924       4.5636       0.0703      47.6793      94.7306    -999.2500     219.0743    -999.2500     220.8812    -999.2500    -999.2500       0.0525       3.7016       2.6243     141.5457
   4130.3452   4130.3452       4.5724       0.1027      47.7075      97.8234    -999.2500     481.7890    -999.2500     497.4345    -999.2500    -999.2500       0.0556       3.7445       2.6238     140.5968
   4130.4976   4130.4976       4.7951       0.1340      47.7106      98.9696    -999.2500     158.1700    -999.2500     168.6213    -999.2500    -999.2500       0.0605       3.8202       2.6454     139.6227
   4130.6499   4130.6499       6.0132       0.1069      48.4286      97.5403    -999.2500      81.1048    -999.2500      85.4809    -999.2500    -999.2500       0.0657       3.7224       2.6260     139.8817
   4130.8022   4130.8022       6.4744       0.0857      50.5254      93.0241    -999.2500      97.3821    -999.2500     101.8897    -999.2500    -999.2500       0.0690       3.4602       2.6187     139.8604
   4130.9546   4130.9546       6.4695       0.1117      53.0595      88.2628    -999.2500      79.1221    -999.2500      84.6532    -999.2500    -999.2500       0.0715       3.2566       2.6494     139.4149
   4131.1069   4131.1069       5.3819       0.1878      54.0825      79.3643    -999.2500      34.8771    -999.2500      36.3288    -999.2500    -999.2500       0.0789       3.3354       2.7091     138.8206
   4131.2593   4131.2593       4.6470       0.2008      53.8847      74.8906    -999.2500      56.5689    -999.2500      58.1191    -999.2500    -999.2500       0.0758       3.5136       2.6464     139.3460
   4131.4116   4131.4116       4.5755       0.1614      53.6263      71.6129    -999.2500      71.3125    -999.2500      73.2706    -999.2500    -999.2500       0.0655       3.5836       2.4939     139.2858
   4131.5640   4131.5640       4.5926       0.1461      53.4255      70.2820    -999.2500      66.2463    -999.2500      67.8064    -999.2500    -999.2500       0.0592       3.6099       2.5414     140.2721
   4131.7168   4131.7168       4.5253       0.1762      53.2687      72.2182    -999.2500      73.6730    -999.2500      76.3904    -999.2500    -999.2500       0.0579       3.8835       2.7097     144.2283
   4131.8691   4131.8691       4.5362       0.1976      53.6340      73.0927    -999.2500      56.9048    -999.2500      58.9582    -999.2500    -999.2500       0.0574       4.1296       2.7526     145.9334
   4132.0215   4132.0215       4.5378       0.1916      54.4528      74.8478    -999.2500     103.1042    -999.2500     107.4945    -999.2500    -999.2500       0.0560       4.4265       2.7448     146.4708
   4132.1738   4132.1738       4.5491       0.1872      54.9504      79.2718    -999.2500     143.6452    -999.2500     151.9744    -999.2500    -999.2500       0.0566       4.5173       2.7263     146.2426
   4132.3262   4132.3262       4.5893       0.2040      54.4918      82.1988    -999.2500     105.4632    -999.2500     110.6183    -999.2500    -999.2500       0.0602       4.6050       2.7207     146.2665
   4132.4785   4132.4785       4.6002       0.2188      53.0876      86.5972    -999.2500      57.5446    -999.2500      58.9763    -999.2500    -999.2500       0.0626       4.6434       2.7371     145.4235
