#------------------------------------------------------------------------------
#
#   Created by  : [OpenWorks] Log Export Utility (LEXP)
#   Created on  : 2015-10-01 09:42:34
#   Project     : CANT971
#   User        : R5K
#   Interpreter : PEP
#
#------------------------------------------------------------------------------
~VERSION INFORMATION
VERS. 2.0 : CWLS Log ASCII Standard - version 2.0
WRAP.  NO : One line per depth step
~WELL INFORMATION
#MNEMONIC   .UNIT                                           VALUE :DESCRIPTION
#------------------------------------------------------------------------------
STRT        .M                                          3550.1582 :START DEPTH
STOP        .M                                          4164.9399 :STOP DEPTH
STEP        .M                                             0.1524 :STEP
NULL        .                                           -999.2500 :NULL VALUE
COMP        .                                             UNKNOWN :COMPANY
WELL        .                                         SIHIL-12-ST :WELL
FLD         .                                             UNKNOWN :FIELD
LOC         .                                             UNKNOWN :LOCATION
CNTY        .                                             UNKNOWN :COUNTY
STAT        .                                             UNKNOWN :STATE
CTRY        .                                             UNKNOWN :COUNTRY
SRVC        .                                             UNKNOWN :SERVICE COMPANY
DATE        .                                             UNKNOWN :LOG DATE
UWI         .                                         SIHIL-12-ST :UNIQUE WELL ID
XCOORD      .                                            0.000000 :SURFACE X
YCOORD      .                                            0.000000 :SURFACE Y
LAT         .                                            0.000000 :LATITUDE
LON         .                                          -97.488695 :LONGITUDE
ELEV        .M                                             0.0000 :SURFACE ELEV
ELEV_TYPE   .                                                  KB :ELEV TYPE
~CURVE INFORMATION
#MNEMONIC.UNIT        API CODE       : CURVE DESCRIPTION
#------------------------------------------------------------------------------
DEPTH    .M                          : Measured Depth
TVD      .M                          : True Vertical Depth (TVD)
CALI     .inches      UNKNOWN        : CALI:litodensidad:rC:NONE:v0 (auto-composite)
DRHO     .g/cm3       UNKNOWN        : DRHO:litodensidad:rC:NONE:v0 (auto-composite)
DT       .us/ft       UNKNOWN        : DT:sonico:rC:NONE:v0 (auto-composite)
GR       .API         UNKNOWN        : GR:resistivos:rC:NONE:v0 (auto-composite)
GR-LWD   .API         UNKNOWN        : GR-LWD:resistivos-LWD:rC:NONE:v0 (auto-composite)
LLD      .ohm.m       UNKNOWN        : LLD:resistivos:rC:NONE:v0 (auto-composite)
LLD-LWD  .ohm.m       UNKNOWN        : LLD-LWD:resistivos-LWD:rC:NONE:v0 (auto-composite)
LLS      .ohm.m       UNKNOWN        : LLS:resistivos:rC:NONE:v0 (auto-composite)
LLS-LWD  .ohm.m       UNKNOWN        : LLS-LWD:resistivos-LWD:rC:NONE:v0 (auto-composite)
MSFL-LWD .ohm.m       UNKNOWN        : MSFL-LWD:resistivos-LWD:rC:NONE:v0 (auto-composite)
NPHI     .v/v_decimal UNKNOWN        : NPHI:porosidad:rC:NONE:v0 (auto-composite)
PEF      .b/elec      UNKNOWN        : PEF:litodensidad:rC:NONE:v0 (auto-composite)
RHOB     .g/cm3       UNKNOWN        : RHOB:litodensidad:rC:NONE:v0 (auto-composite)
SP       .mv          UNKNOWN        : SP:resistivos:rC:NONE:v0 (auto-composite)
~A     DEPTH         TVD         CALI         DRHO           DT           GR       GR-LWD          LLD      LLD-LWD          LLS      LLS-LWD     MSFL-LWD         NPHI          PEF         RHOB           SP
# ...
   3989.9846   3989.9846    -999.2500    -999.2500      56.1099      40.0177      99.3236    -999.2500       3.7793    -999.2500       3.7654       3.8941    -999.2500    -999.2500    -999.2500    -999.2500
   3990.1370   3990.1370       4.7661      -1.1170      56.1164      34.0761     100.2840    -999.2500       3.7513    -999.2500       3.7374       3.8492       0.2227      11.9299       2.0883    -999.2500
   3990.2893   3990.2893       4.7367      -1.1078      55.9942      30.9109      99.4657    -999.2500       3.7174    -999.2500       3.7260       3.8285       0.2256      12.1396       2.0973    -999.2500
   3990.4419   3990.4419       4.7284      -1.1115      56.1030      29.5118      99.8855    -999.2500       3.6709    -999.2500       3.7197       3.8492       0.2307      12.1495       2.1118    -999.2500
   3990.5942   3990.5942       4.7004      -1.1419      56.7467      29.4070      99.6787    -999.2500       3.6593    -999.2500       3.7304       3.9008       0.2318      12.2194       2.1123    -999.2500
   3990.7466   3990.7466       4.6861      -1.2078      57.3583      33.3243      98.8377    -999.2500       3.7489    -999.2500       3.8110       3.9950       0.2351      12.3400       2.0993    -999.2500
   3990.8989   3990.8989       4.6610      -1.2619      57.5313      38.3331     100.4972    -999.2500       3.7674    -999.2500       3.7840       3.9374       0.2359      12.3764       2.1049    -999.2500
   3991.0515   3991.0515       4.6411      -1.2751      57.5241      42.6634      98.4073    -999.2500       3.7251    -999.2500       3.7023       3.8345       0.2425      12.3489       2.1125    -999.2500
   3991.2039   3991.2039       4.6425      -1.2817      57.5729      46.0745      98.5873    -999.2500       3.6799    -999.2500       3.6349       3.7674       0.2457      12.2794       2.1071    -999.2500
   3991.3562   3991.3562       4.6335      -1.2544      57.7839      46.1762      99.0312    -999.2500       3.6423    -999.2500       3.5992       3.7340       0.2425      12.2359       2.1327    -999.2500
   3991.5085   3991.5085       4.6759      -1.1594      58.2062      44.9627      99.0251    -999.2500       3.6292    -999.2500       3.5934       3.7367       0.2396      12.2448       2.1733    -999.2500
   3991.6609   3991.6609       4.7173      -1.1159      58.4325      45.0284     102.6775    -999.2500       3.6386    -999.2500       3.6292       3.7604       0.2386      12.2922       2.1372    -999.2500
   3991.8135   3991.8135       4.7224      -1.0963      58.2198      45.7314     103.7784    -999.2500       3.6502    -999.2500       3.6572       3.7881       0.2416      12.2713       2.0321    -999.2500
   3991.9658   3991.9658       4.7190      -1.0977      57.7632      46.9816     101.0529    -999.2500       3.6402    -999.2500       3.6543       3.7970       0.2391      12.1956       1.9870    -999.2500
   3992.1182   3992.1182       4.7196      -1.0886      57.2683      47.4089      99.1665    -999.2500       3.6661    -999.2500       3.6764       3.8165       0.2428      12.1903       1.9751    -999.2500
   3992.2705   3992.2705       4.7129      -1.0746      56.8233      47.4076     101.0751    -999.2500       3.6984    -999.2500       3.6767       3.8107       0.2436      12.3673       2.0019    -999.2500
   3992.4231   3992.4231       4.7072      -1.0550      56.5451      48.8973      99.9717    -999.2500       3.7075    -999.2500       3.6379       3.7665       0.2392      12.8866       2.0513    -999.2500
   3992.5754   3992.5754       4.7024      -1.0540      56.3696      48.7416     103.5442    -999.2500       3.7154    -999.2500       3.6015       3.7269       0.2403      13.2187       2.0684    -999.2500
   3992.7278   3992.7278       4.6981      -1.0711      55.9918      49.3201     108.0467    -999.2500       3.7104    -999.2500       3.5716       3.7076       0.2408      13.6348       2.0670    -999.2500
   3992.8801   3992.8801       4.6951      -1.1095      55.4391      49.3771     106.2181    -999.2500       3.7590    -999.2500       3.5873       3.7198       0.2446      14.2022       2.0443    -999.2500
   3993.0327   3993.0327       4.6996      -1.1478      55.0367      48.7006     101.2716    -999.2500       3.8187    -999.2500       3.6400       3.7420       0.2476      14.3459       2.0164    -999.2500
   3993.1851   3993.1851       4.7059      -1.1792      54.9963      48.8533      99.6984    -999.2500       3.8670    -999.2500       3.7033       3.7668       0.2458      14.1229       2.0015    -999.2500
   3993.3374   3993.3374       4.7129      -1.1913      55.1392      48.4693     100.5217    -999.2500       3.9124    -999.2500       3.8238       3.8715       0.2420      13.9409       2.0009    -999.2500
   3993.4897   3993.4897       4.7303      -1.2075      55.1927      47.5448     101.9159    -999.2500       3.9644    -999.2500       3.9750       4.0697       0.2446      14.0466       1.9902    -999.2500
   3993.6421   3993.6421       4.7305      -1.2057      55.0970      46.8157     101.6474    -999.2500       4.0991    -999.2500       4.1829       4.3273       0.2531      14.6134       2.0108    -999.2500
   3993.7947   3993.7947       4.7317      -1.1890      54.7765      44.2070      99.9919    -999.2500       4.3605    -999.2500       4.4938       4.6651       0.2590      15.5808       2.0472    -999.2500
   3993.9470   3993.9470       4.7215      -1.1783      54.1139      42.8809     101.3719    -999.2500       4.5764    -999.2500       4.6920       4.8624       0.2674      16.7199       2.0524    -999.2500
   3994.0994   3994.0994       4.7320      -1.1780      53.5652      41.1077      99.0947    -999.2500       4.6722    -999.2500       4.7412       4.9063       0.2686      17.7860       2.0402    -999.2500
   3994.2517   3994.2517       4.7485      -1.1867      53.8622      41.9952      97.9138    -999.2500       4.7175    -999.2500       4.7424       4.9031       0.2711      18.4558       2.0254    -999.2500
   3994.4043   3994.4043       4.7413      -1.1936      54.7663      44.1881      99.9576    -999.2500       4.7407    -999.2500       4.7219       4.8894       0.2765      19.2052       2.0275    -999.2500
   3994.5566   3994.5566       4.7057      -1.1833      55.2446      46.0964     102.6057    -999.2500       4.7561    -999.2500       4.6964       4.8677       0.2790      19.2980       2.0600    -999.2500
   3994.7090   3994.7090       4.7109      -1.1598      54.9426      47.4406     103.4925    -999.2500       4.7729    -999.2500       4.6762       4.8404       0.2669      19.1776       2.1091    -999.2500
   3994.8613   3994.8613       4.7158      -1.1501      54.5478      47.5852     102.9430    -999.2500       4.7766    -999.2500       4.6357       4.7913       0.2535      18.9509       2.1154    -999.2500
   3995.0139   3995.0139       4.7047      -1.1392      54.8074      48.9335     102.7850    -999.2500       4.7723    -999.2500       4.6105       4.7581       0.2439      18.5064       2.1322    -999.2500
   3995.1663   3995.1663       4.7025      -1.1352      54.9093      50.4355     101.4456    -999.2500       4.7898    -999.2500       4.6459       4.7741       0.2477      18.3857       2.1566    -999.2500
   3995.3186   3995.3186       4.6989      -1.1226      53.6503      51.2760     101.7720    -999.2500       4.8362    -999.2500       4.7187       4.8269       0.2538      18.3438       2.1894    -999.2500
   3995.4709   3995.4709       4.6999      -1.1164      51.7385      50.5931     102.3194    -999.2500       4.8989    -999.2500       4.8143       4.9214       0.2608      18.4010       2.1886    -999.2500
   3995.6233   3995.6233       4.7001      -1.1323      50.8058      48.9682    -999.2500    -999.2500       5.0119    -999.2500       4.9750       5.1077       0.2628      18.5564       2.1627    -999.2500
   3995.7759   3995.7759       4.6996      -1.1476      50.9990      45.5839    -999.2500    -999.2500       5.1731    -999.2500       5.1691       5.3421       0.2631      18.6645       2.1451    -999.2500
