#------------------------------------------------------------------------------
#
#   Created by  : [OpenWorks] Log Export Utility (LEXP)
#   Created on  : 2015-10-01 09:41:14
#   Project     : CANT971
#   User        : R5K
#   Interpreter : PEP
#
#------------------------------------------------------------------------------
~VERSION INFORMATION
VERS. 2.0 : CWLS Log ASCII Standard - version 2.0
WRAP.  NO : One line per depth step
~WELL INFORMATION
#MNEMONIC   .UNIT                                           VALUE :DESCRIPTION
#------------------------------------------------------------------------------
STRT        .M                                          1374.3848 :START DEPTH
STOP        .M                                          3939.4292 :STOP DEPTH
STEP        .M                                             0.1524 :STEP
NULL        .                                           -999.2500 :NULL VALUE
COMP        .                                             UNKNOWN :COMPANY
WELL        .                                         SIHIL-11-ST :WELL
FLD         .                                             UNKNOWN :FIELD
LOC         .                                             UNKNOWN :LOCATION
CNTY        .                                             UNKNOWN :COUNTY
STAT        .                                             UNKNOWN :STATE
CTRY        .                                             UNKNOWN :COUNTRY
SRVC        .                                             UNKNOWN :SERVICE COMPANY
DATE        .                                             UNKNOWN :LOG DATE
UWI         .                                         SIHIL-11-ST :UNIQUE WELL ID
XCOORD      .                                       599653.950000 :SURFACE X
YCOORD      .                                      2147230.550000 :SURFACE Y
LAT         .                                           19.418046 :LATITUDE
LON         .                                          -92.050821 :LONGITUDE
ELEV        .M                                             0.0000 :SURFACE ELEV
ELEV_TYPE   .                                                  KB :ELEV TYPE
~CURVE INFORMATION
#MNEMONIC.UNIT        API CODE       : CURVE DESCRIPTION
#------------------------------------------------------------------------------
DEPTH    .M                          : Measured Depth
TVD      .M                          : True Vertical Depth (TVD)
CALI     .inches      UNKNOWN        : CALI:litodensidad:rC:NONE:v0 (auto-composite)
DRHO     .g/cm3       UNKNOWN        : DRHO:UNKNOWN:rC:NONE:v0 (auto-composite)
DT       .us/ft       UNKNOWN        : DT:UNKNOWN:rC:NONE:v0 (auto-composite)
GR       .API         UNKNOWN        : GR:UNKNOWN:rC:NONE:v0 (auto-composite)
GR-ENT   .API         UNKNOWN        : GR-ENT:registros:rC:NONE:v0 (auto-composite)
GR-LWD   .API         UNKNOWN        : GR-LWD:PETROWORKS:rC:NONE:v1 
LLD-LWD  .ohm.m       UNKNOWN        : LLD-LWD:PETROWORKS:rC:NONE:v1 
LLS-LWD  .ohm.m       UNKNOWN        : LLS-LWD:PETROWORKS:rC:NONE:v1 
MSFL-LWD .ohm.m       UNKNOWN        : MSFL-LWD:PETROWORKS:rC:NONE:v1 
NPHI     .v/v_decimal UNKNOWN        : NPHI:UNKNOWN:rC:NONE:v0 (auto-composite)
NPHI-ENT .v/v_decimal UNKNOWN        : NPHI-ENT:registros:rC:NONE:v0 (auto-composite)
PEF      .b/elec      UNKNOWN        : PEF:UNKNOWN:rC:NONE:v0 (auto-composite)
RHOB     .g/cm3       UNKNOWN        : RHOB:UNKNOWN:rC:NONE:v0 (auto-composite)
SIGM     .cu          UNKNOWN        : SIGM:registros:rC:NONE:v0 (auto-composite)
~A     DEPTH         TVD         CALI         DRHO           DT           GR       GR-ENT       GR-LWD      LLD-LWD      LLS-LWD     MSFL-LWD         NPHI     NPHI-ENT          PEF         RHOB         SIGM
# ...
   3840.9788   3840.9788       6.6140       0.0553      54.9098      62.7603    -999.2500      53.3013      59.3314      54.9796      60.4115       0.0891    -999.2500       4.3340       2.7251    -999.2500
   3841.1311   3841.1311       6.6125       0.0517      55.6742      58.6558    -999.2500      54.5617      59.2722      55.4192      60.0209       0.0877    -999.2500       4.4209       2.6900    -999.2500
   3841.2834   3841.2834       6.6129       0.0393      56.4423      56.9918    -999.2500      54.9380      60.4090      55.5822      60.1354       0.0886    -999.2500       4.2966       2.6802    -999.2500
   3841.4360   3841.4360       6.6219       0.0247      56.8683      57.8944    -999.2500      54.1261      61.0190      55.2282      60.7763       0.0913    -999.2500       4.1514       2.6757    -999.2500
   3841.5884   3841.5884       6.6260       0.0172      56.9416      58.0780    -999.2500      53.9020      60.6910      55.1221      61.4000       0.0953    -999.2500       4.2166       2.6578    -999.2500
   3841.7407   3841.7407       6.6218       0.0179      57.1446      57.6744    -999.2500      54.1153      60.7334      55.4950      61.4706       0.0973    -999.2500       4.4389       2.6346    -999.2500
   3841.8931   3841.8931       6.6168       0.0230      57.7638      57.7441    -999.2500      54.2254      60.8587      55.5849      60.6849       0.0963    -999.2500       4.6270       2.6161    -999.2500
   3842.0457   3842.0457       6.6155       0.0262      58.4593      58.7797    -999.2500      55.1723      60.3323      55.5312      60.2046       0.0958    -999.2500       4.5944       2.6155    -999.2500
   3842.1980   3842.1980       6.6113       0.0252      58.8985      58.8790    -999.2500      55.8637      59.3696      55.7274      60.8191       0.0969    -999.2500       4.3157       2.6402    -999.2500
   3842.3503   3842.3503       6.6112       0.0216      59.1179      57.1286    -999.2500      54.6195      59.6605      56.1696      61.2682       0.0972    -999.2500       4.0605       2.6601    -999.2500
   3842.5027   3842.5027       6.6182       0.0161      59.2568      56.1887    -999.2500      53.9984      60.6210      56.7625      61.4682       0.0958    -999.2500       4.0579       2.6583    -999.2500
   3842.6553   3842.6553       6.6228       0.0104      59.3774      56.6247    -999.2500      54.4157      61.0589      57.6963      62.7427       0.0981    -999.2500       4.2483       2.6535    -999.2500
   3842.8076   3842.8076       6.6254       0.0097      59.4241      57.5693    -999.2500      54.1986      61.8097      57.7170      63.6938       0.1001    -999.2500       4.2827       2.6651    -999.2500
   3842.9600   3842.9600       6.6217       0.0124      59.2546      59.7894    -999.2500      53.2388      62.4732      57.1025      63.9053       0.1017    -999.2500       4.2011       2.6776    -999.2500
   3843.1123   3843.1123       6.6221       0.0157      58.6712      60.1738    -999.2500      53.5665      61.7745      56.7013      63.5478       0.1028    -999.2500       4.2649       2.6721    -999.2500
   3843.2646   3843.2646       6.6230       0.0216      57.6878      58.1679    -999.2500      54.6696      60.7693      56.1779      62.4915       0.1039    -999.2500       4.4311       2.6667    -999.2500
   3843.4172   3843.4172       6.6220       0.0247      56.7938      56.7298    -999.2500      54.5507      60.8159      55.7067      61.3565       0.1033    -999.2500       4.4040       2.6650    -999.2500
   3843.5696   3843.5696       6.6204       0.0238      56.4486      54.6308    -999.2500      53.0348      61.5813      55.8911      60.8329       0.1017    -999.2500       4.2780       2.6599    -999.2500
   3843.7219   3843.7219       6.6237       0.0231      56.1675      53.4988    -999.2500      51.9312      62.1014      56.8581      61.3623       0.0986    -999.2500       4.2660       2.6723    -999.2500
   3843.8743   3843.8743       6.6244       0.0244      56.1960      53.8443    -999.2500      52.8448      62.6695      57.5325      62.8687       0.0977    -999.2500       4.2225       2.6985    -999.2500
   3844.0269   3844.0269       6.6256       0.0267      56.6861      54.8133    -999.2500      54.0187      63.3296      57.5731      64.0117       0.0970    -999.2500       4.0929       2.7004    -999.2500
   3844.1792   3844.1792       6.6228       0.0307      57.4245      55.6311    -999.2500      54.6353      63.3526      57.6243      63.9136       0.0949    -999.2500       3.9902       2.6910    -999.2500
   3844.3315   3844.3315       6.6219       0.0336      58.0611      57.2949    -999.2500      54.2023      63.6502      57.5735      63.2556       0.0944    -999.2500       4.0093       2.6923    -999.2500
   3844.4839   3844.4839       6.6194       0.0332      58.1625      58.5287    -999.2500      52.8561      63.8731      57.6507      62.9676       0.0932    -999.2500       4.1513       2.7024    -999.2500
   3844.6365   3844.6365       6.6185       0.0319      57.4694      57.6450    -999.2500      51.1411      62.9660      58.0564      62.8055       0.0932    -999.2500       4.2394       2.7023    -999.2500
   3844.7888   3844.7888       6.6195       0.0308      56.3726      57.7612    -999.2500      50.1668      62.1880      57.5227      61.8946       0.0944    -999.2500       4.1349       2.6883    -999.2500
   3844.9412   3844.9412       6.6142       0.0280      55.5051      57.7042    -999.2500      50.4098      61.3600      56.7186      62.1136       0.0975    -999.2500       4.0022       2.6723    -999.2500
   3845.0935   3845.0935       6.6113       0.0245      55.0898      55.7404    -999.2500      51.5326      60.8498      57.2957      65.0058       0.0986    -999.2500       4.0266       2.6691    -999.2500
   3845.2458   3845.2458       6.6200       0.0219      54.8356      54.6598    -999.2500      52.8939      61.3575      58.9125      68.2372       0.0991    -999.2500       4.1474       2.6796    -999.2500
   3845.3984   3845.3984       6.6303       0.0207      54.6519      55.8178    -999.2500      53.6973      62.5218      59.6045      68.4402       0.0973    -999.2500       4.2049       2.6992    -999.2500
   3845.5508   3845.5508       6.6329       0.0223      55.3426      58.1633    -999.2500      53.1203      63.2691      59.2839      67.0756       0.0941    -999.2500       4.1513       2.7137    -999.2500
   3845.7031   3845.7031       6.6347       0.0252      56.9770      59.4959    -999.2500      52.6173      63.5433      58.5456      66.1438       0.0922    -999.2500       4.0923       2.7038    -999.2500
   3845.8555   3845.8555       6.6261       0.0282      58.3317      58.7463    -999.2500      53.1372      63.6111      58.2970      66.1876       0.0939    -999.2500       4.0898       2.6792    -999.2500
   3846.0081   3846.0081       6.6151       0.0298      58.8276      58.1965    -999.2500      53.8184      63.6640      58.5448      66.6045       0.0955    -999.2500       4.1097       2.6774    -999.2500
   3846.1604   3846.1604       6.6202       0.0270      58.7164      57.7150    -999.2500      53.1992      64.0364      58.5432      66.7086       0.0966    -999.2500       4.1319       2.6826    -999.2500
   3846.3127   3846.3127       6.6344       0.0217      58.0597      55.8016    -999.2500      52.3754      64.5515      58.3984      65.8084       0.0953    -999.2500       4.1303       2.6845    -999.2500
   3846.4651   3846.4651       6.6376       0.0183      57.2206      54.1964    -999.2500      52.0256      64.7446      58.3629      64.7187       0.0928    -999.2500       4.0735       2.6848    -999.2500
   3846.6177   3846.6177       6.6274       0.0181      57.0114      54.0194    -999.2500      52.4022      64.8997      58.6013      64.7935       0.0950    -999.2500       4.0365       2.6817    -999.2500
   3846.7700   3846.7700       6.6214       0.0196      57.5466      54.0297    -999.2500      54.0692      64.8858      58.5212      64.9161       0.1023    -999.2500       4.0969       2.6895    -999.2500
