#------------------------------------------------------------------------------
#
#   Created by  : [OpenWorks] Log Export Utility (LEXP)
#   Created on  : 2015-10-01 09:41:14
#   Project     : CANT971
#   User        : R5K
#   Interpreter : PEP
#
#------------------------------------------------------------------------------
~VERSION INFORMATION
VERS. 2.0 : CWLS Log ASCII Standard - version 2.0
WRAP.  NO : One line per depth step
~WELL INFORMATION
#MNEMONIC   .UNIT                                           VALUE :DESCRIPTION
#------------------------------------------------------------------------------
STRT        .M                                          1374.3848 :START DEPTH
STOP        .M                                          3939.4292 :STOP DEPTH
STEP        .M                                             0.1524 :STEP
NULL        .                                           -999.2500 :NULL VALUE
COMP        .                                             UNKNOWN :COMPANY
WELL        .                                         SIHIL-11-ST :WELL
FLD         .                                             UNKNOWN :FIELD
LOC         .                                             UNKNOWN :LOCATION
CNTY        .                                             UNKNOWN :COUNTY
STAT        .                                             UNKNOWN :STATE
CTRY        .                                             UNKNOWN :COUNTRY
SRVC        .                                             UNKNOWN :SERVICE COMPANY
DATE        .                                             UNKNOWN :LOG DATE
UWI         .                                         SIHIL-11-ST :UNIQUE WELL ID
XCOORD      .                                       599653.950000 :SURFACE X
YCOORD      .                                      2147230.550000 :SURFACE Y
LAT         .                                           19.418046 :LATITUDE
LON         .                                          -92.050821 :LONGITUDE
ELEV        .M                                             0.0000 :SURFACE ELEV
ELEV_TYPE   .                                                  KB :ELEV TYPE
~CURVE INFORMATION
#MNEMONIC.UNIT        API CODE       : CURVE DESCRIPTION
#------------------------------------------------------------------------------
DEPTH    .M                          : Measured Depth
TVD      .M                          : True Vertical Depth (TVD)
CALI     .inches      UNKNOWN        : CALI:litodensidad:rC:NONE:v0 (auto-composite)
DRHO     .g/cm3       UNKNOWN        : DRHO:UNKNOWN:rC:NONE:v0 (auto-composite)
DT       .us/ft       UNKNOWN        : DT:UNKNOWN:rC:NONE:v0 (auto-composite)
GR       .API         UNKNOWN        : GR:UNKNOWN:rC:NONE:v0 (auto-composite)
GR-ENT   .API         UNKNOWN        : GR-ENT:registros:rC:NONE:v0 (auto-composite)
GR-LWD   .API         UNKNOWN        : GR-LWD:PETROWORKS:rC:NONE:v1 
LLD-LWD  .ohm.m       UNKNOWN        : LLD-LWD:PETROWORKS:rC:NONE:v1 
LLS-LWD  .ohm.m       UNKNOWN        : LLS-LWD:PETROWORKS:rC:NONE:v1 
MSFL-LWD .ohm.m       UNKNOWN        : MSFL-LWD:PETROWORKS:rC:NONE:v1 
NPHI     .v/v_decimal UNKNOWN        : NPHI:UNKNOWN:rC:NONE:v0 (auto-composite)
NPHI-ENT .v/v_decimal UNKNOWN        : NPHI-ENT:registros:rC:NONE:v0 (auto-composite)
PEF      .b/elec      UNKNOWN        : PEF:UNKNOWN:rC:NONE:v0 (auto-composite)
RHOB     .g/cm3       UNKNOWN        : RHOB:UNKNOWN:rC:NONE:v0 (auto-composite)
SIGM     .cu          UNKNOWN        : SIGM:registros:rC:NONE:v0 (auto-composite)
~A     DEPTH         TVD         CALI         DRHO           DT           GR       GR-ENT       GR-LWD      LLD-LWD      LLS-LWD     MSFL-LWD         NPHI     NPHI-ENT          PEF         RHOB         SIGM
# ...
   3888.5276   3888.5276       6.5773       0.0328      50.5958      75.8489    -999.2500      67.2685      69.0507      64.0259      69.3500       0.0642    -999.2500       3.8695       2.8229    -999.2500
   3888.6799   3888.6799       6.5765       0.0306      51.7675      88.4292    -999.2500      79.5223      67.9952      66.5035      77.2664       0.0583    -999.2500       3.8844       2.8327    -999.2500
   3888.8323   3888.8323       6.5701       0.0292      52.4746      92.8584    -999.2500      86.1553      70.9398      70.0027      86.7460       0.0517    -999.2500       3.8805       2.8357    -999.2500
   3888.9849   3888.9849       6.5672       0.0314      53.2866      88.2740    -999.2500      83.5352      74.5348      72.3133      91.0270       0.0507    -999.2500       3.8565       2.8345    -999.2500
   3889.1372   3889.1372       6.5702       0.0351      54.3431      83.0572    -999.2500      78.2368      76.1528      72.8573      89.0499       0.0518    -999.2500       3.8226       2.8330    -999.2500
   3889.2896   3889.2896       6.5671       0.0372      55.0734      79.6851    -999.2500      74.4905      75.7477      71.0909      84.5975       0.0543    -999.2500       3.8275       2.8309    -999.2500
   3889.4419   3889.4419       6.5663       0.0380      55.1338      80.8866    -999.2500      73.6573      73.8770      67.5101      80.7508       0.0590    -999.2500       3.8884       2.8203    -999.2500
   3889.5945   3889.5945       6.5701       0.0447      54.7153      87.6076    -999.2500      75.3141      73.0109      66.0358      80.2827       0.0641    -999.2500       3.9690       2.7976    -999.2500
   3889.7468   3889.7468       6.5692       0.0557      53.6580      91.7969    -999.2500      77.5823      76.2627      70.3740      86.4694       0.0679    -999.2500       4.0298       2.7789    -999.2500
   3889.8992   3889.8992       6.5696       0.0584      52.1593      92.8209    -999.2500      77.4306      78.7207      72.7938      87.8969       0.0692    -999.2500       4.0511       2.7767    -999.2500
   3890.0515   3890.0515       6.5690       0.0535      51.2498      92.3765    -999.2500      75.1945      77.1322      71.2189      82.5074       0.0679    -999.2500       4.0258       2.7849    -999.2500
   3890.2039   3890.2039       6.5623       0.0461      51.3230      86.7146    -999.2500      72.4466      74.1034      69.3498      78.0560       0.0660    -999.2500       3.9811       2.7807    -999.2500
   3890.3564   3890.3564       6.5605       0.0335      51.3060      73.1740    -999.2500      67.9789      72.7989      70.0487      79.3454       0.0620    -999.2500       3.9309       2.7566    -999.2500
   3890.5088   3890.5088       6.5613       0.0242      50.9619      66.1012    -999.2500      62.3580      74.0677      73.9078      84.5496       0.0591    -999.2500       3.8833       2.7462    -999.2500
   3890.6611   3890.6611       6.5571       0.0168      50.1230      67.4987    -999.2500      60.6373      77.1599      78.7953      91.5919       0.0592    -999.2500       3.8677       2.7348    -999.2500
   3890.8135   3890.8135       6.5593       0.0153      48.8643      72.1492    -999.2500      63.0915      79.3070      81.4369      97.2284       0.0606    -999.2500       3.9377       2.7206    -999.2500
   3890.9661   3890.9661       6.5637       0.0182      47.8161      72.7036    -999.2500      64.8741      80.3207      81.7658     101.0115       0.0630    -999.2500       3.9806       2.7360    -999.2500
   3891.1184   3891.1184       6.5707       0.0244      47.4037      71.2252    -999.2500      64.6092      81.9739      82.8239     104.0448       0.0623    -999.2500       3.8936       2.7739    -999.2500
   3891.2708   3891.2708       6.5690       0.0318      47.6745      73.0499    -999.2500      66.3591      83.2102      83.7529     101.0616       0.0584    -999.2500       3.8118       2.7871    -999.2500
   3891.4231   3891.4231       6.5753       0.0382      48.5713      72.1666    -999.2500      66.2083      83.1453      83.3344      94.7651       0.0588    -999.2500       3.8825       2.7695    -999.2500
   3891.5757   3891.5757       6.5673       0.0454      49.7404      66.3335    -999.2500      62.3602      81.6404      81.7194      91.5482       0.0630    -999.2500       4.0210       2.7640    -999.2500
   3891.7280   3891.7280       6.5588       0.0462      50.5461      62.0959    -999.2500      58.7864      80.7564      79.6242      93.0813       0.0674    -999.2500       4.1003       2.7704    -999.2500
   3891.8804   3891.8804       6.5637       0.0430      50.6414      64.9980    -999.2500      59.8658      81.9944      78.3279      93.4389       0.0682    -999.2500       4.0691       2.7723    -999.2500
   3892.0327   3892.0327       6.5790       0.0390      50.4786      69.0967    -999.2500      61.3774      81.4617      75.3600      86.6484       0.0658    -999.2500       4.0274       2.7686    -999.2500
   3892.1851   3892.1851       6.5816       0.0315      50.7082      69.9301    -999.2500      61.9004      78.1284      70.0898      77.3710       0.0642    -999.2500       3.9349       2.7743    -999.2500
   3892.3376   3892.3376       6.5613       0.0259      51.4034      67.4878    -999.2500      60.8649      74.7303      66.0564      71.6946       0.0643    -999.2500       3.8180       2.7901    -999.2500
   3892.4900   3892.4900       6.5550       0.0223      52.2958      62.6319    -999.2500      58.2003      73.2191      65.7314      72.0000       0.0637    -999.2500       3.8196       2.7913    -999.2500
   3892.6423   3892.6423       6.5652       0.0186      53.2781      59.7707    -999.2500      56.2329      74.2114      67.1734      75.0715       0.0637    -999.2500       3.9036       2.7811    -999.2500
   3892.7947   3892.7947       6.5782       0.0189      54.2322      60.3873    -999.2500      57.1270      73.9463      67.1685      75.8324       0.0631    -999.2500       3.9727       2.7782    -999.2500
   3892.9473   3892.9473       6.5800       0.0217      54.4110      63.5773    -999.2500      59.1614      73.1228      66.3450      75.3577       0.0616    -999.2500       4.0111       2.7784    -999.2500
   3893.0996   3893.0996       6.5692       0.0255      53.2295      67.6269    -999.2500      60.8613      72.1546      66.3778      76.0643       0.0596    -999.2500       4.0581       2.7776    -999.2500
   3893.2520   3893.2520       6.5712       0.0297      51.4466      70.6671    -999.2500      61.8685      71.0402      67.0976      76.6704       0.0602    -999.2500       4.1164       2.7783    -999.2500
   3893.4043   3893.4043       6.5740       0.0325      49.8430      73.1785    -999.2500      62.7493      69.8895      65.8855      74.3837       0.0601    -999.2500       4.1145       2.7755    -999.2500
   3893.5569   3893.5569       6.5688       0.0367      48.6352      76.7208    -999.2500      64.2146      67.8932      62.4816      69.6285       0.0591    -999.2500       4.0674       2.7717    -999.2500
   3893.7092   3893.7092       6.5658       0.0417      47.8332      77.5762    -999.2500      66.0476      68.4158      58.8095      63.8342       0.0589    -999.2500       4.0571       2.7790    -999.2500
   3893.8616   3893.8616       6.5728       0.0452      47.5620      76.5813    -999.2500      68.3694      73.1813      56.5057      59.7131       0.0591    -999.2500       4.0956       2.7905    -999.2500
   3894.0139   3894.0139       6.5729       0.0440      48.0336      75.0278    -999.2500      70.4821      76.7641      55.8899      60.3863       0.0659    -999.2500       4.1113       2.7804    -999.2500
   3894.1663   3894.1663       6.5661       0.0454      49.2748      75.5808    -999.2500      71.2128      74.7114      58.7379      65.8368       0.0821    -999.2500       4.2049       2.7208    -999.2500
   3894.3188   3894.3188       6.6809       0.0419      51.0899      77.7156    -999.2500      69.6954      72.0014      63.8477      70.0334       0.0936    -999.2500       4.5237       2.6027    -999.2500
