#------------------------------------------------------------------------------
#
#   Created by  : [OpenWorks] Log Export Utility (LEXP)
#   Created on  : 2015-10-01 09:41:14
#   Project     : CANT971
#   User        : R5K
#   Interpreter : PEP
#
#------------------------------------------------------------------------------
~VERSION INFORMATION
VERS. 2.0 : CWLS Log ASCII Standard - version 2.0
WRAP.  NO : One line per depth step
~WELL INFORMATION
#MNEMONIC   .UNIT                                           VALUE :DESCRIPTION
#------------------------------------------------------------------------------
STRT        .M                                          1374.3848 :START DEPTH
STOP        .M                                          3939.4292 :STOP DEPTH
STEP        .M                                             0.1524 :STEP
NULL        .                                           -999.2500 :NULL VALUE
COMP        .                                             UNKNOWN :COMPANY
WELL        .                                         SIHIL-11-ST :WELL
FLD         .                                             UNKNOWN :FIELD
LOC         .                                             UNKNOWN :LOCATION
CNTY        .                                             UNKNOWN :COUNTY
STAT        .                                             UNKNOWN :STATE
CTRY        .                                             UNKNOWN :COUNTRY
SRVC        .                                             UNKNOWN :SERVICE COMPANY
DATE        .                                             UNKNOWN :LOG DATE
UWI         .                                         SIHIL-11-ST :UNIQUE WELL ID
XCOORD      .                                       599653.950000 :SURFACE X
YCOORD      .                                      2147230.550000 :SURFACE Y
LAT         .                                           19.418046 :LATITUDE
LON         .                                          -92.050821 :LONGITUDE
ELEV        .M                                             0.0000 :SURFACE ELEV
ELEV_TYPE   .                                                  KB :ELEV TYPE
~CURVE INFORMATION
#MNEMONIC.UNIT        API CODE       : CURVE DESCRIPTION
#------------------------------------------------------------------------------
DEPTH    .M                          : Measured Depth
TVD      .M                          : True Vertical Depth (TVD)
CALI     .inches      UNKNOWN        : CALI:litodensidad:rC:NONE:v0 (auto-composite)
DRHO     .g/cm3       UNKNOWN        : DRHO:UNKNOWN:rC:NONE:v0 (auto-composite)
DT       .us/ft       UNKNOWN        : DT:UNKNOWN:rC:NONE:v0 (auto-composite)
GR       .API         UNKNOWN        : GR:UNKNOWN:rC:NONE:v0 (auto-composite)
GR-ENT   .API         UNKNOWN        : GR-ENT:registros:rC:NONE:v0 (auto-composite)
GR-LWD   .API         UNKNOWN        : GR-LWD:PETROWORKS:rC:NONE:v1 
LLD-LWD  .ohm.m       UNKNOWN        : LLD-LWD:PETROWORKS:rC:NONE:v1 
LLS-LWD  .ohm.m       UNKNOWN        : LLS-LWD:PETROWORKS:rC:NONE:v1 
MSFL-LWD .ohm.m       UNKNOWN        : MSFL-LWD:PETROWORKS:rC:NONE:v1 
NPHI     .v/v_decimal UNKNOWN        : NPHI:UNKNOWN:rC:NONE:v0 (auto-composite)
NPHI-ENT .v/v_decimal UNKNOWN        : NPHI-ENT:registros:rC:NONE:v0 (auto-composite)
PEF      .b/elec      UNKNOWN        : PEF:UNKNOWN:rC:NONE:v0 (auto-composite)
RHOB     .g/cm3       UNKNOWN        : RHOB:UNKNOWN:rC:NONE:v0 (auto-composite)
SIGM     .cu          UNKNOWN        : SIGM:registros:rC:NONE:v0 (auto-composite)
~A     DEPTH         TVD         CALI         DRHO           DT           GR       GR-ENT       GR-LWD      LLD-LWD      LLS-LWD     MSFL-LWD         NPHI     NPHI-ENT          PEF         RHOB         SIGM
# ...
   3817.2043   3817.2043       6.6196       0.0482      59.3531      65.9748    -999.2500      59.3306      26.3609      23.8640      24.6439       0.1213    -999.2500       4.0039       2.6892    -999.2500
   3817.3567   3817.3567       6.6197       0.0494      59.5426      64.8276    -999.2500      58.8901      27.2221      25.0127      26.0754       0.1191    -999.2500       4.0515       2.6816    -999.2500
   3817.5093   3817.5093       6.6219       0.0504      59.7324      63.6098    -999.2500      58.0794      28.4928      26.8072      28.5106       0.1183    -999.2500       4.0671       2.6791    -999.2500
   3817.6616   3817.6616       6.6235       0.0510      59.5901      63.2277    -999.2500      58.5538      29.1587      27.8442      30.0966       0.1202    -999.2500       4.0638       2.6765    -999.2500
   3817.8140   3817.8140       6.6227       0.0519      58.8064      62.4892    -999.2500      58.3074      29.7876      28.5471      31.0530       0.1208    -999.2500       4.0599       2.6781    -999.2500
   3817.9663   3817.9663       6.6207       0.0524      57.6364      62.0598    -999.2500      57.6651      30.2941      28.9382      31.3918       0.1169    -999.2500       4.0968       2.6807    -999.2500
   3818.1187   3818.1187       6.6204       0.0521      56.7344      61.5884    -999.2500      58.0549      30.5299      29.1615      31.3740       0.1160    -999.2500       4.1690       2.6860    -999.2500
   3818.2712   3818.2712       6.6197       0.0526      56.5242      58.6214    -999.2500      59.0425      30.2429      29.2041      31.3099       0.1165    -999.2500       4.1755       2.6983    -999.2500
   3818.4236   3818.4236       6.6184       0.0536      57.0282      58.6595    -999.2500      58.3833      29.7653      29.2617      31.6732       0.1140    -999.2500       4.1032       2.7047    -999.2500
   3818.5759   3818.5759       6.6193       0.0538      57.8013      61.4345    -999.2500      57.6733      29.6160      29.3463      31.7731       0.1125    -999.2500       4.0789       2.6994    -999.2500
   3818.7283   3818.7283       6.6210       0.0519      58.2842      63.6923    -999.2500      58.5290      29.5912      29.1779      31.5228       0.1119    -999.2500       4.0607       2.6942    -999.2500
   3818.8809   3818.8809       6.6210       0.0445      58.3633      64.8932    -999.2500      62.7978      29.3817      28.4115      30.9790       0.1099    -999.2500       3.9734       2.7031    -999.2500
   3819.0332   3819.0332       6.6191       0.0355      58.3032      68.2509    -999.2500      68.1395      28.9651      27.4577      30.2924       0.1057    -999.2500       3.8750       2.7142    -999.2500
   3819.1855   3819.1855       6.6200       0.0321      58.2665      72.6300    -999.2500      69.5459      28.6737      27.1700      29.6688       0.1037    -999.2500       3.8122       2.7203    -999.2500
   3819.3379   3819.3379       6.6223       0.0326      58.0563      73.9569    -999.2500      69.7934      28.5698      26.9997      28.9948       0.1025    -999.2500       3.7470       2.7255    -999.2500
   3819.4905   3819.4905       6.6216       0.0353      57.3774      72.8018    -999.2500      70.2838      28.3941      26.6665      28.3089       0.0998    -999.2500       3.7280       2.7257    -999.2500
   3819.6428   3819.6428       6.6241       0.0397      56.1641      73.9025    -999.2500      72.0652      27.8607      25.9636      27.4665       0.0970    -999.2500       3.7770       2.7278    -999.2500
   3819.7952   3819.7952       6.6323       0.0429      54.8818      76.3706    -999.2500      73.4082      27.3390      25.4553      26.9637       0.0953    -999.2500       3.8370       2.7324    -999.2500
   3819.9475   3819.9475       6.6441       0.0421      54.0663      77.1750    -999.2500      72.9824      27.2260      25.4775      26.8812       0.0946    -999.2500       3.8371       2.7352    -999.2500
   3820.0999   3820.0999       6.6468       0.0381      54.3186      76.2734    -999.2500      73.2953      27.1909      25.4554      26.7846       0.0933    -999.2500       3.7924       2.7398    -999.2500
   3820.2524   3820.2524       6.6394       0.0308      55.5930      75.3598    -999.2500      73.8429      27.3186      25.5836      27.0745       0.0905    -999.2500       3.7760       2.7391    -999.2500
   3820.4048   3820.4048       6.6358       0.0241      56.3885      74.4431    -999.2500      73.0167      27.8577      26.2536      28.2318       0.0894    -999.2500       3.8023       2.7272    -999.2500
   3820.5571   3820.5571       6.6281       0.0173      56.2073      72.4397    -999.2500      72.3747      28.5611      27.2973      29.5430       0.0902    -999.2500       3.8405       2.7109    -999.2500
   3820.7095   3820.7095       6.6244       0.0141      55.9707      72.8351    -999.2500      73.7233      28.9303      28.2198      30.3643       0.0909    -999.2500       3.8342       2.7070    -999.2500
   3820.8621   3820.8621       6.6233       0.0117      55.8981      76.3784    -999.2500      74.9096      29.1278      28.7873      30.9041       0.0922    -999.2500       3.7837       2.7125    -999.2500
   3821.0144   3821.0144       6.6210       0.0129      55.6493      77.1150    -999.2500      75.7331      29.3962      29.1382      31.3807       0.0909    -999.2500       3.7589       2.7225    -999.2500
   3821.1667   3821.1667       6.6148       0.0152      55.2507      73.5390    -999.2500      76.3895      29.8958      29.4919      32.0749       0.0905    -999.2500       3.7698       2.7288    -999.2500
   3821.3191   3821.3191       6.6117       0.0158      55.1638      75.9248    -999.2500      75.2009      30.4326      29.8673      32.6265       0.0917    -999.2500       3.8092       2.7277    -999.2500
   3821.4717   3821.4717       6.6127       0.0166      55.5774      83.2086    -999.2500      73.5520      30.8204      30.0519      32.7626       0.0922    -999.2500       3.8576       2.7268    -999.2500
   3821.6240   3821.6240       6.6152       0.0176      56.0808      83.7125    -999.2500      72.5712      31.0494      29.9569      32.6020       0.0911    -999.2500       3.8782       2.7233    -999.2500
   3821.7764   3821.7764       6.6149       0.0193      56.3237      81.5318    -999.2500      72.2166      31.2899      29.7468      32.3116       0.0903    -999.2500       3.9131       2.7157    -999.2500
   3821.9287   3821.9287       6.6137       0.0224      56.3941      79.2084    -999.2500      73.4594      31.7157      29.6098      31.9866       0.0898    -999.2500       3.9577       2.7138    -999.2500
   3822.0811   3822.0811       6.6132       0.0262      56.3448      78.0172    -999.2500      75.7126      32.2112      29.8841      31.8085       0.0892    -999.2500       3.9857       2.7250    -999.2500
   3822.2336   3822.2336       6.6126       0.0292      56.0279      77.3329    -999.2500      75.5827      32.5755      30.2441      31.6902       0.0897    -999.2500       4.0046       2.7318    -999.2500
   3822.3860   3822.3860       6.6121       0.0307      55.5285      77.1402    -999.2500      74.2616      32.8153      30.3530      31.7441       0.0904    -999.2500       4.0034       2.7253    -999.2500
   3822.5383   3822.5383       6.6108       0.0309      55.0332      78.7139    -999.2500      72.7993      33.2636      30.5511      32.2372       0.0909    -999.2500       3.9865       2.7165    -999.2500
   3822.6907   3822.6907       6.6100       0.0285      54.6242      79.4244    -999.2500      71.4673      34.3114      31.1582      33.3896       0.0914    -999.2500       3.9840       2.7104    -999.2500
   3822.8433   3822.8433       6.6096       0.0256      54.3526      78.5940    -999.2500      71.2409      35.5114      31.8837      34.3024       0.0906    -999.2500       3.9922       2.7098    -999.2500
   3822.9956   3822.9956       6.6099       0.0248      54.2790      79.6064    -999.2500      72.3408      36.1688      32.5219      34.9219       0.0901    -999.2500       3.9874       2.7165    -999.2500
