#------------------------------------------------------------------------------
#
#   Created by  : [OpenWorks] Log Export Utility (LEXP)
#   Created on  : 2015-10-01 09:42:34
#   Project     : CANT971
#   User        : R5K
#   Interpreter : PEP
#
#------------------------------------------------------------------------------
~VERSION INFORMATION
VERS. 2.0 : CWLS Log ASCII Standard - version 2.0
WRAP.  NO : One line per depth step
~WELL INFORMATION
#MNEMONIC   .UNIT                                           VALUE :DESCRIPTION
#------------------------------------------------------------------------------
STRT        .M                                          3550.1582 :START DEPTH
STOP        .M                                          4164.9399 :STOP DEPTH
STEP        .M                                             0.1524 :STEP
NULL        .                                           -999.2500 :NULL VALUE
COMP        .                                             UNKNOWN :COMPANY
WELL        .                                         SIHIL-12-ST :WELL
FLD         .                                             UNKNOWN :FIELD
LOC         .                                             UNKNOWN :LOCATION
CNTY        .                                             UNKNOWN :COUNTY
STAT        .                                             UNKNOWN :STATE
CTRY        .                                             UNKNOWN :COUNTRY
SRVC        .                                             UNKNOWN :SERVICE COMPANY
DATE        .                                             UNKNOWN :LOG DATE
UWI         .                                         SIHIL-12-ST :UNIQUE WELL ID
XCOORD      .                                            0.000000 :SURFACE X
YCOORD      .                                            0.000000 :SURFACE Y
LAT         .                                            0.000000 :LATITUDE
LON         .                                          -97.488695 :LONGITUDE
ELEV        .M                                             0.0000 :SURFACE ELEV
ELEV_TYPE   .                                                  KB :ELEV TYPE
~CURVE INFORMATION
#MNEMONIC.UNIT        API CODE       : CURVE DESCRIPTION
#------------------------------------------------------------------------------
DEPTH    .M                          : Measured Depth
TVD      .M                          : True Vertical Depth (TVD)
CALI     .inches      UNKNOWN        : CALI:litodensidad:rC:NONE:v0 (auto-composite)
DRHO     .g/cm3       UNKNOWN        : DRHO:litodensidad:rC:NONE:v0 (auto-composite)
DT       .us/ft       UNKNOWN        : DT:sonico:rC:NONE:v0 (auto-composite)
GR       .API         UNKNOWN        : GR:resistivos:rC:NONE:v0 (auto-composite)
GR-LWD   .API         UNKNOWN        : GR-LWD:resistivos-LWD:rC:NONE:v0 (auto-composite)
LLD      .ohm.m       UNKNOWN        : LLD:resistivos:rC:NONE:v0 (auto-composite)
LLD-LWD  .ohm.m       UNKNOWN        : LLD-LWD:resistivos-LWD:rC:NONE:v0 (auto-composite)
LLS      .ohm.m       UNKNOWN        : LLS:resistivos:rC:NONE:v0 (auto-composite)
LLS-LWD  .ohm.m       UNKNOWN        : LLS-LWD:resistivos-LWD:rC:NONE:v0 (auto-composite)
MSFL-LWD .ohm.m       UNKNOWN        : MSFL-LWD:resistivos-LWD:rC:NONE:v0 (auto-composite)
NPHI     .v/v_decimal UNKNOWN        : NPHI:porosidad:rC:NONE:v0 (auto-composite)
PEF      .b/elec      UNKNOWN        : PEF:litodensidad:rC:NONE:v0 (auto-composite)
RHOB     .g/cm3       UNKNOWN        : RHOB:litodensidad:rC:NONE:v0 (auto-composite)
SP       .mv          UNKNOWN        : SP:resistivos:rC:NONE:v0 (auto-composite)
~A     DEPTH         TVD         CALI         DRHO           DT           GR       GR-LWD          LLD      LLD-LWD          LLS      LLS-LWD     MSFL-LWD         NPHI          PEF         RHOB           SP
# ...
   4108.8564   4108.8564       4.5923       0.2251      46.1696      88.0729    -999.2500     159.7769    -999.2500     178.3146    -999.2500    -999.2500       0.0439       4.0542       2.8228     150.8093
   4109.0088   4109.0088       4.5898       0.1491      46.3497      87.7124    -999.2500     105.8488    -999.2500     115.8123    -999.2500    -999.2500       0.0463       3.8533       2.7879     149.7582
   4109.1616   4109.1616       4.5994       0.1129      46.3244      81.9365    -999.2500     213.0801    -999.2500     231.9898    -999.2500    -999.2500       0.0463       3.7853       2.7737     148.9587
   4109.3140   4109.3140       4.5862       0.0747      45.8407      77.6281    -999.2500     204.7096    -999.2500     223.4375    -999.2500    -999.2500       0.0447       3.6915       2.7609     148.7717
   4109.4663   4109.4663       4.5777       0.0695      45.0736      73.9263    -999.2500     166.8591    -999.2500     181.2222    -999.2500    -999.2500       0.0431       3.6296       2.7457     148.6053
   4109.6187   4109.6187       4.6007       0.0962      44.5680      72.5992    -999.2500     262.7815    -999.2500     280.8120    -999.2500    -999.2500       0.0392       3.6256       2.7277     148.3773
   4109.7710   4109.7710       4.5810       0.1325      44.3414      73.2883    -999.2500     260.2497    -999.2500     280.6325    -999.2500    -999.2500       0.0369       3.7054       2.7451     148.2818
   4109.9233   4109.9233       4.6013       0.1837      44.2489      76.9100    -999.2500     822.2348    -999.2500     845.3774    -999.2500    -999.2500       0.0346       3.8364       2.7821     147.9621
   4110.0757   4110.0757       4.5954       0.1849      44.3518      78.5374    -999.2500    1294.6006    -999.2500    1357.8549    -999.2500    -999.2500       0.0342       3.8847       2.8010     147.8759
   4110.2280   4110.2280       4.6086       0.1512      44.7004      81.2924    -999.2500     546.8794    -999.2500     580.7119    -999.2500    -999.2500       0.0339       3.9615       2.8157     147.9928
   4110.3804   4110.3804       4.6440       0.0955      45.0150      83.3993    -999.2500     356.6479    -999.2500     378.9171    -999.2500    -999.2500       0.0333       4.0513       2.8065     147.7758
   4110.5332   4110.5332       4.6104       0.0864      45.0433      83.4534    -999.2500     302.2416    -999.2500     319.1221    -999.2500    -999.2500       0.0338       4.0919       2.8055     144.8940
   4110.6855   4110.6855       4.5713       0.0940      45.1130      82.5388    -999.2500     471.3932    -999.2500     496.4712    -999.2500    -999.2500       0.0361       4.0988       2.8224     140.9294
   4110.8379   4110.8379       4.5810       0.0759      45.5077      80.2838    -999.2500     472.5686    -999.2500     504.3129    -999.2500    -999.2500       0.0396       4.0497       2.8131     139.2606
   4110.9902   4110.9902       4.5627       0.0482      46.0341      74.7590    -999.2500     285.1849    -999.2500     310.7382    -999.2500    -999.2500       0.0423       4.0195       2.7918     138.7320
   4111.1426   4111.1426       4.5834       0.0360      46.4054      71.3703    -999.2500     242.0744    -999.2500     265.3179    -999.2500    -999.2500       0.0414       4.0102       2.7858     138.3580
   4111.2949   4111.2949       4.5775       0.0291      46.7292      66.6700    -999.2500     209.3914    -999.2500     230.7475    -999.2500    -999.2500       0.0398       3.9584       2.7846     137.2320
   4111.4473   4111.4473       4.5859       0.0381      47.1717      64.7563    -999.2500     169.5649    -999.2500     186.8845    -999.2500    -999.2500       0.0394       3.8645       2.7871     136.9059
   4111.5996   4111.5996       4.6121       0.0536      47.5875      62.6451    -999.2500     159.4693    -999.2500     172.6663    -999.2500    -999.2500       0.0398       3.7257       2.7788     137.2195
   4111.7524   4111.7524       4.6115       0.0647      47.6306      61.8282    -999.2500     203.6951    -999.2500     221.8748    -999.2500    -999.2500       0.0409       3.6361       2.7610     140.2115
   4111.9048   4111.9048       4.5610       0.0943      47.5208      61.8817    -999.2500     104.0984    -999.2500     113.7964    -999.2500    -999.2500       0.0422       3.7424       2.7672     143.2021
   4112.0571   4112.0571       4.5547       0.1104      47.4019      65.2917    -999.2500     110.6319    -999.2500     120.8345    -999.2500    -999.2500       0.0418       3.9015       2.7944     146.6662
   4112.2095   4112.2095       4.5602       0.1011      46.9210      71.0270    -999.2500     128.7490    -999.2500     142.4053    -999.2500    -999.2500       0.0404       4.0481       2.8239     147.5498
   4112.3618   4112.3618       4.5653       0.0802      45.9049      77.3012    -999.2500      74.9825    -999.2500      84.3217    -999.2500    -999.2500       0.0390       4.0769       2.8254     147.2172
   4112.5142   4112.5142       4.5872       0.0516      45.2303      89.9837    -999.2500     514.0483    -999.2500     554.2418    -999.2500    -999.2500       0.0365       4.1210       2.8207     146.5993
   4112.6665   4112.6665       4.5911       0.0413      45.4806      97.2668    -999.2500     826.7006    -999.2500     929.1406    -999.2500    -999.2500       0.0355       4.1233       2.8241     146.5430
   4112.8188   4112.8188       4.6307       0.0323      46.2614     104.7053    -999.2500     113.8728    -999.2500     128.7582    -999.2500    -999.2500       0.0372       4.0722       2.8299     145.2096
   4112.9712   4112.9712       4.6668       0.0343      47.1836     105.7151    -999.2500     104.9816    -999.2500     117.2548    -999.2500    -999.2500       0.0393       3.9956       2.8204     145.0291
   4113.1240   4113.1240       4.5495       0.0736      48.2684     103.8677    -999.2500     159.3647    -999.2500     176.7156    -999.2500    -999.2500       0.0432       3.9245       2.7682     145.8379
   4113.2764   4113.2764       4.6009       0.1230      49.1980      95.1693    -999.2500     149.1345    -999.2500     166.0049    -999.2500    -999.2500       0.0448       4.0820       2.7365     146.2797
   4113.4287   4113.4287       4.6088       0.1627      49.5349      88.7853    -999.2500      84.2205    -999.2500      92.8893    -999.2500    -999.2500       0.0472       4.2628       2.7329     145.5512
   4113.5811   4113.5811       4.5989       0.1584      49.3617      82.2586    -999.2500      90.1256    -999.2500      98.2029    -999.2500    -999.2500       0.0516       4.1640       2.7373     143.8080
   4113.7334   4113.7334       4.5861       0.1473      48.8286      79.2441    -999.2500      97.4309    -999.2500     107.0126    -999.2500    -999.2500       0.0550       3.9512       2.7059     142.9146
   4113.8857   4113.8857       4.5755       0.1726      48.2323      80.5447    -999.2500      98.9830    -999.2500     109.6670    -999.2500    -999.2500       0.0569       3.8458       2.6431     141.5493
   4114.0381   4114.0381       4.7031       0.2244      47.4975      80.2281    -999.2500      81.0670    -999.2500      90.6011    -999.2500    -999.2500       0.0563       3.7715       2.5936     140.9466
   4114.1904   4114.1904       4.7389       0.2818      46.5244      79.2924    -999.2500      95.3591    -999.2500     105.7082    -999.2500    -999.2500       0.0552       3.7188       2.6202     141.0914
   4114.3428   4114.3428       4.6885       0.2797      45.7994      79.0598    -999.2500     119.3112    -999.2500     133.4735    -999.2500    -999.2500       0.0532       3.7523       2.7280     141.8579
   4114.4956   4114.4956       4.6079       0.2268      45.7239      79.8009    -999.2500     154.9744    -999.2500     170.1869    -999.2500    -999.2500       0.0509       3.7692       2.8095     141.5912
   4114.6479   4114.6479       4.6249       0.1589      46.6832      81.6648    -999.2500     189.3379    -999.2500     207.8583    -999.2500    -999.2500       0.0512       3.7719       2.8099     141.1948
