#------------------------------------------------------------------------------
#
#   Created by  : [OpenWorks] Log Export Utility (LEXP)
#   Created on  : 2015-10-01 09:41:14
#   Project     : CANT971
#   User        : R5K
#   Interpreter : PEP
#
#------------------------------------------------------------------------------
~VERSION INFORMATION
VERS. 2.0 : CWLS Log ASCII Standard - version 2.0
WRAP.  NO : One line per depth step
~WELL INFORMATION
#MNEMONIC   .UNIT                                           VALUE :DESCRIPTION
#------------------------------------------------------------------------------
STRT        .M                                          1374.3848 :START DEPTH
STOP        .M                                          3939.4292 :STOP DEPTH
STEP        .M                                             0.1524 :STEP
NULL        .                                           -999.2500 :NULL VALUE
COMP        .                                             UNKNOWN :COMPANY
WELL        .                                         SIHIL-11-ST :WELL
FLD         .                                             UNKNOWN :FIELD
LOC         .                                             UNKNOWN :LOCATION
CNTY        .                                             UNKNOWN :COUNTY
STAT        .                                             UNKNOWN :STATE
CTRY        .                                             UNKNOWN :COUNTRY
SRVC        .                                             UNKNOWN :SERVICE COMPANY
DATE        .                                             UNKNOWN :LOG DATE
UWI         .                                         SIHIL-11-ST :UNIQUE WELL ID
XCOORD      .                                       599653.950000 :SURFACE X
YCOORD      .                                      2147230.550000 :SURFACE Y
LAT         .                                           19.418046 :LATITUDE
LON         .                                          -92.050821 :LONGITUDE
ELEV        .M                                             0.0000 :SURFACE ELEV
ELEV_TYPE   .                                                  KB :ELEV TYPE
~CURVE INFORMATION
#MNEMONIC.UNIT        API CODE       : CURVE DESCRIPTION
#------------------------------------------------------------------------------
DEPTH    .M                          : Measured Depth
TVD      .M                          : True Vertical Depth (TVD)
CALI     .inches      UNKNOWN        : CALI:litodensidad:rC:NONE:v0 (auto-composite)
DRHO     .g/cm3       UNKNOWN        : DRHO:UNKNOWN:rC:NONE:v0 (auto-composite)
DT       .us/ft       UNKNOWN        : DT:UNKNOWN:rC:NONE:v0 (auto-composite)
GR       .API         UNKNOWN        : GR:UNKNOWN:rC:NONE:v0 (auto-composite)
GR-ENT   .API         UNKNOWN        : GR-ENT:registros:rC:NONE:v0 (auto-composite)
GR-LWD   .API         UNKNOWN        : GR-LWD:PETROWORKS:rC:NONE:v1 
LLD-LWD  .ohm.m       UNKNOWN        : LLD-LWD:PETROWORKS:rC:NONE:v1 
LLS-LWD  .ohm.m       UNKNOWN        : LLS-LWD:PETROWORKS:rC:NONE:v1 
MSFL-LWD .ohm.m       UNKNOWN        : MSFL-LWD:PETROWORKS:rC:NONE:v1 
NPHI     .v/v_decimal UNKNOWN        : NPHI:UNKNOWN:rC:NONE:v0 (auto-composite)
NPHI-ENT .v/v_decimal UNKNOWN        : NPHI-ENT:registros:rC:NONE:v0 (auto-composite)
PEF      .b/elec      UNKNOWN        : PEF:UNKNOWN:rC:NONE:v0 (auto-composite)
RHOB     .g/cm3       UNKNOWN        : RHOB:UNKNOWN:rC:NONE:v0 (auto-composite)
SIGM     .cu          UNKNOWN        : SIGM:registros:rC:NONE:v0 (auto-composite)
~A     DEPTH         TVD         CALI         DRHO           DT           GR       GR-ENT       GR-LWD      LLD-LWD      LLS-LWD     MSFL-LWD         NPHI     NPHI-ENT          PEF         RHOB         SIGM
# ...
   3829.0916   3829.0916       6.6463       0.0352      54.3615      79.2681    -999.2500      70.4776      63.9033      58.4024      67.3748       0.0836    -999.2500       3.8241       2.7356    -999.2500
   3829.2439   3829.2439       6.6271       0.0321      54.0226      81.1287    -999.2500      70.2814      63.0309      56.9588      66.6347       0.0819    -999.2500       3.8810       2.7356    -999.2500
   3829.3965   3829.3965       6.6274       0.0292      53.9579      80.5081    -999.2500      72.1040      61.0182      54.6385      63.2048       0.0802    -999.2500       3.9915       2.7238    -999.2500
   3829.5488   3829.5488       6.6302       0.0273      54.0957      81.3796    -999.2500      74.7927      58.1637      51.9715      58.3713       0.0800    -999.2500       4.0358       2.7267    -999.2500
   3829.7012   3829.7012       6.6252       0.0267      54.2601      85.1536    -999.2500      76.6177      55.5214      50.3471      55.5221       0.0783    -999.2500       4.0267       2.7442    -999.2500
   3829.8535   3829.8535       6.6186       0.0260      54.2494      88.9616    -999.2500      77.2120      53.8245      49.9359      54.8851       0.0756    -999.2500       4.0180       2.7561    -999.2500
   3830.0059   3830.0059       6.6218       0.0242      54.1262      87.5585    -999.2500      75.7385      52.9427      50.3247      55.8459       0.0777    -999.2500       3.9867       2.7484    -999.2500
   3830.1584   3830.1584       6.6202       0.0220      54.1780      80.9743    -999.2500      72.0595      52.3152      50.8991      57.5886       0.0813    -999.2500       3.8933       2.7314    -999.2500
   3830.3108   3830.3108       6.6215       0.0230      54.4629      76.8212    -999.2500      70.1632      51.9510      50.4996      58.1486       0.0841    -999.2500       3.7952       2.7221    -999.2500
   3830.4631   3830.4631       6.6222       0.0258      54.7390      76.2011    -999.2500      72.1266      51.0673      49.2079      56.8959       0.0858    -999.2500       3.7338       2.7206    -999.2500
   3830.6155   3830.6155       6.6186       0.0275      54.8506      76.7151    -999.2500      74.1989      49.9816      47.9792      55.0576       0.0853    -999.2500       3.8012       2.7290    -999.2500
   3830.7681   3830.7681       6.6114       0.0293      54.8589      76.5008    -999.2500      75.2771      49.0402      46.1343      52.0259       0.0827    -999.2500       3.9216       2.7428    -999.2500
   3830.9204   3830.9204       6.6101       0.0296      54.7738      77.7744    -999.2500      75.0041      48.0900      43.0155      47.1696       0.0792    -999.2500       3.9618       2.7444    -999.2500
   3831.0728   3831.0728       6.6083       0.0280      54.4581      81.5648    -999.2500      74.4081      46.8472      40.8377      43.8770       0.0763    -999.2500       3.9603       2.7283    -999.2500
   3831.2251   3831.2251       6.6040       0.0262      53.8946      86.4707    -999.2500      73.9888      45.7200      40.2099      42.7560       0.0767    -999.2500       3.9657       2.7110    -999.2500
   3831.3777   3831.3777       6.6035       0.0253      53.3810      87.3130    -999.2500      73.8188      45.2517      40.3329      42.8272       0.0773    -999.2500       3.9881       2.7072    -999.2500
   3831.5300   3831.5300       6.6062       0.0250      53.1732      82.0027    -999.2500      74.1915      45.0632      41.0670      43.9847       0.0779    -999.2500       3.9859       2.7140    -999.2500
   3831.6824   3831.6824       6.6103       0.0242      53.1864      77.3026    -999.2500      74.9337      45.1578      42.5393      46.3909       0.0792    -999.2500       3.9491       2.7209    -999.2500
   3831.8347   3831.8347       6.6110       0.0233      53.2752      76.3244    -999.2500      74.3632      45.8986      43.7264      48.1715       0.0803    -999.2500       3.9061       2.7267    -999.2500
   3831.9871   3831.9871       6.6102       0.0219      53.4076      77.9976    -999.2500      73.7295      46.8637      44.4618      49.0604       0.0796    -999.2500       3.8659       2.7340    -999.2500
   3832.1396   3832.1396       6.6086       0.0181      53.5869      80.0476    -999.2500      73.8545      47.2941      44.8065      49.3508       0.0794    -999.2500       3.8554       2.7401    -999.2500
   3832.2920   3832.2920       6.6097       0.0127      53.7415      80.4776    -999.2500      72.8273      47.6422      44.9132      49.2898       0.0788    -999.2500       3.8743       2.7383    -999.2500
   3832.4443   3832.4443       6.6072       0.0100      53.8440      79.2949    -999.2500      70.0583      48.1977      44.7907      49.0601       0.0788    -999.2500       3.8648       2.7331    -999.2500
   3832.5967   3832.5967       6.6066       0.0130      53.9927      79.3998    -999.2500      70.4329      48.4407      44.6761      49.1511       0.0780    -999.2500       3.8388       2.7279    -999.2500
   3832.7493   3832.7493       6.6096       0.0171      54.2564      79.4850    -999.2500      72.1303      48.3303      44.7619      49.1297       0.0785    -999.2500       3.8248       2.7246    -999.2500
   3832.9016   3832.9016       6.6112       0.0199      54.4843      77.3288    -999.2500      72.8478      48.3243      44.7479      49.0602       0.0801    -999.2500       3.7999       2.7267    -999.2500
   3833.0540   3833.0540       6.6090       0.0231      54.4489      75.8222    -999.2500      71.8259      48.8792      44.7625      48.7763       0.0832    -999.2500       3.7671       2.7315    -999.2500
   3833.2063   3833.2063       6.6076       0.0263      54.1738      77.5872    -999.2500      68.6266      50.1450      44.9297      48.3163       0.0848    -999.2500       3.7956       2.7340    -999.2500
   3833.3589   3833.3589       6.6085       0.0296      53.9596      76.2477    -999.2500      66.4862      50.6838      45.2419      48.7512       0.0881    -999.2500       3.8715       2.7376    -999.2500
   3833.5112   3833.5112       6.6088       0.0299      54.1965      72.5132    -999.2500      64.4806      51.0144      45.9297      49.9244       0.0900    -999.2500       3.9113       2.7301    -999.2500
   3833.6636   3833.6636       6.6118       0.0305      55.1941      69.7928    -999.2500      62.5088      51.5406      46.6572      50.9517       0.0895    -999.2500       3.9173       2.7163    -999.2500
   3833.8159   3833.8159       6.6173       0.0326      56.8800      66.0767    -999.2500      59.8825      52.5913      47.3840      52.1398       0.0910    -999.2500       3.9690       2.7119    -999.2500
   3833.9683   3833.9683       6.6228       0.0333      58.3874      60.6690    -999.2500      56.5668      54.2762      48.1674      53.7366       0.0957    -999.2500       4.1321       2.7048    -999.2500
   3834.1208   3834.1208       6.6247       0.0331      58.5496      59.1611    -999.2500      55.3380      55.4574      49.0880      54.9566       0.0970    -999.2500       4.3022       2.6972    -999.2500
   3834.2732   3834.2732       6.6235       0.0337      58.0905      58.6608    -999.2500      55.9415      56.5167      49.8876      55.3391       0.1008    -999.2500       4.4426       2.6934    -999.2500
   3834.4255   3834.4255       6.6227       0.0322      57.2675      59.5581    -999.2500      56.9138      57.0196      50.1109      55.4825       0.1024    -999.2500       4.4160       2.6831    -999.2500
   3834.5779   3834.5779       6.6225       0.0294      56.8768      61.2415    -999.2500      56.5255      57.3541      50.0987      55.6488       0.1021    -999.2500       4.3546       2.6598    -999.2500
   3834.7305   3834.7305       6.6245       0.0280      57.4538      62.5142    -999.2500      54.3966      57.4522      50.4020      55.7088       0.1014    -999.2500       4.3533       2.6433    -999.2500
   3834.8828   3834.8828       6.6289       0.0277      58.3898      61.8437    -999.2500      53.2890      57.8518      51.3588      56.5243       0.1022    -999.2500       4.3588       2.6463    -999.2500
