#------------------------------------------------------------------------------
#
#   Created by  : [OpenWorks] Log Export Utility (LEXP)
#   Created on  : 2015-10-01 09:42:34
#   Project     : CANT971
#   User        : R5K
#   Interpreter : PEP
#
#------------------------------------------------------------------------------
~VERSION INFORMATION
VERS. 2.0 : CWLS Log ASCII Standard - version 2.0
WRAP.  NO : One line per depth step
~WELL INFORMATION
#MNEMONIC   .UNIT                                           VALUE :DESCRIPTION
#------------------------------------------------------------------------------
STRT        .M                                          3550.1582 :START DEPTH
STOP        .M                                          4164.9399 :STOP DEPTH
STEP        .M                                             0.1524 :STEP
NULL        .                                           -999.2500 :NULL VALUE
COMP        .                                             UNKNOWN :COMPANY
WELL        .                                         SIHIL-12-ST :WELL
FLD         .                                             UNKNOWN :FIELD
LOC         .                                             UNKNOWN :LOCATION
CNTY        .                                             UNKNOWN :COUNTY
STAT        .                                             UNKNOWN :STATE
CTRY        .                                             UNKNOWN :COUNTRY
SRVC        .                                             UNKNOWN :SERVICE COMPANY
DATE        .                                             UNKNOWN :LOG DATE
UWI         .                                         SIHIL-12-ST :UNIQUE WELL ID
XCOORD      .                                            0.000000 :SURFACE X
YCOORD      .                                            0.000000 :SURFACE Y
LAT         .                                            0.000000 :LATITUDE
LON         .                                          -97.488695 :LONGITUDE
ELEV        .M                                             0.0000 :SURFACE ELEV
ELEV_TYPE   .                                                  KB :ELEV TYPE
~CURVE INFORMATION
#MNEMONIC.UNIT        API CODE       : CURVE DESCRIPTION
#------------------------------------------------------------------------------
DEPTH    .M                          : Measured Depth
TVD      .M                          : True Vertical Depth (TVD)
CALI     .inches      UNKNOWN        : CALI:litodensidad:rC:NONE:v0 (auto-composite)
DRHO     .g/cm3       UNKNOWN        : DRHO:litodensidad:rC:NONE:v0 (auto-composite)
DT       .us/ft       UNKNOWN        : DT:sonico:rC:NONE:v0 (auto-composite)
GR       .API         UNKNOWN        : GR:resistivos:rC:NONE:v0 (auto-composite)
GR-LWD   .API         UNKNOWN        : GR-LWD:resistivos-LWD:rC:NONE:v0 (auto-composite)
LLD      .ohm.m       UNKNOWN        : LLD:resistivos:rC:NONE:v0 (auto-composite)
LLD-LWD  .ohm.m       UNKNOWN        : LLD-LWD:resistivos-LWD:rC:NONE:v0 (auto-composite)
LLS      .ohm.m       UNKNOWN        : LLS:resistivos:rC:NONE:v0 (auto-composite)
LLS-LWD  .ohm.m       UNKNOWN        : LLS-LWD:resistivos-LWD:rC:NONE:v0 (auto-composite)
MSFL-LWD .ohm.m       UNKNOWN        : MSFL-LWD:resistivos-LWD:rC:NONE:v0 (auto-composite)
NPHI     .v/v_decimal UNKNOWN        : NPHI:porosidad:rC:NONE:v0 (auto-composite)
PEF      .b/elec      UNKNOWN        : PEF:litodensidad:rC:NONE:v0 (auto-composite)
RHOB     .g/cm3       UNKNOWN        : RHOB:litodensidad:rC:NONE:v0 (auto-composite)
SP       .mv          UNKNOWN        : SP:resistivos:rC:NONE:v0 (auto-composite)
~A     DEPTH         TVD         CALI         DRHO           DT           GR       GR-LWD          LLD      LLD-LWD          LLS      LLS-LWD     MSFL-LWD         NPHI          PEF         RHOB           SP
# ...
   4067.2515   4067.2515       4.5692       0.0824      44.2697      85.6955    -999.2500     157.0788    -999.2500     167.2903    -999.2500    -999.2500       0.0461       3.4629       2.7188     140.4157
   4067.4038   4067.4038       4.5845       0.1333      44.2172      80.7339    -999.2500     142.0659    -999.2500     150.4372    -999.2500    -999.2500       0.0419       3.5963       2.7309     141.4753
   4067.5562   4067.5562       4.5893       0.1762      44.3336      75.0050    -999.2500     260.6571    -999.2500     276.7401    -999.2500    -999.2500       0.0395       3.7105       2.7571     142.6064
   4067.7085   4067.7085       4.5808       0.2121      44.7268      76.4235    -999.2500     287.9480    -999.2500     305.2573    -999.2500    -999.2500       0.0381       3.7979       2.7820     142.0374
   4067.8611   4067.8611       4.5734       0.2298      45.3377      80.2340    -999.2500     554.5674    -999.2500     564.2105    -999.2500    -999.2500       0.0389       3.7196       2.7753     141.3576
   4068.0134   4068.0134       4.5655       0.2781      45.8774      83.8167    -999.2500     539.0116    -999.2500     535.4996    -999.2500    -999.2500       0.0391       3.5413       2.7723     140.9599
   4068.1658   4068.1658       4.5770       0.3020      46.2200      84.1002    -999.2500      90.3781    -999.2500      86.9789    -999.2500    -999.2500       0.0393       3.5230       2.7842     140.4363
   4068.3181   4068.3181       4.6028       0.2950      46.2962      82.1434    -999.2500     205.8392    -999.2500     199.5376    -999.2500    -999.2500       0.0406       3.5144       2.7852     137.8923
   4068.4707   4068.4707       4.6497       0.2587      46.0930      79.7731    -999.2500     284.0495    -999.2500     280.1275    -999.2500    -999.2500       0.0412       3.3990       2.7521     136.0206
   4068.6230   4068.6230       4.6060       0.2001      45.9126      77.1179    -999.2500     151.9527    -999.2500     150.4966    -999.2500    -999.2500       0.0439       3.2995       2.7392     133.8862
   4068.7754   4068.7754       4.6830       0.1746      45.8388      75.8289    -999.2500     130.6451    -999.2500     129.3756    -999.2500    -999.2500       0.0471       3.3989       2.7746     134.0927
   4068.9277   4068.9277       4.7312       0.1352      46.1464      73.2133    -999.2500     161.4033    -999.2500     160.5985    -999.2500    -999.2500       0.0516       3.5100       2.7716     135.8801
   4069.0803   4069.0803       4.6880       0.1344      47.2447      69.9175    -999.2500     154.6990    -999.2500     157.6967    -999.2500    -999.2500       0.0531       3.5478       2.7582     138.0407
   4069.2327   4069.2327       4.5845       0.1412      48.6938      70.0163    -999.2500     152.9228    -999.2500     156.3357    -999.2500    -999.2500       0.0529       3.5955       2.7520     137.7748
   4069.3850   4069.3850       4.5837       0.1292      50.2260      71.8107    -999.2500     203.9870    -999.2500     208.9725    -999.2500    -999.2500       0.0523       3.5991       2.7292     135.7305
   4069.5374   4069.5374       4.5623       0.1122      51.5454      74.0369    -999.2500     165.6118    -999.2500     168.5654    -999.2500    -999.2500       0.0503       3.6504       2.7356     135.2742
   4069.6897   4069.6897       4.5578       0.1001      51.8822      74.6541    -999.2500     191.1357    -999.2500     191.2262    -999.2500    -999.2500       0.0484       3.7436       2.7658     135.5225
   4069.8423   4069.8423       4.5588       0.0872      51.4396      72.7381    -999.2500     223.9425    -999.2500     224.9932    -999.2500    -999.2500       0.0490       3.7495       2.7577     135.4579
   4069.9946   4069.9946       4.5721       0.0719      50.5438      70.1396    -999.2500     188.9484    -999.2500     188.6325    -999.2500    -999.2500       0.0531       3.6198       2.7080     134.9824
   4070.1470   4070.1470       4.5810       0.0646      49.3058      66.5624    -999.2500     120.6207    -999.2500     120.5051    -999.2500    -999.2500       0.0594       3.3879       2.6235     135.1046
   4070.2993   4070.2993       4.5891       0.0745      48.1156      64.9328    -999.2500      84.7447    -999.2500      83.1266    -999.2500    -999.2500       0.0640       3.3450       2.5838     137.1604
   4070.4519   4070.4519       4.5801       0.0959      47.2001      65.1035    -999.2500     140.5006    -999.2500     135.6607    -999.2500    -999.2500       0.0629       3.5168       2.6326     140.3784
   4070.6042   4070.6042       4.5997       0.0947      46.7233      65.2150    -999.2500     325.1038    -999.2500     313.8231    -999.2500    -999.2500       0.0543       3.6664       2.7085     142.6954
   4070.7566   4070.7566       4.5726       0.0647      46.6515      67.7166    -999.2500     241.5939    -999.2500     235.6880    -999.2500    -999.2500       0.0501       3.7162       2.7240     142.1159
   4070.9089   4070.9089       4.5734       0.0279      46.6265      70.5235    -999.2500     185.6302    -999.2500     184.4105    -999.2500    -999.2500       0.0474       3.8949       2.7621     141.2872
   4071.0615   4071.0615       4.5961       0.0262      46.5509      70.8569    -999.2500     155.7199    -999.2500     156.2642    -999.2500    -999.2500       0.0471       3.8979       2.7790     141.5753
   4071.2139   4071.2139       4.5957       0.0289      46.4441      72.6884    -999.2500     171.8450    -999.2500     178.0023    -999.2500    -999.2500       0.0457       3.7701       2.7599     146.9189
   4071.3662   4071.3662       4.5802       0.0209      46.4108      75.0664    -999.2500     196.4853    -999.2500     209.4044    -999.2500    -999.2500       0.0450       3.7836       2.7332     152.3395
   4071.5186   4071.5186       4.5826       0.0133      46.5405      75.8822    -999.2500     104.0092    -999.2500     111.7575    -999.2500    -999.2500       0.0445       3.9451       2.7213     158.2803
   4071.6709   4071.6709       4.5924       0.0292      46.8459      78.8879    -999.2500     158.2769    -999.2500     165.8802    -999.2500    -999.2500       0.0451       4.0369       2.7494     164.8085
   4071.8235   4071.8235       4.6041       0.0739      47.3034      80.0284    -999.2500     276.9631    -999.2500     288.7719    -999.2500    -999.2500       0.0462       4.0956       2.8114     168.5744
   4071.9758   4071.9758       4.6255       0.0913      47.6507      81.9451    -999.2500     119.9670    -999.2500     123.4814    -999.2500    -999.2500       0.0470       4.1298       2.8366     172.1063
   4072.1282   4072.1282       4.6473       0.0870      47.4327      84.1226    -999.2500      69.9936    -999.2500      70.4694    -999.2500    -999.2500       0.0491       4.1764       2.8468     171.9929
   4072.2805   4072.2805       4.6003       0.0689      46.8718      86.6693    -999.2500      57.0818    -999.2500      57.7752    -999.2500    -999.2500       0.0513       4.2322       2.8457     167.3168
   4072.4331   4072.4331       4.6596       0.0602      46.8143      88.5136    -999.2500      65.5931    -999.2500      68.5918    -999.2500    -999.2500       0.0504       4.2599       2.8325     161.9961
   4072.5854   4072.5854       4.6729       0.0509      47.6116      89.5922    -999.2500      42.1331    -999.2500      46.1839    -999.2500    -999.2500       0.0473       4.2453       2.8034     156.8924
   4072.7378   4072.7378       4.6531       0.0510      49.2261      91.9706    -999.2500      76.1536    -999.2500      82.1268    -999.2500    -999.2500       0.0447       4.1696       2.7917     151.7944
   4072.8901   4072.8901       4.5669       0.0666      51.0905      93.3601    -999.2500     202.8280    -999.2500     222.4646    -999.2500    -999.2500       0.0420       4.0446       2.8008     149.9366
   4073.0427   4073.0427       5.1440       0.1076      52.6555      90.5474    -999.2500     167.7108    -999.2500     181.7483    -999.2500    -999.2500       0.0477       3.8351       2.7468     147.6484
