#------------------------------------------------------------------------------
#
#   Created by  : [OpenWorks] Log Export Utility (LEXP)
#   Created on  : 2015-10-01 09:41:14
#   Project     : CANT971
#   User        : R5K
#   Interpreter : PEP
#
#------------------------------------------------------------------------------
~VERSION INFORMATION
VERS. 2.0 : CWLS Log ASCII Standard - version 2.0
WRAP.  NO : One line per depth step
~WELL INFORMATION
#MNEMONIC   .UNIT                                           VALUE :DESCRIPTION
#------------------------------------------------------------------------------
STRT        .M                                          1374.3848 :START DEPTH
STOP        .M                                          3939.4292 :STOP DEPTH
STEP        .M                                             0.1524 :STEP
NULL        .                                           -999.2500 :NULL VALUE
COMP        .                                             UNKNOWN :COMPANY
WELL        .                                         SIHIL-11-ST :WELL
FLD         .                                             UNKNOWN :FIELD
LOC         .                                             UNKNOWN :LOCATION
CNTY        .                                             UNKNOWN :COUNTY
STAT        .                                             UNKNOWN :STATE
CTRY        .                                             UNKNOWN :COUNTRY
SRVC        .                                             UNKNOWN :SERVICE COMPANY
DATE        .                                             UNKNOWN :LOG DATE
UWI         .                                         SIHIL-11-ST :UNIQUE WELL ID
XCOORD      .                                       599653.950000 :SURFACE X
YCOORD      .                                      2147230.550000 :SURFACE Y
LAT         .                                           19.418046 :LATITUDE
LON         .                                          -92.050821 :LONGITUDE
ELEV        .M                                             0.0000 :SURFACE ELEV
ELEV_TYPE   .                                                  KB :ELEV TYPE
~CURVE INFORMATION
#MNEMONIC.UNIT        API CODE       : CURVE DESCRIPTION
#------------------------------------------------------------------------------
DEPTH    .M                          : Measured Depth
TVD      .M                          : True Vertical Depth (TVD)
CALI     .inches      UNKNOWN        : CALI:litodensidad:rC:NONE:v0 (auto-composite)
DRHO     .g/cm3       UNKNOWN        : DRHO:UNKNOWN:rC:NONE:v0 (auto-composite)
DT       .us/ft       UNKNOWN        : DT:UNKNOWN:rC:NONE:v0 (auto-composite)
GR       .API         UNKNOWN        : GR:UNKNOWN:rC:NONE:v0 (auto-composite)
GR-ENT   .API         UNKNOWN        : GR-ENT:registros:rC:NONE:v0 (auto-composite)
GR-LWD   .API         UNKNOWN        : GR-LWD:PETROWORKS:rC:NONE:v1 
LLD-LWD  .ohm.m       UNKNOWN        : LLD-LWD:PETROWORKS:rC:NONE:v1 
LLS-LWD  .ohm.m       UNKNOWN        : LLS-LWD:PETROWORKS:rC:NONE:v1 
MSFL-LWD .ohm.m       UNKNOWN        : MSFL-LWD:PETROWORKS:rC:NONE:v1 
NPHI     .v/v_decimal UNKNOWN        : NPHI:UNKNOWN:rC:NONE:v0 (auto-composite)
NPHI-ENT .v/v_decimal UNKNOWN        : NPHI-ENT:registros:rC:NONE:v0 (auto-composite)
PEF      .b/elec      UNKNOWN        : PEF:UNKNOWN:rC:NONE:v0 (auto-composite)
RHOB     .g/cm3       UNKNOWN        : RHOB:UNKNOWN:rC:NONE:v0 (auto-composite)
SIGM     .cu          UNKNOWN        : SIGM:registros:rC:NONE:v0 (auto-composite)
~A     DEPTH         TVD         CALI         DRHO           DT           GR       GR-ENT       GR-LWD      LLD-LWD      LLS-LWD     MSFL-LWD         NPHI     NPHI-ENT          PEF         RHOB         SIGM
# ...
   3846.9224   3846.9224       6.6168       0.0219      58.0610      55.8478    -999.2500      55.8978      64.2668      57.8473      63.8586       0.1045    -999.2500       4.2031       2.7078    -999.2500
   3847.0747   3847.0747       6.6142       0.0238      57.9084      59.2365    -999.2500      55.9594      64.5075      57.5963      63.9602       0.1002    -999.2500       4.2273       2.7268    -999.2500
   3847.2271   3847.2271       6.6147       0.0240      56.9888      59.9999    -999.2500      55.1174      65.5432      57.7851      64.9937       0.0984    -999.2500       4.1119       2.7319    -999.2500
   3847.3796   3847.3796       6.6150       0.0229      55.5491      58.2596    -999.2500      53.5967      66.1252      58.0172      64.9935       0.0964    -999.2500       3.9760       2.7265    -999.2500
   3847.5320   3847.5320       6.6173       0.0227      53.9182      56.1337    -999.2500      51.3910      65.5047      58.2660      64.4122       0.0975    -999.2500       3.9223       2.7127    -999.2500
   3847.6843   3847.6843       6.6198       0.0265      52.6361      54.6003    -999.2500      50.3247      64.9327      58.6871      65.1236       0.0984    -999.2500       3.9608       2.7028    -999.2500
   3847.8367   3847.8367       6.6281       0.0313      52.5405      54.5299    -999.2500      51.2333      64.8191      59.2858      66.6042       0.0982    -999.2500       3.9970       2.7019    -999.2500
   3847.9893   3847.9893       6.6403       0.0339      53.7513      56.1818    -999.2500      52.2420      65.5463      59.7898      68.4857       0.0947    -999.2500       3.9658       2.7112    -999.2500
   3848.1416   3848.1416       6.6450       0.0378      55.2163      58.8347    -999.2500      52.5331      67.5758      60.2677      70.6094       0.0921    -999.2500       3.8814       2.7248    -999.2500
   3848.2939   3848.2939       6.6404       0.0440      55.8204      61.0343    -999.2500      53.1306      69.5590      60.8453      71.9017       0.0890    -999.2500       3.8746       2.7359    -999.2500
   3848.4463   3848.4463       6.6427       0.0497      55.6621      59.6172    -999.2500      53.6957      70.1113      61.1701      70.8390       0.0859    -999.2500       4.0027       2.7321    -999.2500
   3848.5989   3848.5989       6.6486       0.0541      55.3719      58.8392    -999.2500      53.5151      69.8026      61.1540      68.9299       0.0827    -999.2500       4.1411       2.7177    -999.2500
   3848.7512   3848.7512       6.6486       0.0564      54.8755      60.6005    -999.2500      53.0710      69.4720      61.3453      68.2920       0.0823    -999.2500       4.1893       2.7138    -999.2500
   3848.9036   3848.9036       6.6178       0.0530      54.8994      62.4824    -999.2500      52.8882      69.1580      62.0226      68.6301       0.0865    -999.2500       4.2157       2.7195    -999.2500
   3849.0559   3849.0559       6.6146       0.0415      55.2317      63.4482    -999.2500      53.3361      68.8491      62.7397      69.8512       0.0891    -999.2500       4.2268       2.7231    -999.2500
   3849.2083   3849.2083       6.6185       0.0311      55.2946      61.8669    -999.2500      53.8697      69.3064      63.9121      72.3320       0.0895    -999.2500       4.1060       2.7149    -999.2500
   3849.3608   3849.3608       6.6225       0.0214      54.9187      58.5878    -999.2500      54.1569      71.2637      65.4164      74.9016       0.0862    -999.2500       3.9337       2.6981    -999.2500
   3849.5132   3849.5132       6.6209       0.0166      54.5180      55.8603    -999.2500      54.9180      73.4353      66.5823      77.6439       0.0851    -999.2500       3.9068       2.6903    -999.2500
   3849.6655   3849.6655       6.6146       0.0127      54.6251      55.2341    -999.2500      56.1774      73.8604      67.4569      80.5841       0.0851    -999.2500       3.9186       2.6948    -999.2500
   3849.8179   3849.8179       6.6106       0.0123      55.3628      56.4369    -999.2500      56.7975      72.8627      68.3779      82.4127       0.0857    -999.2500       3.9921       2.7011    -999.2500
   3849.9705   3849.9705       6.6107       0.0138      56.3841      55.5816    -999.2500      55.6539      72.1058      69.8633      83.9810       0.0885    -999.2500       4.1554       2.6987    -999.2500
   3850.1228   3850.1228       6.6173       0.0155      57.2304      57.2880    -999.2500      53.9403      72.4302      71.4778      86.5108       0.0902    -999.2500       4.1981       2.6962    -999.2500
   3850.2751   3850.2751       6.6220       0.0179      57.7310      60.5709    -999.2500      52.4966      74.4796      72.5142      88.6761       0.0951    -999.2500       4.1653       2.6999    -999.2500
   3850.4275   3850.4275       6.6210       0.0201      58.0842      60.4585    -999.2500      52.6507      77.1091      72.4906      88.1214       0.0984    -999.2500       4.1941       2.6983    -999.2500
   3850.5801   3850.5801       6.6209       0.0220      58.3166      60.6447    -999.2500      53.8563      78.1418      71.1382      83.4275       0.0977    -999.2500       4.2616       2.6864    -999.2500
   3850.7324   3850.7324       6.6391       0.0234      58.0507      59.5003    -999.2500      52.8879      76.5928      68.7199      77.6995       0.0982    -999.2500       4.2776       2.6851    -999.2500
   3850.8848   3850.8848       6.6492       0.0246      57.0604      56.1818    -999.2500      51.4607      73.9771      66.2855      74.4780       0.1011    -999.2500       4.2053       2.7109    -999.2500
   3851.0371   3851.0371       6.6356       0.0249      55.8902      55.6048    -999.2500      51.1170      72.3118      64.9979      73.2842       0.1031    -999.2500       4.1159       2.7327    -999.2500
   3851.1895   3851.1895       6.6188       0.0233      55.3621      59.5922    -999.2500      51.8688      71.8547      64.3857      72.0101       0.0984    -999.2500       4.0771       2.7283    -999.2500
   3851.3420   3851.3420       6.6172       0.0213      55.8986      62.1228    -999.2500      52.8837      70.8407      63.0784      69.9077       0.0944    -999.2500       4.0904       2.7133    -999.2500
   3851.4944   3851.4944       6.6134       0.0218      57.2435      60.0095    -999.2500      52.4258      68.9610      61.4700      69.0385       0.0924    -999.2500       4.0991       2.6926    -999.2500
   3851.6467   3851.6467       6.6147       0.0241      58.2269      58.7778    -999.2500      51.6415      69.2654      61.6309      69.4564       0.0933    -999.2500       4.0879       2.6731    -999.2500
   3851.7991   3851.7991       6.6176       0.0265      58.0819      57.8978    -999.2500      52.6265      69.4044      62.1729      69.2200       0.0928    -999.2500       4.0949       2.6641    -999.2500
   3851.9517   3851.9517       6.6190       0.0266      57.2109      56.7571    -999.2500      54.4802      68.4142      62.0993      68.4834       0.0910    -999.2500       4.0642       2.6671    -999.2500
   3852.1040   3852.1040       6.6198       0.0271      56.0277      57.0985    -999.2500      53.6266      68.0945      61.5229      68.5100       0.0874    -999.2500       3.9786       2.6779    -999.2500
   3852.2563   3852.2563       6.6209       0.0293      54.5963      58.6782    -999.2500      52.7733      67.7758      62.0674      69.2713       0.0866    -999.2500       3.9193       2.6794    -999.2500
   3852.4087   3852.4087       6.6214       0.0257      53.0914      61.0063    -999.2500      52.7622      67.3055      62.8106      70.4435       0.0884    -999.2500       3.9014       2.6630    -999.2500
   3852.5613   3852.5613       6.6233       0.0206      52.3824      60.2095    -999.2500      51.1276      67.4608      62.7995      71.3400       0.0905    -999.2500       3.8281       2.6497    -999.2500
   3852.7136   3852.7136       6.6286       0.0367      53.3949      54.8790    -999.2500      49.0203      68.9726      62.9529      71.9323       0.0941    -999.2500       3.8221       2.6608    -999.2500
